     3.02           OBSERVATION DATA    M: Mixed            RINEX VERSION / TYPE
RTKCONV 2.4.3 b32                       20200116 031234 UTC PGM / RUN BY / DATE 
log: C:\Users\ykouk\Desktop\1108\log_base_station.ubx       COMMENT             
format: u-blox                                              COMMENT             
                                                            MARKER NAME         
                                                            MARKER NUMBER       
                                                            MARKER TYPE         
                                                            OBSERVER / AGENCY   
                                                            REC # / TYPE / VERS 
                                                            ANT # / TYPE        
 -3934423.6832  3384137.0192  3695921.4495                  APPROX POSITION XYZ 
        0.0000        0.0000        0.0000                  ANTENNA: DELTA H/E/N
G    4 C1C L1C D1C S1C                                      SYS / # / OBS TYPES 
R    4 C1C L1C D1C S1C                                      SYS / # / OBS TYPES 
E    4 C1C L1C D1C S1C                                      SYS / # / OBS TYPES 
J    4 C1C L1C D1C S1C                                      SYS / # / OBS TYPES 
C    4 C1I L1I D1I S1I                                      SYS / # / OBS TYPES 
  2020     1    16     2     6   13.1950000     GPS         TIME OF FIRST OBS   
  2020     1    16     2    16   28.3950000     GPS         TIME OF LAST OBS    
G                                                           SYS / PHASE SHIFT   
R                                                           SYS / PHASE SHIFT   
E                                                           SYS / PHASE SHIFT   
J                                                           SYS / PHASE SHIFT   
C                                                           SYS / PHASE SHIFT   
  0                                                         GLONASS SLOT / FRQ #
 C1C    0.000 C1P    0.000 C2C    0.000 C2P    0.000        GLONASS COD/PHS/BIS 
                                                            END OF HEADER       
> 2020  1 16  2  6 13.1950000  0 38                     
E27  24768090.323   130157219.752       -2842.357          40.000  
E19  21908943.889   115132288.319        -467.318          40.000  
G15  19895787.146   104553059.649       -2313.470          47.000  
J 1  36609422.820   192383815.225          96.472          47.000  
G21  22139183.795   116342184.816       -2471.323          40.000  
C 9  36598220.541   190576514.292        -253.255          45.000  
C22  20457841.512   106529319.605       -1464.654          51.000  
C 7  38273225.941   199298733.192         872.272          38.000  
C 8  37630422.578   195951467.014       -2700.750          40.000  
C 6  35318502.961   183912708.250        -270.721          46.000  
C19  23639111.072   123095025.689       -3397.284          40.000  
R 8  21895100.968   117247284.509       -3803.975          45.000  
R11  18661635.827    99722205.707       -3063.789          47.000  
R18  22721196.090                3      -1997.744          26.000  
R 2  18717701.243    99881272.929        1885.696          52.000  
R12  17775768.961    94955028.100         858.510          53.000  
G10  21035297.351   110541248.881        2323.396          46.000  
J 2  35623746.420   187204035.617        -981.991          45.000  
G13  22377364.302   117593788.267       -3071.783          41.000  
E20  18671727.861    98120572.933       -2176.638          38.000  
G12  20635421.923   108439940.537        2538.179          47.000  
E12  24419994.051   128327897.280       -2995.187          35.000  
C16  35562119.402   185181287.160        -255.306          49.000  
C13  36932667.251   192318064.016       -2481.290          45.000  
R 1  18631095.851    99593875.779       -2112.807          50.000  
R13  21376608.668   114149902.688        3599.372          34.000  
R10  21896961.975   116805295.852       -4763.310          39.000  
E 4  24330330.635   127856736.182        1422.293          45.000  
J 7  35712376.874   187669798.035        -578.877          40.000  
G20  18930172.943    99478725.799         390.922          47.000  
E 1  23838213.976   125270706.367        2091.451          45.000  
J 3  36409518.202                1       -579.504          33.000  
E11  25996218.580                       -1673.318          29.000  
G25  22980348.595   120762499.260        3307.341          35.000  
G24  18477864.758    97101863.436       -1173.304          50.000  
E21  22314033.021   117261083.179        -340.926          46.000  
G28  24356713.255   127995374.588       -3364.938          35.000  
G32                                                                
> 2020  1 16  2  6 13.3950000  0 38                     
E27  24768198.551   130157788.249       -2842.420          40.000  
E19  21908961.607   115132381.784        -467.241          40.000  
G15  19895875.181   104553522.318       -2313.301          47.000  
J 1  36609419.147   192383795.906          96.668          47.000  
G21  22139277.823   116342679.002       -2471.035          40.000  
C 9  36598230.250   190576564.902        -253.028          45.000  
C22  20457897.752   106529612.535       -1464.604          51.000  
C 7  38273192.449   199298558.779         872.189          38.000  
C 8  37630526.349   195952007.168       -2700.670          40.000  
C 6  35318513.417   183912762.357        -270.428          46.000  
C19  23639241.559   123095705.200       -3397.228          40.000  
R 8  21895243.027   117248045.295       -3803.900          45.000  
R11  18661750.502    99722818.483       -3063.986          47.000  
R18  22721270.556                3      -1998.261          26.000  
R 2  18717630.531    99880895.751        1885.901          52.000  
R12  17775736.803    94954856.399         858.513          53.000  
G10  21035208.934   110540784.168        2323.577          46.000  
J 2  35623783.752   187204231.989        -981.769          45.000  
G13  22377481.202   117594402.631       -3071.704          41.000  
E20  18671810.764    98121008.349       -2176.563          38.000  
G12  20635325.327   108439432.922        2538.172          47.000  
E12  24420107.999   128328496.375       -2995.491          35.000  
C16  35562129.217   185181338.210        -255.225          49.000  
C13  36932762.550   192318560.223       -2480.975          45.000  
R 1  18631174.911    99594298.334       -2112.682          50.000  
R13  21376473.882   114149182.782        3599.706          34.000  
R10  21897140.504   116806248.430       -4762.965          39.000  
E 4  24330276.496   127856451.698        1422.497          45.000  
J 7  35712398.843   187669913.797        -578.796          40.000  
G20  18930158.072    99478647.597         391.059          47.000  
E 1  23838134.324   125270288.062        2091.522          45.000  
J 3  36409540.270                        -579.996          33.000  
E11  25996282.136                       -1672.964          29.000  
G25  22980222.695   120761837.649        3308.007          35.000  
G24  18477909.421    97102098.101       -1173.329          50.000  
E21  22314045.957   117261151.349        -340.845          46.000  
G28  24356841.312   127996047.494       -3364.505          35.000  
G32                                                                
> 2020  1 16  2  6 13.5950000  0 38                     
E27  24768306.769   130158356.755       -2842.709          40.000  
E19  21908979.258   115132475.273        -467.555          40.000  
G15  19895963.268   104553985.012       -2313.622          47.000  
J 1  36609415.401   192383776.612          96.309          47.000  
G21  22139371.851   116343173.228       -2471.427          40.000  
C 9  36598240.033   190576615.531        -253.188          45.000  
C22  20457953.954   106529905.495       -1465.043          51.000  
C 7  38273158.979   199298384.383         871.806          38.000  
C 8  37630630.097   195952547.356       -2701.163          40.000  
C 6  35318523.802   183912816.493        -270.748          46.000  
C19  23639371.987   123096384.728       -3397.786          41.000  
R 8  21895385.114   117248806.106       -3804.115          45.000  
R11  18661865.124    99723431.273       -3064.229          47.000  
R18  22721344.956                3      -1998.525          26.000  
R 2  18717559.834    99880518.606        1885.530          52.000  
R12  17775704.639    94954684.748         858.037          53.000  
G10  21035120.500   110540319.484        2323.239          46.000  
J 2  35623821.098   187204428.390        -982.211          45.000  
G13  22377598.152   117595017.012       -3072.034          41.000  
E20  18671893.504    98121443.798       -2177.084          38.000  
G12  20635228.778   108438925.330        2537.768          47.000  
E12  24420222.000   128329095.473       -2995.474          35.000  
C16  35562139.052   185181389.266        -255.416          49.000  
C13  36932857.860   192319056.464       -2481.238          45.000  
R 1  18631253.965    99594720.926       -2113.139          50.000  
R13  21376339.053   114148462.899        3599.098          34.000  
R10  21897319.079   116807201.048       -4763.339          39.000  
E 4  24330222.442   127856167.228        1422.171          44.000  
J 7  35712420.853   187670029.556        -578.863          40.000  
G20  18930143.202    99478569.442         390.549          47.000  
E 1  23838054.786   125269869.785        2091.301          45.000  
J 3  36409562.418                        -580.082          33.000  
E11  25996345.781                       -1673.059          29.000  
G25  22980096.711   120761176.050        3307.924          34.000  
G24  18477954.067    97102332.798       -1173.658          50.000  
E21  22314058.974   117261219.564        -341.368          46.000  
G28  24356969.348   127996720.447       -3364.525          35.000  
G32                                                                
> 2020  1 16  2  6 13.7950000  0 38                     
E27  24768414.965   130158925.288       -2842.696          40.000  
E19  21908997.119   115132568.770        -467.226          40.000  
G15  19896051.288   104554447.727       -2313.429          47.000  
J 1  36609411.677   192383757.327          96.373          47.000  
G21  22139465.884   116343667.459       -2471.311          40.000  
C 9  36598249.764   190576666.177        -253.311          45.000  
C22  20458010.164   106530198.481       -1465.002          51.000  
C 7  38273125.513   199298209.988         871.783          38.000  
C 8  37630733.830   195953087.535       -2700.823          40.000  
C 6  35318534.178   183912870.636        -270.759          46.000  
C19  23639502.533   123097064.278       -3397.830          41.000  
R 8  21895527.218   117249566.951       -3804.243          45.000  
R11  18661979.789    99724044.122       -3064.235          47.000  
R18  22721419.352                3      -1997.997          25.000  
R 2  18717489.203    99880141.485        1885.514          52.000  
R12  17775672.536    94954513.145         857.902          53.000  
G10  21035032.089   110539854.830        2323.208          46.000  
J 2  35623858.451   187204624.798        -982.032          45.000  
G13  22377715.033   117595631.407       -3071.924          41.000  
E20  18671976.313    98121879.249       -2177.345          38.000  
G12  20635132.163   108438417.765        2537.824          47.000  
E12  24420335.988   128329694.596       -2995.743          35.000  
C16  35562148.879   185181440.337        -255.317          49.000  
C13  36932953.110   192319552.712       -2481.115          45.000  
R 1  18631332.991    99595143.552       -2113.211          50.000  
R13  21376204.302   114147743.024        3599.224          34.000  
R10  21897497.667   116808153.666       -4763.111          39.000  
E 4  24330168.336   127855882.778        1422.214          44.000  
J 7  35712442.859   187670145.352        -578.909          40.000  
G20  18930128.346    99478491.321         390.563          47.000  
E 1  23837975.220   125269451.524        2091.239          45.000  
J 3  36409584.456                        -579.151          33.000  
E11  25996409.812                       -1673.645          29.000  
G25  22979970.732   120760514.503        3308.154          34.000  
G24  18477998.718    97102567.534       -1173.791          50.000  
E21  22314071.894   117261287.797        -341.208          46.000  
G28  24357097.435   127997393.456       -3364.834          35.000  
G32                                                                
> 2020  1 16  2  6 13.9950000  0 38                     
E27  24768523.238   130159493.874       -2843.066          40.000  
E19  21909014.976   115132662.330        -468.083          40.000  
G15  19896139.347   104554910.493       -2314.021          47.000  
J 1  36609408.064   192383738.064          96.120          47.000  
G21  22139559.979   116344161.742       -2471.492          40.000  
C 9  36598259.502   190576716.841        -253.583          45.000  
C22  20458066.470   106530491.508       -1465.268          51.000  
C 7  38273092.069   199298035.616         872.046          38.000  
C 8  37630837.607   195953627.759       -2701.087          40.000  
C 6  35318544.551   183912924.793        -271.010          46.000  
C19  23639633.031   123097743.852       -3398.232          41.000  
R 8  21895669.329   117250327.822       -3804.537          45.000  
R11  18662094.506    99724657.013       -3064.777          47.000  
R18  22721493.881                3      -1999.261          25.000  
R 2  18717418.510    99879764.401        1885.263          52.000  
R12  17775640.402    94954341.598         857.487          53.000  
G10  21034943.691   110539390.206        2322.966          46.000  
J 2  35623895.847   187204821.243        -982.321          45.000  
G13  22377832.008   117596245.838       -3072.369          41.000  
E20  18672059.177    98122314.744       -2177.477          38.000  
G12  20635035.616   108437910.241        2537.451          47.000  
E12  24420450.037   128330293.725       -2995.855          35.000  
C16  35562158.710   185181491.436        -255.620          49.000  
C13  36933048.427   192320048.997       -2481.582          45.000  
R 1  18631412.064    99595566.229       -2113.572          50.000  
R13  21376069.525   114147023.204        3598.534          34.000  
R10  21897676.258   116809106.331       -4763.522          39.000  
E 4  24330114.205   127855598.345        1421.999          44.000  
J 7  35712464.876   187670261.165        -579.262          40.000  
G20  18930113.515    99478413.250         390.165          47.000  
E 1  23837895.641   125269033.310        2091.004          45.000  
J 3  36409606.628   191333769.936        -579.891          33.000  
E11  25996473.287                       -1673.391          29.000  
G25  22979844.692   120759852.998        3307.298          34.000  
G24  18478043.459    97102802.302       -1174.061          50.000  
E21  22314085.014   117261356.083        -341.608          46.000  
G28  24357225.525   127998066.484       -3365.454          35.000  
G32                                                                
> 2020  1 16  2  6 14.1950000  0 38                     
E27  24768631.409   130160062.448       -2843.037          40.000  
E19  21909032.659   115132755.858        -467.706          40.000  
G15  19896227.405   104555373.245       -2313.857          47.000  
J 1  36609404.479   192383718.791          96.394          47.000  
G21  22139654.041   116344656.016       -2471.332          40.000  
C 9  36598269.175   190576767.491        -253.409          45.000  
C22  20458122.797   106530784.552       -1465.276          51.000  
C 7  38273058.541   199297861.259         871.823          38.000  
C 8  37630941.346   195954167.971       -2701.083          40.000  
C 6  35318554.987   183912978.949        -270.814          46.000  
C19  23639763.568   123098423.433       -3398.138          41.000  
R 8  21895811.403   117251088.705       -3804.426          45.000  
R11  18662209.161    99725269.909       -3064.590          47.000  
R18  22721568.011                3      -1998.259          25.000  
R 2  18717347.855    99879387.315        1885.413          52.000  
R12  17775608.241    94954170.072         857.566          53.000  
G10  21034855.292   110538925.587        2322.994          46.000  
J 2  35623933.211   187205017.682        -982.223          45.000  
G13  22377948.939   117596860.244       -3071.893          41.000  
E20  18672142.138    98122750.259       -2177.828          38.000  
G12  20634939.033   108437402.716        2537.571          47.000  
E12  24420564.044   128330892.863       -2995.709          35.000  
C16  35562168.515   185181542.521        -255.355          49.000  
C13  36933143.726   192320545.264       -2481.329          45.000  
R 1  18631491.126    99595988.911       -2113.497          50.000  
R13  21375934.700   114146303.345        3599.341          34.000  
R10  21897854.884   116810059.002       -4763.404          39.000  
E 4  24330060.065   127855313.914        1422.197          45.000  
J 7  35712486.941   187670376.956        -578.660          40.000  
G20  18930098.666    99478335.197         390.216          47.000  
E 1  23837815.939   125268615.085        2091.059          45.000  
J 3  36409628.642   191333885.778        -579.065          33.000  
E11  25996537.088                       -1672.973          29.000  
G25  22979718.696   120759191.440        3307.256          34.000  
G24  18478088.106    97103037.086       -1173.956          50.000  
E21  22314098.015   117261424.373        -341.546          46.000  
G28  24357353.534   127998739.474       -3364.912          35.000  
G32                                                                
> 2020  1 16  2  6 14.3950000  0 38                     
E27  24768739.615   130160631.001       -2842.783          40.000  
E19  21909050.449   115132849.376        -467.534          40.000  
G15  19896315.483   104555835.982       -2313.800          47.000  
J 1  36609400.826   192383699.500          96.309          47.000  
G21  22139748.123   116345150.297       -2471.665          40.000  
C 9  36598278.882   190576818.117        -253.320          45.000  
C22  20458179.048   106531077.580       -1465.295          51.000  
C 7  38273025.054   199297686.868         871.718          38.000  
C 8  37631045.109   195954708.152       -2701.046          40.000  
C 6  35318565.454   183913033.070        -270.535          46.000  
C19  23639894.100   123099102.972       -3397.690          41.000  
R 8  21895953.511   117251849.573       -3804.439          45.000  
R11  18662323.839    99725882.815       -3064.714          47.000  
R18  22721643.468                3      -1998.634          25.000  
R 2  18717277.250    99879010.219        1885.373          52.000  
R12  17775576.176    94953998.564         857.356          53.000  
G10  21034766.871   110538460.964        2322.913          46.000  
J 2  35623970.522   187205214.094        -982.187          45.000  
G13  22378065.896   117597474.654       -3072.241          41.000  
E20  18672225.005    98123185.713       -2177.686          38.000  
G12  20634842.441   108436895.179        2537.629          47.000  
E12  24420678.062   128331491.973       -2995.749          35.000  
C16  35562178.335   185181593.583        -255.401          49.000  
C13  36933239.008   192321041.526       -2481.305          45.000  
R 1  18631570.205    99596411.596       -2113.547          50.000  
R13  21375799.933   114145583.530        3598.988          34.000  
R10  21898033.476   116811011.638       -4763.246          39.000  
E 4  24330005.923   127855029.453        1422.194          45.000  
J 7  35712508.978   187670492.749        -578.751          40.000  
G20  18930083.815    99478257.136         390.202          47.000  
E 1  23837736.325   125268196.857        2091.154          45.000  
J 3  36409650.589   191334001.659        -579.147          33.000  
E11  25996600.826                       -1673.353          29.000  
G25  22979592.650   120758529.865        3307.268          34.000  
G24  18478132.794    97103271.867       -1174.035          50.000  
E21  22314111.007   117261492.657        -341.535          46.000  
G28  24357481.610   127999412.502       -3365.210          35.000  
G32                                                                
> 2020  1 16  2  6 14.5950000  0 38                     
E27  24768847.900   130161199.573       -2842.833          40.000  
E19  21909068.245   115132942.886        -467.339          40.000  
G15  19896403.525   104556298.711       -2313.546          47.000  
J 1  36609397.088   192383680.178          96.642          47.000  
G21  22139842.223   116345644.536       -2471.354          40.000  
C 9  36598288.643   190576868.724        -253.023          45.000  
C22  20458235.353   106531370.607       -1465.137          51.000  
C 7  38272991.577   199297512.434         872.180          38.000  
C 8  37631148.844   195955248.320       -2701.125          40.000  
C 6  35318575.750   183913087.173        -270.344          46.000  
C19  23640024.594   123099782.537       -3397.855          41.000  
R 8  21896095.611   117252610.436       -3804.279          45.000  
R11  18662438.590    99726495.718       -3064.541          47.000  
R18  22721717.672                3      -1999.166          25.000  
R 2  18717206.575    99878633.113        1885.521          52.000  
R12  17775544.074    94953827.059         857.516          53.000  
G10  21034678.445   110537996.322        2323.304          46.000  
J 2  35624007.892   187205410.490        -981.894          45.000  
G13  22378182.815   117598089.031       -3071.844          41.000  
E20  18672307.842    98123621.157       -2177.373          38.000  
G12  20634745.878   108436387.637        2537.757          47.000  
E12  24420791.968   128332091.052       -2995.214          35.000  
C16  35562188.118   185181644.613        -255.090          49.000  
C13  36933334.279   192321537.767       -2481.307          45.000  
R 1  18631649.334    99596834.276       -2113.424          50.000  
R13  21375665.102   114144863.667        3599.450          34.000  
R10  21898212.062   116811964.269       -4763.167          39.000  
E 4  24329951.797   127854744.977        1422.463          45.000  
J 7  35712530.978   187670608.501        -578.562          40.000  
G20  18930068.962    99478179.095         390.208          47.000  
E 1  23837656.701   125267778.610        2091.188          45.000  
J 3  36409672.655   191334117.495        -579.414          33.000  
E11  25996664.663                       -1673.345          29.000  
G25  22979466.631   120757868.240        3308.159          34.000  
G24  18478177.500    97103506.645       -1173.911          50.000  
E21  22314123.998   117261560.941        -341.325          46.000  
G28  24357609.817   128000085.480       -3364.736          35.000  
G32                                                                
> 2020  1 16  2  6 14.7950000  0 38                     
E27  24768956.170   130161768.161       -2843.222          40.000  
E19  21909086.049   115133036.441        -467.652          40.000  
G15  19896491.618   104556761.490       -2313.920          47.000  
J 1  36609393.362   192383660.900          96.341          47.000  
G21  22139936.308   116346138.829       -2471.683          40.000  
C 9  36598298.390   190576919.357        -253.325          45.000  
C22  20458291.660   106531663.688       -1465.473          51.000  
C 7  38272958.127   199297338.059         871.791          38.000  
C 8  37631252.593   195955788.512       -2701.038          40.000  
C 6  35318586.152   183913141.315        -270.674          46.000  
C19  23640155.070   123100462.121       -3398.139          41.000  
R 8  21896237.719   117253371.338       -3804.536          45.000  
R11  18662553.315    99727108.687       -3065.007          47.000  
R18  22721792.361                3      -1997.807          25.000  
R 2  18717135.880    99878256.052        1885.184          52.000  
R12  17775511.985    94953655.635         857.010          53.000  
G10  21034590.067   110537531.738        2322.812          46.000  
J 2  35624045.287   187205606.927        -982.233          45.000  
G13  22378299.686   117598703.440       -3072.198          41.000  
E20  18672390.682    98124056.679       -2177.890          38.000  
G12  20634649.309   108435880.152        2537.246          47.000  
E12  24420905.992   128332690.199       -2995.844          35.000  
C16  35562197.898   185181695.686        -255.415          49.000  
C13  36933429.590   192322034.043       -2481.459          45.000  
R 1  18631728.422    99597257.018       -2113.810          50.000  
R13  21375530.326   114144143.872        3598.459          34.000  
R10  21898390.639   116812916.922       -4763.399          39.000  
E 4  24329897.711   127854460.534        1421.965          45.000  
J 7  35712553.019   187670724.297        -578.925          40.000  
G20  18930054.125    99478101.112         389.657          47.000  
E 1  23837577.134   125267360.416        2090.850          45.000  
J 3  36409694.670   191334233.344        -579.711          33.000  
E11  25996728.056                       -1673.632          29.000  
G25  22979340.658   120757206.685        3307.643          34.000  
G24  18478222.149    97103741.477       -1174.285          50.000  
E21  22314137.034   117261629.289        -341.838          46.000  
G28  24357737.933   128000758.535       -3365.472          35.000  
G32                                                                
> 2020  1 16  2  6 14.9950000  0 38                     
E27  24769064.397   130162336.759       -2842.770          40.000  
E19  21909103.815   115133129.998        -467.784          40.000  
G15  19896579.653   104557224.262       -2313.695          47.000  
J 1  36609389.674   192383641.609          96.573          47.000  
G21  22140030.366   116346633.129       -2471.417          40.000  
C 9  36598308.098   190576969.981        -253.001          45.000  
C22  20458347.989   106531956.771       -1465.387          51.000  
C 7  38272924.679   199297163.678         871.926          38.000  
C 8  37631356.384   195956328.710       -2701.021          40.000  
C 6  35318596.474   183913195.433        -270.415          46.000  
C19  23640285.606   123101141.704       -3397.856          41.000  
R 8  21896379.820   117254132.239       -3804.326          45.000  
R11  18662668.032    99727721.658       -3064.687          48.000  
R18  22721867.133                3      -2000.913          25.000  
R 2  18717065.197    99877878.991        1885.390          52.000  
R12  17775479.889    94953484.225         857.042          53.000  
G10  21034501.679   110537067.155        2322.809          46.000  
J 2  35624082.651   187205803.353        -982.065          45.000  
G13  22378416.642   117599317.845       -3071.796          41.000  
E20  18672473.521    98124492.161       -2177.702          38.000  
G12  20634552.787   108435372.653        2537.534          47.000  
E12  24421019.938   128333289.304       -2995.313          35.000  
C16  35562207.771   185181746.741        -255.177          49.000  
C13  36933524.845   192322530.322       -2481.354          45.000  
R 1  18631807.515    99597679.766       -2113.627          50.000  
R13  21375395.507   114143424.082        3598.302          34.000  
R10  21898569.199   116813869.586       -4763.114          39.000  
E 4  24329843.563   127854176.067        1422.410          45.000  
J 7  35712575.070   187670840.090        -579.025          40.000  
G20  18930039.289    99478023.126         389.867          47.000  
E 1  23837497.421   125266942.214        2090.994          45.000  
J 3  36409716.703   191334349.158        -578.542          33.000  
E11  25996791.744                       -1674.050          29.000  
G25  22979214.655   120756545.098        3308.013          34.000  
G24  18478266.841    97103976.313       -1174.164          51.000  
E21  22314150.002   117261697.640        -341.743          46.000  
G28  24357866.047   128001431.563       -3364.854          35.000  
G32                                                                
> 2020  1 16  2  6 15.1950000  0 38                     
E27  24769172.713   130162905.367       -2843.122          40.000  
E19  21909121.573   115133223.521        -467.646          40.000  
G15  19896667.716   104557687.035       -2313.854          47.000  
J 1  36609386.050   192383622.297          96.451          47.000  
G21  22140124.449   116347127.394       -2471.394          40.000  
C 9  36598317.846   190577020.580        -252.991          45.000  
C22  20458404.263   106532249.851       -1465.512          51.000  
C 7  38272891.196   199296989.254         872.139          38.000  
C 8  37631460.084   195956868.865       -2700.838          40.000  
C 6  35318606.904   183913249.541        -270.611          46.000  
C19  23640416.098   123101821.277       -3397.761          41.000  
R 8  21896521.926   117254893.144       -3804.590          45.000  
R11  18662782.729    99728334.654       -3065.065          48.000  
R18  22721941.426                3      -1998.168          25.000  
R 2  18716994.520    99877501.925        1885.171          52.000  
R12  17775447.780    94953312.832         856.802          53.000  
G10  21034413.306   110536602.555        2322.838          46.000  
J 2  35624120.026   187205999.768        -982.194          45.000  
G13  22378533.530   117599932.241       -3071.985          41.000  
E20  18672556.363    98124927.616       -2177.399          38.000  
G12  20634456.188   108434865.164        2537.365          47.000  
E12  24421133.947   128333888.404       -2995.487          35.000  
C16  35562217.556   185181797.781        -255.238          49.000  
C13  36933620.119   192323026.581       -2481.552          45.000  
R 1  18631886.601    99598102.521       -2113.844          50.000  
R13  21375260.761   114142704.218        3599.271          34.000  
R10  21898747.772   116814822.242       -4763.417          38.000  
E 4  24329789.410   127853891.608        1422.204          45.000  
J 7  35712597.090   187670955.841        -578.819          40.000  
G20  18930024.449    99477945.159         389.812          47.000  
E 1  23837417.854   125266523.996        2091.000          45.000  
J 3  36409738.859   191334465.011        -579.396          33.000  
E11  25996855.414                       -1673.331          29.000  
G25  22979088.648   120755883.519        3307.689          34.000  
G24  18478311.536    97104211.153       -1174.295          51.000  
E21  22314163.069   117261765.986        -341.851          46.000  
G28  24357994.164   128002104.627       -3365.740          35.000  
G32                                                                
> 2020  1 16  2  6 15.3950000  0 38                     
E27  24769280.948   130163473.953       -2843.056          40.000  
E19  21909139.432   115133317.081        -467.877          40.000  
G15  19896755.807   104558149.809       -2314.070          47.000  
J 1  36609382.388   192383602.982          96.557          47.000  
G21  22140218.526   116347621.708       -2471.725          40.000  
C 9  36598327.572   190577071.182        -253.111          45.000  
C22  20458460.507   106532542.951       -1465.590          51.000  
C 7  38272857.670   199296814.856         872.105          38.000  
C 8  37631563.829   195957409.053       -2701.222          40.000  
C 6  35318617.263   183913303.634        -270.571          46.000  
C19  23640546.586   123102500.862       -3398.085          41.000  
R 8  21896664.042   117255654.045       -3804.634          45.000  
R11  18662897.435    99728947.662       -3065.250          48.000  
R18  22722016.353                3      -1999.725          26.000  
R 2  18716923.886    99877124.863        1885.134          52.000  
R12  17775415.765    94953141.468         856.682          53.000  
G10  21034324.952   110536137.971        2322.815          46.000  
J 2  35624157.430   187206196.178        -982.228          45.000  
G13  22378650.450   117600546.644       -3072.174          41.000  
E20  18672639.235    98125363.111       -2177.418          38.000  
G12  20634359.623   108434357.673        2537.254          47.000  
E12  24421248.028   128334487.520       -2995.773          35.000  
C16  35562227.337   185181848.807        -255.219          49.000  
C13  36933715.459   192323522.838       -2481.380          45.000  
R 1  18631965.678    99598525.295       -2114.067          50.000  
R13  21375125.978   114141984.432        3598.582          34.000  
R10  21898926.371   116815774.904       -4763.318          38.000  
E 4  24329735.251   127853607.133        1422.331          45.000  
J 7  35712619.131   187671071.615        -579.106          40.000  
G20  18930009.619    99477867.218         389.549          47.000  
E 1  23837338.148   125266105.798        2090.960          45.000  
J 3  36409760.878   191334580.839        -579.073          33.000  
E11  25996919.002                       -1674.109          29.000  
G25  22978962.613   120755221.883        3308.411          34.000  
G24  18478356.215    97104446.015       -1174.481          51.000  
E21  22314176.010   117261834.358        -341.967          46.000  
G28  24358122.220   128002777.646       -3365.166          34.000  
G32                                                                
> 2020  1 16  2  6 15.5950000  0 38                     
E27  24769389.194   130164042.541       -2842.753          40.000  
E19  21909157.217   115133410.593        -467.524          40.000  
G15  19896843.858   104558612.557       -2313.722          47.000  
J 1  36609378.647   192383583.637          96.790          47.000  
G21  22140312.542   116348115.960       -2471.216          40.000  
C 9  36598337.252   190577121.738        -252.696          45.000  
C22  20458516.734   106532836.038       -1465.574          51.000  
C 7  38272824.180   199296640.427         871.986          38.000  
C 8  37631667.564   195957949.197       -2700.844          40.000  
C 6  35318627.678   183913357.686        -270.245          46.000  
C19  23640677.083   123103180.414       -3397.877          41.000  
R 8  21896806.126   117256414.933       -3804.438          45.000  
R11  18663012.102    99729560.663       -3065.190          48.000  
R18  22722091.355                3      -1998.434          25.000  
R 2  18716853.236    99876747.783        1885.331          52.000  
R12  17775383.731    94952970.108         856.631          53.000  
G10  21034236.542   110535673.370        2323.023          46.000  
J 2  35624194.808   187206392.568        -982.040          45.000  
G13  22378767.393   117601161.000       -3071.814          41.000  
E20  18672722.153    98125798.574       -2177.193          38.000  
G12  20634263.051   108433850.168        2537.576          47.000  
E12  24421361.972   128335086.599       -2995.840          35.000  
C16  35562237.094   185181899.808        -254.973          49.000  
C13  36933810.771   192324019.069       -2481.172          45.000  
R 1  18632044.765    99598948.056       -2113.901          50.000  
R13  21374991.141   114141264.599        3599.327          34.000  
R10  21899104.903   116816727.538       -4763.734          38.000  
E 4  24329681.142   127853322.631        1422.458          44.000  
J 7  35712641.157   187671187.342        -578.673          40.000  
G20  18929994.745    99477789.267         389.554          47.000  
E 1  23837258.513   125265687.584        2091.056          45.000  
J 3  36409782.936   191334696.596        -578.709          33.000  
E11  25996982.898                       -1673.175          29.000  
G25  22978836.637   120754560.288        3307.836          34.000  
G24  18478400.909    97104680.861       -1174.275          51.000  
E21  22314189.017   117261902.714        -341.896          46.000  
G28  24358250.253   128003450.667       -3365.080          34.000  
G32                                                                
> 2020  1 16  2  6 15.7950000  0 38                     
E27  24769497.345   130164611.191       -2843.263          40.000  
E19  21909175.005   115133504.177        -467.704          40.000  
G15  19896931.891   104559075.382       -2313.984          47.000  
J 1  36609374.931   192383564.344          96.666          47.000  
G21  22140406.610   116348610.308       -2471.704          40.000  
C 9  36598346.968   190577172.361        -252.825          45.000  
C22  20458573.045   106533129.187       -1465.624          51.000  
C 7  38272790.659   199296466.025         872.095          38.000  
C 8  37631771.311   195958489.387       -2700.956          40.000  
C 6  35318638.030   183913411.812        -270.421          46.000  
C19  23640807.557   123103860.028       -3397.790          41.000  
R 8  21896948.263   117257175.888       -3804.792          45.000  
R11  18663126.809    99730173.745       -3065.255          48.000  
R18  22722165.898                3      -1999.855          25.000  
R 2  18716782.582    99876370.768        1885.240          52.000  
R12  17775351.648    94952798.831         856.476          53.000  
G10  21034148.147   110535208.843        2322.799          46.000  
J 2  35624232.193   187206589.008        -982.124          45.000  
G13  22378884.295   117601775.434       -3072.028          41.000  
E20  18672804.985    98126234.083       -2177.181          38.000  
G12  20634166.525   108433342.741        2537.285          47.000  
E12  24421475.958   128335685.718       -2995.592          35.000  
C16  35562246.920   185181950.863        -255.163          49.000  
C13  36933906.078   192324515.347       -2481.205          45.000  
R 1  18632123.888    99599370.890       -2114.047          50.000  
R13  21374856.341   114140544.834        3598.841          34.000  
R10  21899283.556   116817680.190       -4763.003          38.000  
E 4  24329627.018   127853038.179        1422.328          44.000  
J 7  35712663.165   187671303.113        -578.417          40.000  
G20  18929979.921    99477711.384         389.577          47.000  
E 1  23837178.994   125265269.425        2090.798          45.000  
J 3  36409804.976   191334812.450        -578.402          33.000  
E11  25997046.506                       -1674.268          29.000  
G25  22978710.634   120753898.694        3307.911          34.000  
G24  18478445.603    97104915.789       -1174.551          51.000  
E21  22314202.104   117261971.145        -342.166          46.000  
G28  24358378.392   128004123.761       -3365.390          34.000  
G32                                                                
> 2020  1 16  2  6 15.9950000  0 38                     
E27  24769605.583   130165179.842       -2843.535          40.000  
E19  21909192.889   115133597.748        -467.938          40.000  
G15  19897019.944   104559538.195       -2314.423          47.000  
J 1  36609371.295   192383545.040          96.340          47.000  
G21  22140500.643   116349104.620       -2471.742          40.000  
C 9  36598356.718   190577222.964        -253.258          45.000  
C22  20458629.313   106533422.343       -1466.070          51.000  
C 7  38272757.173   199296291.624         871.744          38.000  
C 8  37631875.030   195959029.562       -2701.040          40.000  
C 6  35318648.387   183913465.909        -270.673          46.000  
C19  23640938.058   123104539.647       -3398.389          41.000  
R 8  21897090.379   117257936.832       -3805.002          45.000  
R11  18663241.559    99730786.840       -3065.752          48.000  
R18  22722239.993                3      -1998.672          25.000  
R 2  18716711.939    99875993.753        1884.747          52.000  
R12  17775319.603    94952627.570         855.990          53.000  
G10  21034059.761   110534744.305        2322.439          46.000  
J 2  35624269.564   187206785.435        -982.383          45.000  
G13  22379001.203   117602389.834       -3072.180          41.000  
E20  18672887.853    98126669.592       -2177.372          38.000  
G12  20634070.014   108432835.300        2536.934          47.000  
E12  24421590.046   128336284.817       -2995.702          35.000  
C16  35562256.660   185182001.898        -255.534          49.000  
C13  36934001.338   192325011.616       -2481.446          45.000  
R 1  18632202.971    99599793.731       -2114.452          50.000  
R13  21374721.498   114139825.054        3598.464          34.000  
R10  21899462.107   116818632.869       -4763.496          38.000  
E 4  24329572.978   127852753.703        1422.198          44.000  
J 7  35712685.234   187671418.894        -579.137          40.000  
G20  18929965.096    99477633.524         388.974          47.000  
E 1  23837099.472   125264851.259        2090.673          45.000  
J 3  36409826.991   191334928.279        -579.453          33.000  
E11  25997109.963                       -1673.729          29.000  
G25  22978584.635   120753237.101        3307.749          34.000  
G24  18478490.352    97105150.713       -1174.930          51.000  
E21  22314215.158   117262039.570        -342.460          46.000  
G28  24358506.504   128004796.840       -3365.448          34.000  
G32                                                                
> 2020  1 16  2  6 16.1950000  0 38                     
E27  24769713.806   130165748.422       -2842.887          40.000  
E19  21909210.732   115133691.274        -467.711          40.000  
G15  19897107.999   104560000.951       -2313.827          47.000  
J 1  36609367.677   192383525.676          96.750          47.000  
G21  22140594.690   116349598.908       -2471.690          40.000  
C 9  36598366.428   190577273.503        -252.905          45.000  
C22  20458685.569   106533715.451       -1465.654          51.000  
C 7  38272723.657   199296117.162         872.357          38.000  
C 8  37631978.757   195959569.682       -2700.583          40.000  
C 6  35318658.841   183913519.946        -270.295          46.000  
C19  23641068.548   123105219.205       -3398.028          41.000  
R 8  21897232.469   117258697.732       -3804.622          45.000  
R11  18663356.299    99731399.904       -3065.402          48.000  
R18  22722314.864                3      -1999.474          25.000  
R 2  18716641.284    99875616.678        1885.281          52.000  
R12  17775287.530    94952456.271         856.342          53.000  
G10  21033971.385   110534279.714        2322.885          46.000  
J 2  35624306.942   187206981.798        -981.775          45.000  
G13  22379118.082   117603004.194       -3071.887          41.000  
E20  18672970.681    98127105.069       -2176.970          38.000  
G12  20633973.418   108432327.813        2537.352          47.000  
E12  24421704.075   128336883.876       -2995.087          35.000  
C16  35562266.476   185182052.857        -254.785          49.000  
C13  36934096.679   192325507.833       -2481.012          45.000  
R 1  18632282.053    99600216.535       -2114.152          50.000  
R13  21374586.693   114139105.258        3598.318          34.000  
R10  21899640.681   116819585.492       -4763.104          38.000  
E 4  24329518.777   127852469.181        1422.634          44.000  
J 7  35712707.265   187671534.595        -578.472          40.000  
G20  18929950.316    99477555.622         389.322          47.000  
E 1  23837019.803   125264433.045        2091.001          45.000  
J 3  36409849.106   191335044.033        -578.755          33.000  
E11  25997173.621                       -1673.760          29.000  
G25  22978458.703   120752575.446        3308.177          35.000  
G24  18478535.052    97105385.595       -1174.472          51.000  
E21  22314228.149   117262107.949        -341.935          46.000  
G28  24358634.577   128005469.864       -3365.199          34.000  
G32                                                                
> 2020  1 16  2  6 16.3950000  0 38                     
E27  24769822.041   130166317.054       -2843.260          40.000  
E19  21909228.578   115133784.807        -467.675          40.000  
G15  19897196.067   104560463.734       -2313.933          47.000  
J 1  36609363.972   192383506.315          96.714          47.000  
G21  22140688.718   116350093.209       -2471.807          40.000  
C 9  36598376.142   190577324.038        -252.693          45.000  
C22  20458741.886   106534008.584       -1465.711          51.000  
C 7  38272690.200   199295942.707         872.039          38.000  
C 8  37632082.494   195960109.827       -2700.662          40.000  
C 6  35318669.124   183913573.986        -270.186          46.000  
C19  23641199.046   123105898.768       -3397.874          41.000  
R 8  21897374.600   117259458.638       -3804.486          45.000  
R11  18663471.024    99732012.990       -3065.493          48.000  
R18  22722389.347                3      -1999.218          25.000  
R 2  18716570.660    99875239.634        1885.203          52.000  
R12  17775255.502    94952285.019         856.235          53.000  
G10  21033883.007   110533815.156        2322.680          46.000  
J 2  35624344.359   187207178.190        -981.970          45.000  
G13  22379235.007   117603618.553       -3071.906          41.000  
E20  18673053.583    98127540.556       -2177.496          38.000  
G12  20633876.836   108431820.346        2537.373          47.000  
E12  24421818.085   128337482.954       -2995.713          35.000  
C16  35562276.181   185182103.839        -254.831          49.000  
C13  36934191.982   192326004.058       -2481.135          45.000  
R 1  18632361.129    99600639.366       -2114.186          50.000  
R13  21374451.848   114138385.445        3598.619          34.000  
R10  21899819.302   116820538.115       -4762.857          38.000  
E 4  24329464.641   127852184.664        1422.542          44.000  
J 7  35712729.270   187671650.308        -578.452          40.000  
G20  18929935.488    99477477.750         389.330          47.000  
E 1  23836940.254   125264014.851        2090.975          45.000  
J 3  36409871.005   191335159.769        -578.689          33.000  
E11  25997237.430                       -1674.048          29.000  
G25  22978332.787   120751913.782        3308.296          35.000  
G24  18478579.683    97105620.505       -1174.620          51.000  
E21  22314241.230   117262176.371        -342.133          46.000  
G28  24358762.667   128006142.915       -3365.085          34.000  
G32                                                                
> 2020  1 16  2  6 16.5950000  0 38                     
E27  24769930.318   130166885.693       -2843.450          40.000  
E19  21909246.412   115133878.378        -467.976          40.000  
G15  19897284.096   104560926.539       -2314.135          47.000  
J 1  36609360.194   192383486.971          96.729          47.000  
G21  22140782.804   116350587.509       -2471.601          40.000  
C 9  36598385.852   190577374.604        -252.782          45.000  
C22  20458798.203   106534301.755       -1465.897          51.000  
C 7  38272656.727   199295768.285         871.784          38.000  
C 8  37632186.183   195960649.975       -2700.722          40.000  
C 6  35318679.528   183913628.043        -270.274          46.000  
C19  23641329.552   123106578.381       -3398.159          41.000  
R 8  21897516.759   117260219.584       -3804.682          45.000  
R11  18663585.764    99732626.130       -3065.699          48.000  
R18  22722463.930                3      -1999.802          25.000  
R 2  18716499.978    99874862.617        1884.970          52.000  
R12  17775223.466    94952113.815         855.896          53.000  
G10  21033794.610   110533350.624        2322.517          46.000  
J 2  35624381.729   187207374.594        -982.118          45.000  
G13  22379351.906   117604232.940       -3071.942          41.000  
E20  18673136.503    98127976.043       -2177.354          38.000  
G12  20633780.309   108431312.923        2537.031          47.000  
E12  24421932.170   128338082.012       -2995.108          35.000  
C16  35562286.082   185182154.832        -254.975          49.000  
C13  36934287.330   192326500.313       -2481.262          45.000  
R 1  18632440.246    99601062.237       -2114.362          50.000  
R13  21374317.090   114137665.641        3599.077          34.000  
R10  21899997.899   116821490.780       -4763.257          38.000  
E 4  24329410.529   127851900.164        1422.518          44.000  
J 7  35712751.295   187671766.053        -578.739          40.000  
G20  18929920.704    99477399.928         388.963          47.000  
E 1  23836860.651   125263596.685        2090.676          45.000  
J 3  36409892.976   191335275.573        -579.144          33.000  
E11  25997301.332                       -1674.042          29.000  
G25  22978206.879   120751252.150        3308.369          35.000  
G24  18478624.375    97105855.448       -1174.789          51.000  
E21  22314254.178   117262244.832        -342.442          46.000  
G28  24358890.795   128006816.020       -3365.865          34.000  
G32                                                                
> 2020  1 16  2  6 16.7950000  0 38                     
E27  24770038.515   130167454.323       -2843.022          40.000  
E19  21909264.225   115133971.936        -467.769          40.000  
G15  19897372.169   104561389.345       -2313.931          47.000  
J 1  36609356.498   192383467.615          96.989          47.000  
G21  22140876.885   116351081.836       -2471.718          40.000  
C 9  36598395.515   190577425.147        -252.743          45.000  
C22  20458854.471   106534594.928       -1465.755          51.000  
C 7  38272623.265   199295593.830         872.466          38.000  
C 8  37632289.944   195961190.124       -2700.568          40.000  
C 6  35318689.934   183913682.082        -270.042          46.000  
C19  23641460.066   123107257.962       -3397.932          41.000  
R 8  21897658.935   117260980.532       -3804.534          45.000  
R11  18663700.566    99733239.275       -3065.592          48.000  
R18  22722538.018                3      -1999.060          25.000  
R 2  18716429.324    99874485.600        1885.070          52.000  
R12  17775191.403    94951942.628         855.949          53.000  
G10  21033706.251   110532886.087        2322.622          46.000  
J 2  35624419.118   187207570.991        -981.996          45.000  
G13  22379468.829   117604847.310       -3071.753          41.000  
E20  18673219.425    98128411.567       -2177.457          38.000  
G12  20633683.720   108430805.482        2537.361          47.000  
E12  24422046.202   128338681.124       -2995.582          35.000  
C16  35562295.772   185182205.806        -254.820          49.000  
C13  36934382.636   192326996.547       -2481.060          45.000  
R 1  18632519.339    99601485.121       -2114.349          50.000  
R13  21374182.303   114136945.883        3598.617          33.000  
R10  21900176.455   116822443.432       -4763.184          38.000  
E 4  24329356.430   127851615.672        1422.385          44.000  
J 7  35712773.307   187671881.771        -578.384          40.000  
G20  18929905.936    99477322.112         389.265          47.000  
E 1  23836781.043   125263178.509        2090.987          45.000  
J 3  36409914.971   191335391.326        -578.494          33.000  
E11  25997365.006                       -1674.229          28.000  
G25  22978080.944   120750590.509        3308.174          35.000  
G24  18478669.041    97106090.401       -1174.763          50.000  
E21  22314267.179   117262313.288        -342.223          46.000  
G28  24359018.941   128007489.077       -3365.208          34.000  
G32                                                                
> 2020  1 16  2  6 16.9950000  0 38                     
E27  24770146.683   130168022.955       -2843.201          40.000  
E19  21909282.037   115134065.479        -467.822          40.000  
G15  19897460.246   104561852.135       -2313.796          47.000  
J 1  36609352.863   192383448.241          97.044          47.000  
G21  22140970.925   116351576.125       -2471.324          40.000  
C 9  36598405.233   190577475.660        -252.401          45.000  
C22  20458910.723   106534888.100       -1465.820          51.000  
C 7  38272589.788   199295419.382         872.127          38.000  
C 8  37632393.674   195961730.232       -2700.507          40.000  
C 6  35318700.396   183913736.113        -270.108          46.000  
C19  23641590.564   123107937.551       -3397.821          41.000  
R 8  21897801.092   117261741.474       -3804.669          45.000  
R11  18663815.316    99733852.425       -3065.578          48.000  
R18  22722612.517                3      -1999.172          26.000  
R 2  18716358.674    99874108.565        1885.262          52.000  
R12  17775159.372    94951771.448         855.953          53.000  
G10  21033617.815   110532421.534        2322.864          46.000  
J 2  35624456.509   187207767.366        -981.838          45.000  
G13  22379585.737   117605461.667       -3071.735          41.000  
E20  18673302.295    98128847.054       -2177.796          38.000  
G12  20633587.196   108430298.048        2537.297          47.000  
E12  24422160.106   128339280.146       -2995.355          35.000  
C16  35562305.605   185182256.764        -254.706          49.000  
C13  36934477.928   192327492.775       -2480.992          45.000  
R 1  18632598.497    99601907.998       -2114.254          50.000  
R13  21374047.502   114136226.071        3599.209          33.000  
R10  21900355.044   116823396.062       -4763.308          39.000  
E 4  24329302.279   127851331.136        1422.653          45.000  
J 7  35712795.330   187671997.473        -578.349          40.000  
G20  18929891.133    99477244.307         389.063          47.000  
E 1  23836701.515   125262760.329        2090.976          45.000  
J 3  36409937.033   191335507.061        -578.511          33.000  
E11  25997428.780                       -1673.763          28.000  
G25  22977954.972   120749928.812        3308.637          35.000  
G24  18478713.728    97106325.347       -1174.618          50.000  
E21  22314280.278   117262381.746        -342.246          46.000  
G28  24359147.082   128008162.149       -3365.188          34.000  
G32                                                                
> 2020  1 16  2  6 17.1950000  0 38                     
E27  24770254.916   130168591.575       -2843.307          40.000  
E19  21909299.839   115134159.008        -467.858          40.000  
G15  19897548.370   104562314.929       -2314.348          47.000  
J 1  36609349.289   192383428.862          96.481          47.000  
G21  22141064.973   116352070.442       -2471.786          40.000  
C 9  36598414.953   190577526.171        -252.721          45.000  
C22  20458966.954   106535181.272       -1466.270          51.000  
C 7  38272556.289   199295244.890         871.938          38.000  
C 8  37632497.365   195962270.357       -2700.779          40.000  
C 6  35318710.714   183913790.114        -270.412          46.000  
C19  23641721.034   123108617.122       -3398.393          41.000  
R 8  21897943.198   117262502.399       -3805.059          45.000  
R11  18663930.048    99734465.590       -3066.207          48.000  
R18  22722687.102                3      -2000.293          26.000  
R 2  18716287.984    99873731.539        1884.744          52.000  
R12  17775127.303    94951600.294         855.379          53.000  
G10  21033529.421   110531957.005        2322.361          46.000  
J 2  35624493.892   187207963.731        -982.185          45.000  
G13  22379702.628   117606076.017       -3072.259          41.000  
E20  18673385.101    98129282.519       -2177.809          38.000  
G12  20633490.691   108429790.611        2536.771          47.000  
E12  24422274.036   128339879.171       -2995.136          35.000  
C16  35562315.242   185182307.702        -254.972          49.000  
C13  36934573.192   192327988.994       -2481.462          45.000  
R 1  18632677.573    99602330.898       -2114.902          50.000  
R13  21373912.728   114135506.268        3599.087          33.000  
R10  21900533.598   116824348.680       -4763.524          39.000  
E 4  24329248.169   127851046.583        1422.546          44.000  
J 7  35712817.340   187672113.160        -578.706          40.000  
G20  18929876.365    99477166.510         388.545          47.000  
E 1  23836622.054   125262342.150        2090.485          45.000  
J 3  36409959.119   191335622.802        -579.482          33.000  
E11  25997492.426                       -1674.513          29.000  
G25  22977829.046   120749267.148        3308.171          35.000  
G24  18478758.464    97106560.307       -1175.184          50.000  
E21  22314293.448   117262450.205        -342.681          46.000  
G28  24359275.198   128008835.197       -3365.109          34.000  
G32                                                                
> 2020  1 16  2  6 17.3950000  0 38                     
E27  24770363.003   130169160.268       -2843.380          40.000  
E19  21909317.641   115134252.595        -467.630          40.000  
G15  19897636.453   104562777.773       -2313.994          47.000  
J 1  36609345.577   192383409.497          97.138          47.000  
G21  22141159.019   116352564.789       -2471.580          40.000  
C 9  36598424.645   190577576.719        -252.409          45.000  
C22  20459023.296   106535474.497       -1465.814          51.000  
C 7  38272522.787   199295070.467         872.268          38.000  
C 8  37632601.085   195962810.504       -2700.583          40.000  
C 6  35318721.149   183913844.154        -269.850          46.000  
C19  23641851.535   123109296.735       -3397.675          41.000  
R 8  21898085.268   117263263.385       -3804.735          45.000  
R11  18664044.835    99735078.802       -3065.797          48.000  
R18  22722762.226                3      -2000.806          25.000  
R 2  18716217.266    99873354.560        1885.106          52.000  
R12  17775095.270    94951429.210         855.588          53.000  
G10  21033441.027   110531492.503        2322.944          46.000  
J 2  35624531.275   187208160.139        -981.769          45.000  
G13  22379819.531   117606690.402       -3071.606          41.000  
E20  18673467.945    98129718.048       -2177.686          38.000  
G12  20633394.097   108429283.226        2537.087          47.000  
E12  24422388.029   128340478.291       -2995.282          35.000  
C16  35562325.145   185182358.677        -254.596          49.000  
C13  36934668.482   192328485.240       -2480.850          45.000  
R 1  18632756.662    99602753.848       -2114.583          50.000  
R13  21373777.995   114134786.522        3599.361          33.000  
R10  21900712.245   116825301.341       -4763.115          39.000  
E 4  24329193.934   127850762.095        1422.593          44.000  
J 7  35712839.347   187672228.903        -578.598          40.000  
G20  18929861.533    99477088.777         388.918          47.000  
E 1  23836542.402   125261924.013        2090.863          45.000  
J 3  36409981.137   191335738.530        -578.542          33.000  
E11  25997556.339                       -1674.285          29.000  
G25  22977703.136   120748605.510        3308.655          35.000  
G24  18478803.166    97106795.320       -1174.859          50.000  
E21  22314306.375   117262518.732        -342.363          46.000  
G28  24359403.334   128009508.334       -3365.598          34.000  
G32                                                                
> 2020  1 16  2  6 17.5950000  0 38                     
E27  24770471.216   130169728.886       -2843.125          40.000  
E19  21909335.467   115134346.138        -467.902          40.000  
G15  19897724.551   104563240.560       -2314.071          47.000  
J 1  36609341.850   192383390.089          97.065          47.000  
G21  22141253.096   116353059.084       -2471.565          40.000  
C 9  36598434.348   190577627.200        -252.592          45.000  
C22  20459079.566   106535767.689       -1466.083          51.000  
C 7  38272489.314   199294895.945         872.522          38.000  
C 8  37632704.810   195963350.607       -2700.636          40.000  
C 6  35318731.498   183913898.146        -270.063          46.000  
C19  23641981.964   123109976.319       -3397.979          41.000  
R 8  21898227.390   117264024.316       -3804.743          45.000  
R11  18664159.565    99735691.992       -3066.079          48.000  
R18  22722837.120                3      -2000.405          26.000  
R 2  18716146.606    99872977.532        1885.045          52.000  
R12  17775063.266    94951258.093         855.445          53.000  
G10  21033352.668   110531027.975        2322.505          46.000  
J 2  35624568.669   187208356.492        -981.885          45.000  
G13  22379936.436   117607304.734       -3071.576          41.000  
E20  18673550.909    98130153.510       -2177.676          38.000  
G12  20633297.531   108428775.787        2537.137          47.000  
E12  24422502.023   128341077.305       -2995.368          35.000  
C16  35562334.813   185182409.592        -254.591          49.000  
C13  36934763.810   192328981.445       -2480.962          45.000  
R 1  18632835.784    99603176.756       -2114.688          50.000  
R13  21373643.253   114134066.763        3598.453          33.000  
R10  21900890.882   116826253.935       -4762.820          39.000  
E 4  24329139.840   127850477.520        1422.741          44.000  
J 7  35712861.336   187672344.550        -578.198          40.000  
G20  18929846.701    99477011.008         388.812          47.000  
E 1  23836462.881   125261505.829        2090.774          45.000  
J 3  36410003.162   191335854.274        -578.480          33.000  
E11  25997620.012                       -1673.816          29.000  
G25  22977577.229   120747943.820        3308.107          35.000  
G24  18478847.903    97107030.293       -1174.959          50.000  
E21  22314319.415   117262587.217        -342.563          46.000  
G28  24359531.390   128010181.395       -3365.339          34.000  
G32                                                                
> 2020  1 16  2  6 17.7950000  0 38                     
E27  24770579.406   130170297.494       -2842.915          40.000  
E19  21909353.383   115134439.632        -467.485          40.000  
G15  19897812.618   104563703.334       -2313.945          47.000  
J 1  36609338.105   192383370.655          97.136          47.000  
G21  22141347.130   116353553.374       -2471.560          40.000  
C 9  36598444.061   190577677.646        -252.372          45.000  
C22  20459135.850   106536060.862       -1466.008          51.000  
C 7  38272455.776   199294721.412         872.775          38.000  
C 8  37632808.601   195963890.670       -2700.616          40.000  
C 6  35318741.856   183913952.092        -269.858          46.000  
C19  23642112.461   123110655.853       -3397.780          41.000  
R 8  21898369.503   117264785.235       -3804.621          46.000  
R11  18664274.357    99736305.177       -3066.099          48.000  
R18  22722912.630                3      -2000.336          26.000  
R 2  18716075.896    99872600.491        1885.048          52.000  
R12  17775031.164    94951086.986         855.353          53.000  
G10  21033264.263   110530563.422        2322.560          46.000  
J 2  35624606.032   187208552.822        -981.760          45.000  
G13  22380053.344   117607919.052       -3071.741          40.000  
E20  18673633.751    98130588.960       -2177.812          38.000  
G12  20633200.951   108428268.349        2537.054          47.000  
E12  24422615.994   128341676.297       -2995.189          35.000  
C16  35562344.667   185182460.485        -254.594          49.000  
C13  36934859.093   192329477.635       -2481.174          45.000  
R 1  18632914.875    99603599.670       -2114.752          50.000  
R13  21373508.410   114133346.917        3599.156          33.000  
R10  21901069.454   116827206.556       -4763.370          39.000  
E 4  24329085.589   127850192.934        1422.924          44.000  
J 7  35712883.328   187672460.195        -578.198          40.000  
G20  18929831.916    99476933.246         388.626          47.000  
E 1  23836383.289   125261087.619        2090.995          45.000  
J 3  36410025.154   191335969.967        -579.307          33.000  
E11  25997683.772                       -1674.150          29.000  
G25  22977451.312   120747282.063        3308.430          35.000  
G24  18478892.616    97107265.260       -1175.013          50.000  
E21  22314332.469   117262655.685        -342.431          46.000  
G28  24359659.525   128010854.450       -3365.415          34.000  
G32                                                                
> 2020  1 16  2  6 17.9950000  0 38                     
E27  24770687.649   130170866.156       -2843.577          40.000  
E19  21909371.091   115134533.169        -467.682          40.000  
G15  19897900.696   104564166.127       -2314.080          47.000  
J 1  36609334.434   192383351.229          97.081          47.000  
G21  22141441.184   116354047.677       -2471.750          40.000  
C 9  36598453.715   190577728.110        -252.419          45.000  
C22  20459192.168   106536354.071       -1466.131          51.000  
C 7  38272422.231   199294546.913         872.580          38.000  
C 8  37632912.331   195964430.735       -2700.455          40.000  
C 6  35318752.303   183914006.049        -269.885          46.000  
C19  23642242.934   123111335.430       -3397.767          41.000  
R 8  21898511.631   117265546.173       -3804.737          46.000  
R11  18664389.106    99736918.390       -3066.195          48.000  
R18  22722988.104                3      -1999.723          26.000  
R 2  18716005.224    99872223.464        1885.101          52.000  
R12  17774999.151    94950915.917         855.217          53.000  
G10  21033175.855   110530098.892        2322.631          46.000  
J 2  35624643.372   187208749.160        -981.668          45.000  
G13  22380170.243   117608533.379       -3071.735          40.000  
E20  18673716.591    98131024.413       -2177.307          38.000  
G12  20633104.364   108427760.925        2537.010          47.000  
E12  24422730.029   128342275.320       -2995.458          36.000  
C16  35562354.414   185182511.375        -254.412          49.000  
C13  36934954.374   192329973.825       -2481.179          45.000  
R 1  18632994.004    99604022.607       -2114.747          50.000  
R13  21373373.607   114132627.129        3599.011          33.000  
R10  21901248.065   116828159.144       -4763.131          39.000  
E 4  24329031.444   127849908.358        1422.816          44.000  
J 7  35712905.317   187672575.864        -578.522          40.000  
G20  18929817.113    99476855.505         388.709          47.000  
E 1  23836303.638   125260669.444        2090.854          45.000  
J 3  36410047.161                        -577.704          33.000  
E11  25997747.679                       -1673.835          29.000  
G25  22977325.337   120746620.317        3309.056          35.000  
G24  18478937.321    97107500.254       -1175.014          50.000  
E21  22314345.576   117262724.196        -342.646          46.000  
G28  24359787.586   128011527.531       -3365.574          34.000  
G32                                                                
> 2020  1 16  2  6 18.1950000  0 38                     
E27  24770795.756   130171434.726       -2842.701          40.000  
E19  21909388.923   115134626.664        -467.286          40.000  
G15  19897988.793   104564628.888       -2313.917          47.000  
J 1  36609330.785   192383331.754          97.281          47.000  
G21  22141535.234   116354541.934       -2471.352          40.000  
C 9  36598463.410   190577778.513        -251.991          45.000  
C22  20459248.477   106536647.234       -1465.910          51.000  
C 7  38272388.727   199294372.344         873.000          38.000  
C 8  37633015.958   195964970.763       -2700.127          40.000  
C 6  35318762.652   183914059.955        -269.591          46.000  
C19  23642373.403   123112014.963       -3397.726          41.000  
R 8  21898653.736   117266307.078       -3804.537          46.000  
R11  18664503.849    99737531.579       -3066.037          48.000  
R18  22723063.537                3      -1999.949          26.000  
R 2  18715934.587    99871846.405        1885.239          52.000  
R12  17774967.127    94950744.836         855.270          53.000  
G10  21033087.479   110529634.331        2322.680          47.000  
J 2  35624680.709   187208945.456        -981.444          45.000  
G13  22380287.125   117609147.658       -3071.631          40.000  
E20  18673799.394    98131459.833       -2177.499          38.000  
G12  20633007.811   108427253.473        2537.174          47.000  
E12  24422843.980   128342874.269       -2994.905          36.000  
C16  35562364.254   185182562.222        -254.234          49.000  
C13  36935049.653   192330469.964       -2480.917          45.000  
R 1  18633073.082    99604445.519       -2114.640          50.000  
R13  21373238.784   114131907.330        3598.557          33.000  
R10  21901426.628   116829111.706       -4762.893          39.000  
E 4  24328977.236   127849623.732        1423.194          44.000  
J 7  35712927.266   187672691.453        -577.974          40.000  
G20  18929802.299    99476777.748         388.713          47.000  
E 1  23836224.077   125260251.222        2091.124          45.000  
J 3  36410069.183   191336201.236        -578.417          33.000  
E11  25997811.319   136619418.652       -1673.920          29.000  
G25  22977199.394   120745958.568        3308.822          35.000  
G24  18478982.061    97107735.217       -1174.901          50.000  
E21  22314358.581   117262792.663        -342.408          46.000  
G28  24359915.723   128012200.564       -3366.045          34.000  
G32                                                                
> 2020  1 16  2  6 18.3950000  0 38                     
E27  24770903.946   130172003.369       -2843.229          40.000  
E19  21909406.765   115134720.200        -468.035          40.000  
G15  19898076.826   104565091.674       -2314.207          47.000  
J 1  36609327.130   192383312.299          97.165          47.000  
G21  22141629.296   116355036.235       -2471.658          40.000  
C 9  36598473.068   190577828.955        -252.292          45.000  
C22  20459304.801   106536940.450       -1466.256          51.000  
C 7  38272355.200   199294197.803         872.643          38.000  
C 8  37633119.612   195965510.803       -2700.392          40.000  
C 6  35318773.015   183914113.892        -269.885          46.000  
C19  23642503.898   123112694.521       -3397.932          41.000  
R 8  21898795.794   117267068.017       -3804.861          46.000  
R11  18664618.581    99738144.816       -3066.300          48.000  
R18  22723139.701                3      -2001.180          26.000  
R 2  18715863.916    99871469.384        1884.938          52.000  
R12  17774935.099    94950573.814         854.887          53.000  
G10  21032999.052   110529169.800        2322.509          46.000  
J 2  35624718.085   187209141.786        -981.865          45.000  
G13  22380404.029   117609761.969       -3071.686          40.000  
E20  18673882.256    98131895.283       -2177.426          38.000  
G12  20632911.199   108426746.049        2536.905          47.000  
E12  24422957.883   128343473.240       -2994.852          36.000  
C16  35562373.971   185182613.093        -254.491          49.000  
C13  36935144.965   192330966.136       -2480.995          45.000  
R 1  18633152.202    99604868.478       -2114.977          50.000  
R13  21373103.969   114131187.532        3598.366          33.000  
R10  21901605.195   116830064.292       -4763.137          39.000  
E 4  24328923.116   127849339.137        1422.844          44.000  
J 7  35712949.258   187672807.065        -578.157          40.000  
G20  18929787.524    99476700.038         388.327          47.000  
E 1  23836144.576   125259833.043        2090.678          45.000  
J 3  36410091.248   191336316.850        -578.616          33.000  
E11  25997875.075                       -1674.018          29.000  
G25  22977073.495   120745296.801        3308.688          35.000  
G24  18479026.785    97107970.223       -1175.196          50.000  
E21  22314371.669   117262861.184        -342.782          46.000  
G28  24360043.838   128012873.626       -3365.699          34.000  
G32                                                                
> 2020  1 16  2  6 18.5950000  0 38                     
E27  24771012.085   130172572.043       -2843.330          40.000  
E19  21909424.542   115134813.753        -467.939          40.000  
G15  19898164.905   104565554.497       -2314.117          48.000  
J 1  36609323.355   192383292.872          97.131          47.000  
G21  22141723.346   116355530.554       -2471.570          40.000  
C 9  36598482.791   190577879.420        -252.575          45.000  
C22  20459361.099   106537233.701       -1466.321          51.000  
C 7  38272321.689   199294023.305         872.279          37.000  
C 8  37633223.341   195966050.887       -2700.595          40.000  
C 6  35318783.330   183914167.833        -269.764          46.000  
C19  23642634.403   123113374.099       -3397.761          41.000  
R 8  21898937.927   117267828.988       -3804.915          46.000  
R11  18664733.377    99738758.104       -3066.550          48.000  
R18  22723214.337                3      -2000.620          26.000  
R 2  18715793.270    99871092.394        1884.835          52.000  
R12  17774903.079    94950402.843         854.665          53.000  
G10  21032910.712   110528705.306        2322.369          46.000  
J 2  35624755.434   187209338.131        -981.818          45.000  
G13  22380520.940   117610376.295       -3071.704          40.000  
E20  18673965.223    98132330.754       -2177.216          38.000  
G12  20632814.638   108426238.673        2536.806          47.000  
E12  24423071.898   128344072.276       -2994.969          36.000  
C16  35562383.838   185182663.981        -254.615          49.000  
C13  36935240.279   192331462.334       -2481.044          45.000  
R 1  18633231.354    99605291.486       -2115.153          50.000  
R13  21372969.237   114130467.747        3599.414          33.000  
R10  21901783.729   116831016.915       -4763.352          39.000  
E 4  24328868.860   127849054.556        1422.757          44.000  
J 7  35712971.226   187672922.721        -578.131          40.000  
G20  18929772.749    99476622.383         388.201          47.000  
E 1  23836065.029   125259414.887        2090.743          45.000  
J 3  36410113.218   191336432.526        -578.741          33.000  
E11  25997938.790                       -1674.514          29.000  
G25  22976947.542   120744635.064        3308.713          35.000  
G24  18479071.499    97108205.274       -1175.358          50.000  
E21  22314384.588   117262929.746        -342.925          46.000  
G28  24360171.948   128013546.699       -3365.268          34.000  
G32                                                                
> 2020  1 16  2  6 18.7950000  0 38                     
E27  24771120.307   130173140.747       -2843.601          40.000  
E19  21909442.419   115134907.324        -468.099          40.000  
G15  19898253.015   104566017.345       -2314.286          48.000  
J 1  36609319.600   192383273.462          96.907          47.000  
G21  22141817.445   116356024.923       -2471.870          40.000  
C 9  36598492.463   190577929.876        -252.264          45.000  
C22  20459417.374   106537526.989       -1466.519          51.000  
C 7  38272288.113   199293848.791         872.591          37.000  
C 8  37633327.078   195966590.953       -2700.557          40.000  
C 6  35318793.745   183914221.799        -269.843          46.000  
C19  23642764.858   123114053.737       -3398.185          41.000  
R 8  21899080.042   117268589.991       -3804.968          46.000  
R11  18664848.183    99739371.433       -3066.701          47.000  
R18  22723289.776                3      -2000.902          27.000  
R 2  18715722.628    99870715.430        1884.776          52.000  
R12  17774871.050    94950231.928         854.394          53.000  
G10  21032822.342   110528240.846        2322.256          46.000  
J 2  35624792.773   187209534.499        -981.917          45.000  
G13  22380637.824   117610990.637       -3071.649          40.000  
E20  18674048.155    98132766.264       -2177.129          38.000  
G12  20632718.043   108425731.318        2536.586          47.000  
E12  24423185.925   128344671.296       -2995.226          36.000  
C16  35562393.598   185182714.886        -254.631          49.000  
C13  36935335.584   192331958.557       -2481.209          45.000  
R 1  18633310.515    99605714.528       -2115.399          50.000  
R13  21372834.406   114129748.025        3598.415          33.000  
R10  21901962.313   116831969.553       -4763.461          39.000  
E 4  24328814.761   127848769.999        1422.746          44.000  
J 7  35712993.232   187673038.382        -578.201          40.000  
G20  18929757.972    99476544.756         388.060          47.000  
E 1  23835985.467   125258996.764        2090.529          45.000  
J 3  36410135.271   191336548.187        -578.346          33.000  
E11  25998002.260                       -1674.699          29.000  
G25  22976821.619   120743973.345        3308.581          35.000  
G24  18479116.167    97108440.355       -1175.544          50.000  
E21  22314397.741   117262998.337        -343.145          46.000  
G28  24360300.032   128014219.847       -3365.483          34.000  
G32                                                                
> 2020  1 16  2  6 18.9950000  0 38                     
E27  24771228.520   130173709.459       -2843.656          40.000  
E19  21909460.251   115135000.913        -467.964          40.000  
G15  19898341.040   104566480.209       -2314.329          48.000  
J 1  36609315.923   192383254.051          97.038          47.000  
G21  22141911.499   116356519.275       -2471.759          40.000  
C 9  36598502.162   190577980.354        -252.312          45.000  
C22  20459473.704   106537820.295       -1466.596          51.000  
C 7  38272254.560   199293674.307         872.330          37.000  
C 8  37633430.838   195967131.047       -2700.425          40.000  
C 6  35318804.043   183914275.773        -269.892          46.000  
C19  23642895.385   123114733.357       -3398.363          41.000  
R 8  21899222.171   117269351.013       -3805.134          46.000  
R11  18664962.943    99739984.794       -3066.779          47.000  
R18  22723365.790                3      -2000.874          27.000  
R 2  18715651.961    99870338.492        1884.654          52.000  
R12  17774839.041    94950061.050         854.263          53.000  
G10  21032734.017   110527776.403        2322.086          47.000  
J 2  35624830.139   187209730.877        -981.853          45.000  
G13  22380754.747   117611605.010       -3071.936          40.000  
E20  18674131.021    98133201.807       -2177.656          38.000  
G12  20632621.504   108425223.982        2536.713          47.000  
E12  24423299.954   128345270.324       -2994.881          36.000  
C16  35562403.394   185182765.794        -254.607          49.000  
C13  36935430.929   192332454.788       -2481.103          45.000  
R 1  18633389.632    99606137.595       -2115.389          50.000  
R13  21372699.568   114129028.282        3599.185          33.000  
R10  21902140.909   116832922.183       -4763.024          39.000  
E 4  24328760.572   127848485.443        1422.724          44.000  
J 7  35713015.265   187673154.058        -578.316          40.000  
G20  18929743.209    99476467.172         387.803          47.000  
E 1  23835905.884   125258578.650        2090.536          45.000  
J 3  36410157.295   191336663.896        -578.716          33.000  
E11  25998066.121   136620758.160       -1674.319          28.000  
G25  22976695.688   120743311.619        3308.702          35.000  
G24  18479160.901    97108675.462       -1175.595          50.000  
E21  22314410.830   117263066.957        -343.202          46.000  
G28  24360428.181   128014892.990       -3366.195          34.000  
G32                                                                
> 2020  1 16  2  6 19.1950000  0 38                     
E27  24771336.724   130174278.203       -2843.756          40.000  
E19  21909478.019   115135094.538        -468.200          40.000  
G15  19898429.123   104566943.112       -2314.602          48.000  
J 1  36609312.334   192383234.669          96.955          47.000  
G21  22142005.589   116357013.702       -2472.151          40.000  
C 9  36598511.852   190578030.848        -252.410          45.000  
C22  20459530.112   106538113.645       -1466.699          51.000  
C 7  38272221.044   199293499.828         872.629          37.000  
C 8  37633534.620   195967671.176       -2700.523          40.000  
C 6  35318814.455   183914329.773        -270.015          46.000  
C19  23643025.862   123115413.011       -3398.213          41.000  
R 8  21899364.311   117270112.073       -3805.342          45.000  
R11  18665077.720    99740598.213       -3067.222          47.000  
R18  22723441.044                3      -2000.134          27.000  
R 2  18715581.375    99869961.588        1884.459          52.000  
R12  17774807.065    94949890.233         853.996          53.000  
G10  21032645.642   110527311.997        2322.032          47.000  
J 2  35624867.516   187209927.284        -981.953          45.000  
G13  22380871.678   117612219.396       -3072.082          40.000  
E20  18674213.857    98133637.345       -2177.531          38.000  
G12  20632525.000   108424716.689        2536.440          47.000  
E12  24423413.913   128345869.416       -2995.358          36.000  
C16  35562413.149   185182816.724        -254.676          49.000  
C13  36935526.269   192332951.051       -2481.398          45.000  
R 1  18633468.813    99606560.711       -2115.590          50.000  
R13  21372564.735   114128308.618        3598.253          33.000  
R10  21902319.498   116833874.874       -4763.230          39.000  
E 4  24328706.420   127848200.922        1422.558          44.000  
J 7  35713037.309   187673269.754        -578.325          40.000  
G20  18929728.479    99476389.637         387.528          47.000  
E 1  23835826.339   125258160.579        2090.311          45.000  
J 3  36410179.327   191336779.587        -578.811          33.000  
E11  25998129.896   136621093.157       -1675.031          28.000  
G25  22976569.799   120742649.943        3308.431          35.000  
G24  18479205.690    97108910.613       -1175.758          50.000  
E21  22314423.916   117263135.627        -343.482          46.000  
G28  24360556.319   128015566.169       -3366.115          34.000  
G32                                                                
> 2020  1 16  2  6 19.3950000  0 38                     
E27  24771444.971   130174846.994       -2844.077          40.000  
E19  21909495.793   115135188.185        -468.269          40.000  
G15  19898517.214   104567406.041       -2314.836          48.000  
J 1  36609308.690   192383215.312          96.696          47.000  
G21  22142099.638   116357508.129       -2472.446          40.000  
C 9  36598521.587   190578081.358        -252.626          45.000  
C22  20459586.433   106538407.034       -1467.041          51.000  
C 7  38272187.552   199293325.387         872.329          37.000  
C 8  37633638.361   195968211.325       -2700.877          40.000  
C 6  35318824.820   183914383.784        -270.128          46.000  
C19  23643156.381   123116092.696       -3398.314          41.000  
R 8  21899506.438   117270873.161       -3805.661          45.000  
R11  18665192.486    99741211.674       -3067.428          47.000  
R18  22723516.050                2      -2001.997          27.000  
R 2  18715510.721    99869584.712        1884.244          52.000  
R12  17774775.059    94949719.473         853.641          53.000  
G10  21032557.277   110526847.628        2321.696          46.000  
J 2  35624904.909   187210123.720        -982.362          45.000  
G13  22380988.558   117612833.814       -3072.278          40.000  
E20  18674296.761    98134072.937       -2177.860          38.000  
G12  20632428.492   108424209.434        2536.136          47.000  
E12  24423527.885   128346468.491       -2995.401          36.000  
C16  35562422.923   185182867.672        -254.946          49.000  
C13  36935621.574   192333447.342       -2481.581          45.000  
R 1  18633547.996    99606983.872       -2115.908          50.000  
R13  21372429.990   114127588.982        3598.082          33.000  
R10  21902498.079   116834827.600       -4763.864          39.000  
E 4  24328652.324   127847916.417        1422.385          44.000  
J 7  35713059.352   187673385.487        -578.768          40.000  
G20  18929713.751    99476312.144         387.291          47.000  
E 1  23835746.893   125257742.532        2090.012          45.000  
J 3  36410201.415   191336895.293        -578.600          33.000  
E11  25998193.746   136621428.138       -1675.123          28.000  
G25  22976443.879   120741988.263        3308.337          35.000  
G24  18479250.466    97109145.804       -1176.047          50.000  
E21  22314436.924   117263204.325        -343.565          46.000  
G28  24360684.386   128016239.365       -3366.098          34.000  
G32                                                                
> 2020  1 16  2  6 19.5950000  0 38                     
E27  24771553.141   130175415.759       -2843.920          40.000  
E19  21909513.561   115135281.803        -467.799          40.000  
G15  19898605.271   104567868.949       -2314.655          48.000  
J 1  36609304.951   192383195.925          96.709          47.000  
G21  22142193.697   116358002.552       -2472.560          40.000  
C 9  36598531.238   190578131.836        -252.389          45.000  
C22  20459642.796   106538700.411       -1467.072          51.000  
C 7  38272154.044   199293150.922         872.265          37.000  
C 8  37633742.131   195968751.440       -2700.628          40.000  
C 6  35318835.141   183914437.767        -270.048          46.000  
C19  23643286.857   123116772.379       -3398.653          41.000  
R 8  21899648.559   117271634.224       -3805.404          45.000  
R11  18665307.283    99741825.135       -3067.448          47.000  
R18  22723591.676                2      -2001.406          27.000  
R 2  18715440.092    99869207.822        1884.322          52.000  
R12  17774743.108    94949548.716         853.567          53.000  
G10  21032468.913   110526383.237        2321.779          47.000  
J 2  35624942.264   187210320.115        -982.052          45.000  
G13  22381105.458   117613448.184       -3071.856          40.000  
E20  18674379.565    98134508.513       -2177.954          38.000  
G12  20632331.955   108423702.158        2536.221          47.000  
E12  24423641.990   128347067.573       -2995.386          36.000  
C16  35562432.692   185182918.583        -254.617          49.000  
C13  36935716.891   192333943.616       -2481.602          45.000  
R 1  18633627.099    99607407.022       -2115.850          50.000  
R13  21372295.242   114126869.293        3598.144          33.000  
R10  21902676.643   116835780.262       -4763.424          39.000  
E 4  24328598.210   127847631.887        1422.720          44.000  
J 7  35713081.359   187673501.174        -578.581          40.000  
G20  18929698.964    99476234.641         387.413          47.000  
E 1  23835667.327   125257324.470        2090.281          45.000  
J 3  36410223.506   191337011.023        -579.117          34.000  
E11  25998257.501   136621763.148       -1675.221          29.000  
G25  22976317.988   120741326.534        3308.695          35.000  
G24  18479295.240    97109380.987       -1176.019          50.000  
E21  22314449.977   117263273.022        -343.559          46.000  
G28  24360812.475   128016912.584       -3366.184          34.000  
G32                                                                
> 2020  1 16  2  6 19.7950000  0 38                     
E27  24771661.326   130175984.512       -2843.813          40.000  
E19  21909531.339   115135375.453        -468.239          40.000  
G15  19898693.334   104568331.858       -2314.438          48.000  
J 1  36609301.159   192383176.514          97.000          47.000  
G21  22142287.828   116358496.955       -2471.954          40.000  
C 9  36598540.938   190578182.306        -252.334          45.000  
C22  20459699.202   106538993.783       -1466.862          51.000  
C 7  38272120.511   199292976.432         872.381          37.000  
C 8  37633845.810   195969291.562       -2700.612          40.000  
C 6  35318845.476   183914491.727        -269.767          46.000  
C19  23643417.437   123117452.041       -3398.278          41.000  
R 8  21899790.638   117272395.292       -3805.348          45.000  
R11  18665422.053    99742438.606       -3067.453          47.000  
R18  22723666.924                2      -2001.306          27.000  
R 2  18715369.445    99868830.924        1884.452          52.000  
R12  17774711.139    94949377.974         853.643          53.000  
G10  21032380.558   110525918.848        2321.893          47.000  
J 2  35624979.635   187210516.515        -981.968          45.000  
G13  22381222.386   117614062.575       -3071.802          40.000  
E20  18674462.511    98134944.060       -2177.953          38.000  
G12  20632235.440   108423194.885        2536.328          47.000  
E12  24423756.033   128347666.634       -2995.590          36.000  
C16  35562442.456   185182969.488        -254.457          49.000  
C13  36935812.195   192334439.862       -2481.220          45.000  
R 1  18633706.244    99607830.184       -2115.935          50.000  
R13  21372160.456   114126149.630        3598.388          33.000  
R10  21902855.208   116836732.950       -4763.280          39.000  
E 4  24328544.138   127847347.345        1422.745          44.000  
J 7  35713103.348   187673616.847        -578.251          40.000  
G20  18929684.202    99476157.160         387.408          47.000  
E 1  23835587.747   125256906.398        2090.431          45.000  
J 3  36410245.477   191337126.655        -578.606          34.000  
E11  25998321.268   136622098.094       -1674.861          29.000  
G25  22976192.031   120740664.830        3308.491          35.000  
G24  18479339.964    97109616.170       -1176.005          50.000  
E21  22314463.001   117263341.729        -343.597          46.000  
G28  24360940.546   128017585.743       -3365.677          34.000  
G32                                                                
> 2020  1 16  2  6 19.9950000  0 38                     
E27  24771769.506   130176553.274       -2843.714          40.000  
E19  21909549.138   115135469.053        -467.942          40.000  
G15  19898781.402   104568794.756       -2314.346          48.000  
J 1  36609297.445   192383157.090          97.286          47.000  
G21  22142381.930   116358991.356       -2471.873          40.000  
C 9  36598550.576   190578232.746        -252.050          45.000  
C22  20459755.532   106539287.156       -1466.722          51.000  
C 7  38272087.050   199292801.930         872.705          37.000  
C 8  37633949.479   195969831.621       -2700.164          40.000  
C 6  35318855.855   183914545.665        -269.569          46.000  
C19  23643547.975   123118131.696       -3398.166          41.000  
R 8  21899932.722   117273156.354       -3805.422          45.000  
R11  18665536.886    99743052.077       -3067.272          47.000  
R18  22723741.675                2      -2002.510          27.000  
R 2  18715298.776    99868454.020        1884.595          52.000  
R12  17774679.121    94949207.251         853.656          53.000  
G10  21032292.174   110525454.439        2322.281          47.000  
J 2  35625017.023   187210712.897        -981.871          45.000  
G13  22381339.290   117614676.935       -3071.631          40.000  
E20  18674545.375    98135379.601       -2177.688          38.000  
G12  20632138.896   108422687.601        2536.481          47.000  
E12  24423870.070   128348265.657       -2995.289          36.000  
C16  35562452.265   185183020.368        -254.221          49.000  
C13  36935907.495   192334936.105       -2481.103          45.000  
R 1  18633785.412    99608253.336       -2115.673          50.000  
R13  21372025.696   114125429.914        3598.856          33.000  
R10  21903033.820   116837685.611       -4763.096          39.000  
E 4  24328489.937   127847062.777        1422.899          44.000  
J 7  35713125.345   187673732.489        -577.952          40.000  
G20  18929669.447    99476079.676         387.420          47.000  
E 1  23835508.297   125256488.319        2090.534          45.000  
J 3  36410267.520   191337242.313        -578.205          34.000  
E11  25998384.918   136622433.053       -1674.678          28.000  
G25  22976066.106   120740003.081        3308.645          35.000  
G24  18479384.736    97109851.353       -1175.893          50.000  
E21  22314476.086   117263410.421        -343.491          46.000  
G28  24361068.677   128018258.927       -3365.587          34.000  
G32                                                                
> 2020  1 16  2  6 20.1950000  0 38                     
E27  24771877.783   130177122.012       -2843.662          40.000  
E19  21909566.996   115135562.671        -468.148          40.000  
G15  19898869.518   104569257.660       -2314.569          48.000  
J 1  36609293.801   192383137.661          97.212          47.000  
G21  22142476.026   116359485.770       -2472.231          40.000  
C 9  36598560.278   190578283.187        -252.054          45.000  
C22  20459811.820   106539580.542       -1466.958          51.000  
C 7  38272053.494   199292627.410         872.554          37.000  
C 8  37634053.164   195970371.728       -2700.533          40.000  
C 6  35318866.314   183914599.604        -269.521          46.000  
C19  23643678.476   123118811.354       -3398.477          41.000  
R 8  21900074.829   117273917.406       -3805.299          45.000  
R11  18665651.694    99743665.576       -3067.517          47.000  
R18  22723816.016                1      -2001.102          27.000  
R 2  18715228.130    99868077.122        1884.447          52.000  
R12  17774647.178    94949036.555         853.388          53.000  
G10  21032203.762   110524990.056        2322.026          47.000  
J 2  35625054.386   187210909.267        -981.912          45.000  
G13  22381456.194   117615291.291       -3071.906          40.000  
E20  18674628.253    98135815.141       -2177.924          38.000  
G12  20632042.370   108422180.325        2536.342          47.000  
E12  24423984.063   128348864.655       -2995.067          36.000  
C16  35562461.953   185183071.245        -254.416          49.000  
C13  36936002.779   192335432.346       -2481.128          45.000  
R 1  18633864.577    99608676.508       -2115.832          50.000  
R13  21371890.970   114124710.259        3598.302          33.000  
R10  21903212.391   116838638.254       -4763.141          39.000  
E 4  24328435.842   127846778.200        1422.976          44.000  
J 7  35713147.360   187673848.150        -578.139          40.000  
G20  18929654.702    99476002.219         387.268          47.000  
E 1  23835428.675   125256070.252        2090.353          45.000  
J 3  36410289.473   191337357.928        -578.177          34.000  
E11  25998448.583                       -1674.869          28.000  
G25  22975940.090   120739341.343        3308.637          35.000  
G24  18479429.538    97110086.550       -1175.951          50.000  
E21  22314489.113   117263479.133        -343.528          46.000  
G28  24361196.853   128018932.126       -3366.059          34.000  
G32                                                                
> 2020  1 16  2  6 20.3950000  0 38                     
E27  24771986.015   130177690.756       -2843.673          40.000  
E19  21909584.670   115135656.238        -467.768          40.000  
G15  19898957.569   104569720.519       -2314.270          48.000  
J 1  36609290.119   192383118.179          97.380          47.000  
G21  22142570.071   116359980.128       -2472.068          40.000  
C 9  36598569.954   190578333.572        -251.887          45.000  
C22  20459868.124   106539873.891       -1466.776          51.000  
C 7  38272019.980   199292452.869         872.692          37.000  
C 8  37634156.884   195970911.742       -2700.122          40.000  
C 6  35318876.613   183914653.493        -269.432          46.000  
C19  23643808.980   123119490.951       -3398.142          41.000  
R 8  21900216.961   117274678.425       -3805.134          45.000  
R11  18665766.464    99744279.043       -3067.397          48.000  
R18  22723891.104                       -2001.819          26.000  
R 2  18715157.451    99867700.179        1884.641          52.000  
R12  17774615.255    94948865.839         853.517          53.000  
G10  21032115.376   110524525.627        2322.217          47.000  
J 2  35625091.734   187211105.587        -981.627          45.000  
G13  22381573.134   117615905.604       -3071.606          40.000  
E20  18674711.068    98136250.650       -2177.662          38.000  
G12  20631945.866   108421673.014        2536.546          47.000  
E12  24424098.039   128349463.655       -2994.518          36.000  
C16  35562471.706   185183122.057        -254.047          49.000  
C13  36936098.054   192335928.546       -2480.914          45.000  
R 1  18633943.717    99609099.648       -2115.669          50.000  
R13  21371756.192   114123990.512        3599.029          33.000  
R10  21903390.999   116839590.877       -4762.901          39.000  
E 4  24328381.633   127846493.586        1423.099          44.000  
J 7  35713169.410   187673963.760        -578.080          40.000  
G20  18929639.981    99475924.732         387.247          47.000  
E 1  23835349.136   125255652.131        2090.668          45.000  
J 3  36410311.500   191337473.516        -577.705          34.000  
E11  25998512.299   136623103.035       -1674.709          28.000  
G25  22975814.147   120738679.544        3308.688          35.000  
G24  18479474.245    97110321.717       -1175.825          50.000  
E21  22314502.283   117263547.813        -343.408          46.000  
G28  24361325.038   128019605.277       -3365.587          34.000  
G32                                                                
> 2020  1 16  2  6 20.5950000  0 38                     
E27  24772094.206   130178259.546       -2844.308          40.000  
E19  21909602.559   115135749.884        -468.550          40.000  
G15  19899045.692   104570183.464       -2314.916          48.000  
J 1  36609286.368   192383098.766          96.790          47.000  
G21  22142664.144   116360474.556       -2472.409          40.000  
C 9  36598579.643   190578384.023        -252.409          45.000  
C22  20459924.418   106540167.325       -1467.357          51.000  
C 7  38271986.465   199292278.358         872.454          37.000  
C 8  37634260.618   195971451.839       -2700.442          40.000  
C 6  35318887.048   183914707.438        -270.029          46.000  
C19  23643939.500   123120170.636       -3398.422          41.000  
R 8  21900359.083   117275439.519       -3805.826          45.000  
R11  18665881.293    99744892.606       -3068.133          48.000  
R18  22723965.632                       -2002.104          26.000  
R 2  18715086.789    99867323.319        1884.046          52.000  
R12  17774583.289    94948695.226         852.756          53.000  
G10  21032027.025   110524061.290        2321.508          47.000  
J 2  35625129.089   187211301.983        -982.186          45.000  
G13  22381690.059   117616519.996       -3072.388          40.000  
E20  18674794.026    98136686.238       -2178.716          38.000  
G12  20631849.331   108421165.785        2535.904          47.000  
E12  24424212.013   128350062.688       -2995.479          36.000  
C16  35562481.409   185183172.950        -254.689          49.000  
C13  36936193.327   192336424.811       -2481.501          45.000  
R 1  18634022.952    99609522.884       -2116.399          50.000  
R13  21371621.402   114123270.880        3598.113          33.000  
R10  21903569.577   116840543.551       -4763.540          39.000  
E 4  24328327.481   127846209.026        1422.603          44.000  
J 7  35713191.362   187674079.421        -578.448          40.000  
G20  18929625.237    99475847.331         386.833          47.000  
E 1  23835269.742   125255234.102        2089.823          45.000  
J 3  36410333.497   191337589.183        -578.649          33.000  
E11  25998575.979                       -1675.860          28.000  
G25  22975688.168   120738017.820        3307.844          35.000  
G24  18479519.035    97110556.979       -1176.615          50.000  
E21  22314515.486   117263616.588        -344.196          46.000  
G28  24361453.080   128020278.493       -3366.403          34.000  
G32                                                                
> 2020  1 16  2  6 20.7950000  0 38                     
E27  24772202.333   130178828.362       -2844.108          40.000  
E19  21909620.342   115135843.554        -468.249          40.000  
G15  19899133.816   104570646.425       -2314.900          48.000  
J 1  36609282.624   192383079.364          96.909          47.000  
G21  22142758.239   116360969.026       -2472.129          40.000  
C 9  36598589.359   190578434.492        -252.387          45.000  
C22  20459980.864   106540460.795       -1467.485          51.000  
C 7  38271952.976   199292103.893         872.221          37.000  
C 8  37634364.337   195971991.962       -2700.458          40.000  
C 6  35318897.380   183914761.399        -269.943          46.000  
C19  23644070.042   123120850.351       -3398.589          41.000  
R 8  21900501.171   117276200.647       -3805.726          45.000  
R11  18665996.117    99745506.210       -3068.262          48.000  
R18  22724040.504                       -2001.977          26.000  
R 2  18715016.183    99866946.483        1884.092          52.000  
R12  17774551.395    94948524.660         852.644          53.000  
G10  21031938.671   110523596.957        2321.547          47.000  
J 2  35625166.465   187211498.399        -982.144          45.000  
G13  22381806.944   117617134.380       -3072.021          40.000  
E20  18674876.954    98137121.816       -2178.414          38.000  
G12  20631752.814   108420658.581        2535.935          47.000  
E12  24424325.978   128350661.752       -2995.231          36.000  
C16  35562491.245   185183223.846        -254.686          49.000  
C13  36936288.646   192336921.091       -2481.502          45.000  
R 1  18634102.107    99609946.155       -2116.565          50.000  
R13  21371486.612   114122551.295        3597.163          33.000  
R10  21903748.158   116841496.269       -4763.525          39.000  
E 4  24328273.201   127845924.486        1422.896          44.000  
J 7  35713213.377   187674195.099        -578.307          40.000  
G20  18929610.510    99475769.982         386.619          47.000  
E 1  23835190.153   125254816.095        2089.887          45.000  
J 3  36410355.514   191337704.816        -577.975          34.000  
E11  25998639.771   136623773.161       -1675.671          28.000  
G25  22975562.186   120737356.050        3308.844          35.000  
G24  18479563.767    97110792.271       -1176.636          50.000  
E21  22314528.504   117263685.384        -344.060          46.000  
G28  24361581.178   128020951.734       -3365.969          34.000  
G32                                                                
> 2020  1 16  2  6 20.9950000  0 38                     
E27  24772310.544   130179397.214       -2844.130          40.000  
E19  21909638.187   115135937.262        -468.804          40.000  
G15  19899221.944   104571109.421       -2315.134          48.000  
J 1  36609278.929   192383059.976          96.867          47.000  
G21  22142852.363   116361463.521       -2472.807          40.000  
C 9  36598599.056   190578484.960        -252.300          45.000  
C22  20460037.282   106540754.287       -1467.595          51.000  
C 7  38271919.502   199291929.422         872.245          37.000  
C 8  37634468.029   195972532.102       -2700.951          40.000  
C 6  35318907.793   183914815.368        -269.916          46.000  
C19  23644200.536   123121530.081       -3398.907          41.000  
R 8  21900643.290   117276961.790       -3805.886          44.000  
R11  18666110.918    99746119.849       -3068.395          48.000  
R18  22724115.048                       -2002.067          26.000  
R 2  18714945.548    99866569.672        1883.926          52.000  
R12  17774519.460    94948354.139         852.354          53.000  
G10  21031850.250   110523132.671        2321.319          47.000  
J 2  35625203.867   187211694.837        -982.302          45.000  
G13  22381923.907   117617748.804       -3072.088          40.000  
E20  18674959.787    98137557.423       -2178.486          38.000  
G12  20631656.336   108420151.416        2535.700          47.000  
E12  24424439.946   128351260.843       -2995.487          36.000  
C16  35562501.017   185183274.751        -254.583          49.000  
C13  36936383.916   192337417.392       -2481.519          45.000  
R 1  18634181.361    99610369.459       -2116.686          50.000  
R13  21371351.902   114121831.656        3597.542          33.000  
R10  21903926.758   116842449.001       -4763.753          39.000  
E 4  24328219.105   127845639.969        1422.476          44.000  
J 7  35713235.372   187674310.791        -578.385          39.000  
G20  18929595.800    99475692.660         386.528          47.000  
E 1  23835110.576   125254398.105        2089.845          45.000  
J 3  36410377.463   191337820.526        -578.947          34.000  
E11  25998703.384                       -1675.745          28.000  
G25  22975436.262   120736694.345        3308.774          35.000  
G24  18479608.536    97111027.592       -1176.790          50.000  
E21  22314541.648   117263754.228        -344.439          46.000  
G28  24361709.314   128021625.032       -3366.478          34.000  
G32                                                                
> 2020  1 16  2  6 21.1950000  0 38                     
E27  24772418.830   130179966.078       -2844.440          40.000  
E19  21909656.032   115136030.942        -468.590          40.000  
G15  19899310.037   104571572.410       -2315.137          48.000  
J 1  36609275.320   192383040.587          96.792          47.000  
G21  22142946.472   116361958.008       -2472.660          40.000  
C 9  36598608.728   190578535.424        -252.383          45.000  
C22  20460093.655   106541047.800       -1467.781          51.000  
C 7  38271885.966   199291754.953         872.337          37.000  
C 8  37634571.761   195973072.195       -2700.480          40.000  
C 6  35318918.105   183914869.327        -269.831          46.000  
C19  23644331.065   123122209.792       -3398.719          41.000  
R 8  21900785.386   117277722.940       -3805.935          44.000  
R11  18666225.749    99746733.504       -3068.399          48.000  
R18  22724189.691                       -2002.585          26.000  
R 2  18714874.903    99866192.868        1883.852          52.000  
R12  17774487.535    94948183.641         852.238          53.000  
G10  21031761.897   110522668.377        2321.280          47.000  
J 2  35625241.238   187211891.266        -982.403          45.000  
G13  22382040.859   117618363.213       -3072.363          40.000  
E20  18675042.628    98137993.022       -2178.026          38.000  
G12  20631559.826   108419644.251        2535.567          47.000  
E12  24424554.011   128351859.906       -2995.121          36.000  
C16  35562510.810   185183325.660        -254.719          49.000  
C13  36936479.218   192337913.695       -2481.722          45.000  
R 1  18634260.542    99610792.777       -2116.782          50.000  
R13  21371217.128   114121112.053        3598.157          33.000  
R10  21904105.338   116843401.736       -4763.758          38.000  
E 4  24328165.013   127845355.435        1422.672          44.000  
J 7  35713257.394   187674426.486        -578.612          39.000  
G20  18929581.074    99475615.360         386.345          47.000  
E 1  23835031.012   125253980.115        2089.867          45.000  
J 3  36410399.367   191337936.170        -578.763          34.000  
E11  25998767.074                       -1675.563          28.000  
G25  22975310.308   120736032.652        3308.074          35.000  
G24  18479653.302    97111262.924       -1176.800          50.000  
E21  22314554.752   117263823.065        -344.301          46.000  
G28  24361837.467   128022298.313       -3366.867          34.000  
G32                                                                
> 2020  1 16  2  6 21.3950000  0 38                     
E27  24772527.096   130180534.915       -2844.144          40.000  
E19  21909673.909   115136124.619        -468.244          40.000  
G15  19899398.122   104572035.390       -2314.755          48.000  
J 1  36609271.659   192383021.173          97.163          47.000  
G21  22143040.536   116362452.485       -2472.290          40.000  
C 9  36598618.427   190578585.881        -252.228          45.000  
C22  20460150.034   106541341.295       -1467.455          51.000  
C 7  38271852.495   199291580.479         872.162          37.000  
C 8  37634675.493   195973612.298       -2699.784          40.000  
C 6  35318928.514   183914923.271        -269.701          46.000  
C19  23644461.572   123122889.512       -3398.263          42.000  
R 8  21900927.496   117278484.081       -3805.769          44.000  
R11  18666340.570    99747347.173       -3068.216          48.000  
R18  22724264.493                       -2002.467          26.000  
R 2  18714804.281    99865816.052        1884.137          52.000  
R12  17774455.581    94948013.153         852.440          53.000  
G10  21031673.547   110522204.086        2321.559          47.000  
J 2  35625278.648   187212087.674        -981.975          45.000  
G13  22382157.816   117618977.606       -3071.808          40.000  
E20  18675125.556    98138428.610       -2177.447          38.000  
G12  20631463.305   108419137.072        2535.860          47.000  
E12  24424668.070   128352458.972       -2995.174          36.000  
C16  35562520.591   185183376.534        -254.262          49.000  
C13  36936574.534   192338409.965       -2481.163          45.000  
R 1  18634339.765    99611216.097       -2116.559          50.000  
R13  21371082.385   114120392.483        3597.993          34.000  
R10  21904283.953   116844354.436       -4763.335          38.000  
E 4  24328110.879   127845070.897        1422.783          44.000  
J 7  35713279.436   187674542.149        -578.206          39.000  
G20  18929566.327    99475538.067         386.499          47.000  
E 1  23834951.298   125253562.118        2090.158          45.000  
J 3  36410421.328   191338051.796        -577.844          33.000  
E11  25998830.694                       -1675.424          28.000  
G25  22975184.318   120735370.881        3309.172          35.000  
G24  18479698.022    97111498.266       -1176.647          50.000  
E21  22314567.845   117263891.916        -344.191          46.000  
G28  24361965.600   128022971.570       -3366.077          34.000  
G32                                                                
> 2020  1 16  2  6 21.5950000  0 38                     
E27  24772635.373   130181103.769       -2844.217          40.000  
E19  21909691.826   115136218.297        -468.278          40.000  
G15  19899486.232   104572498.378       -2314.910          48.000  
J 1  36609267.960   192383001.755          97.100          47.000  
G21  22143134.623   116362946.964       -2472.326          40.000  
C 9  36598628.171   190578636.312        -252.155          45.000  
C22  20460206.390   106541634.809       -1467.568          51.000  
C 7  38271818.999   199291405.983         872.192          37.000  
C 8  37634779.300   195974152.422       -2700.380          40.000  
C 6  35318938.849   183914977.198        -269.671          46.000  
C19  23644592.123   123123569.230       -3398.453          42.000  
R 8  21901069.580   117279245.224       -3805.676          44.000  
R11  18666455.400    99747960.853       -3068.440          48.000  
R18  22724339.018                       -2002.601          26.000  
R 2  18714733.717    99865439.240        1884.076          52.000  
R12  17774423.687    94947842.690         852.260          53.000  
G10  21031585.187   110521739.804        2321.500          47.000  
J 2  35625315.981   187212284.078        -981.929          45.000  
G13  22382274.755   117619591.996       -3071.967          40.000  
E20  18675208.393    98138864.227       -2177.690          38.000  
G12  20631366.794   108418629.909        2535.728          47.000  
E12  24424782.176   128353058.020       -2995.329          36.000  
C16  35562530.511   185183427.405        -254.281          49.000  
C13  36936669.861   192338906.244       -2481.329          45.000  
R 1  18634418.950    99611639.431       -2116.657          50.000  
R13  21370947.658   114119672.889        3597.519          34.000  
R10  21904462.581   116845307.146       -4763.228          38.000  
E 4  24328056.821   127844786.345        1422.685          44.000  
J 7  35713301.429   187674657.807        -578.197          39.000  
G20  18929551.590    99475460.787         386.512          47.000  
E 1  23834871.845   125253144.144        2089.904          45.000  
J 3  36410443.248   191338167.423        -577.816          33.000  
E11  25998894.435                       -1675.066          29.000  
G25  22975058.318   120734709.168        3308.497          35.000  
G24  18479742.802    97111733.612       -1176.677          50.000  
E21  22314581.001   117263960.768        -344.199          46.000  
G28  24362093.718   128023644.871       -3366.268          34.000  
G32                                                                
> 2020  1 16  2  6 21.7950000  0 38                     
E27  24772743.678   130181672.612       -2844.219          40.000  
E19  21909709.719   115136311.981        -468.548          40.000  
G15  19899574.325   104572961.357       -2314.884          48.000  
J 1  36609264.156   192382982.317          97.236          47.000  
G21  22143228.729   116363441.437       -2472.401          40.000  
C 9  36598637.887   190578686.723        -251.844          45.000  
C22  20460262.758   106541928.321       -1467.481          51.000  
C 7  38271785.517   199291231.450         872.482          37.000  
C 8  37634883.002   195974692.501       -2700.310          40.000  
C 6  35318949.171   183915031.110        -269.464          46.000  
C19  23644722.659   123124248.940       -3398.445          42.000  
R 8  21901211.632   117280006.360       -3805.503          44.000  
R11  18666570.182    99748574.548       -3068.444          48.000  
R18  22724414.460                       -2002.650          27.000  
R 2  18714663.086    99865062.422        1884.145          52.000  
R12  17774391.772    94947672.245         852.222          53.000  
G10  21031496.865   110521275.512        2321.487          46.000  
J 2  35625353.347   187212480.477        -981.915          45.000  
G13  22382391.659   117620206.370       -3071.777          40.000  
E20  18675291.285    98139299.804       -2177.725          38.000  
G12  20631270.260   108418122.731        2535.922          47.000  
E12  24424896.142   128353657.064       -2995.084          36.000  
C16  35562540.179   185183478.260        -254.154          49.000  
C13  36936765.120   192339402.499       -2481.156          44.000  
R 1  18634498.129    99612062.770       -2116.630          50.000  
R13  21370812.868   114118953.268        3598.369          34.000  
R10  21904641.195   116846259.848       -4763.748          39.000  
E 4  24328002.679   127844501.774        1422.911          44.000  
J 7  35713323.441   187674773.458        -577.899          39.000  
G20  18929536.914    99475383.525         386.403          47.000  
E 1  23834792.290   125252726.147        2089.986          45.000  
J 3  36410465.160                        -577.808          33.000  
E11  25998958.198                       -1675.472          29.000  
G25  22974932.371   120734047.399        3308.787          36.000  
G24  18479787.566    97111968.966       -1176.719          50.000  
E21  22314594.117   117264029.639        -344.418          46.000  
G28  24362221.873   128024318.100       -3366.164          34.000  
G32                                                                
> 2020  1 16  2  6 21.9950000  0 38                     
E27  24772851.867   130182241.424       -2843.944          40.000  
E19  21909727.485   115136405.610        -468.124          40.000  
G15  19899662.412   104573424.309       -2314.757          47.000  
J 1  36609260.463   192382962.846          97.425          47.000  
G21  22143322.846   116363935.896       -2472.279          40.000  
C 9  36598647.529   190578737.106        -251.837          45.000  
C22  20460319.158   106542221.820       -1467.516          51.000  
C 7  38271751.958   199291056.908         872.664          37.000  
C 8  37634986.746   195975232.555       -2700.178          40.000  
C 6  35318959.552   183915084.991        -269.370          46.000  
C19  23644853.239   123124928.632       -3398.532          42.000  
R 8  21901353.768   117280767.485       -3805.635          44.000  
R11  18666685.044    99749188.227       -3068.410          48.000  
R18  22724490.044                       -2001.849          27.000  
R 2  18714592.499    99864685.582        1884.165          52.000  
R12  17774359.897    94947501.797         852.212          53.000  
G10  21031408.493   110520811.196        2321.543          46.000  
J 2  35625390.692   187212676.841        -981.816          45.000  
G13  22382508.547   117620820.715       -3071.729          40.000  
E20  18675374.214    98139735.360       -2177.238          38.000  
G12  20631173.721   108417615.538        2536.081          48.000  
E12  24425010.135   128354256.062       -2995.281          36.000  
C16  35562549.992   185183529.078        -254.112          49.000  
C13  36936860.367   192339898.733       -2481.233          44.000  
R 1  18634577.308    99612486.103       -2116.759          50.000  
R13  21370678.146   114118233.662        3597.804          34.000  
R10  21904819.779   116847212.495       -4763.394          38.000  
E 4  24327948.420   127844217.169        1423.209          44.000  
J 7  35713345.428   187674889.082        -578.170          39.000  
G20  18929522.241    99475306.256         386.352          47.000  
E 1  23834712.799   125252308.118        2090.171          45.000  
J 3  36410487.007   191338398.617        -578.276          33.000  
E11  25999021.987                       -1675.243          29.000  
G25  22974806.433   120733385.591        3308.838          36.000  
G24  18479832.373    97112204.301       -1176.738          50.000  
E21  22314607.151   117264098.481        -344.188          46.000  
G28  24362349.974   128024991.378       -3366.452          34.000  
G32                                                                
> 2020  1 16  2  6 22.1950000  0 38                     
E27  24772960.081   130182810.249       -2843.992          40.000  
E19  21909745.374   115136499.257        -468.130          40.000  
G15  19899750.506   104573887.259       -2314.664          47.000  
J 1  36609256.811   192382943.367          97.505          47.000  
G21  22143416.937   116364430.342       -2472.143          40.000  
C 9  36598657.221   190578787.471        -251.646          45.000  
C22  20460375.487   106542515.322       -1467.464          51.000  
C 7  38271718.447   199290882.337         873.057          37.000  
C 8  37635090.411   195975772.611       -2700.154          40.000  
C 6  35318969.922   183915138.854        -269.311          46.000  
C19  23644983.778   123125608.307       -3398.290          42.000  
R 8  21901495.863   117281528.609       -3805.659          44.000  
R11  18666799.854    99749801.929       -3068.620          48.000  
R18  22724565.535                       -2002.147          27.000  
R 2  18714521.914    99864308.742        1884.203          52.000  
R12  17774328.002    94947331.372         852.025          53.000  
G10  21031320.168   110520346.884        2321.533          46.000  
J 2  35625428.059   187212873.197        -981.689          45.000  
G13  22382625.504   117621435.072       -3071.936          41.000  
E20  18675457.108    98140170.947       -2177.556          38.000  
G12  20631077.230   108417108.355        2535.973          48.000  
E12  24425124.087   128354855.072       -2995.196          36.000  
C16  35562559.735   185183579.887        -254.050          49.000  
C13  36936955.695   192340394.952       -2481.104          44.000  
R 1  18634656.510    99612909.441       -2116.726          50.000  
R13  21370543.363   114117514.039        3597.642          34.000  
R10  21904998.392   116848165.181       -4763.249          38.000  
E 4  24327894.203   127843932.561        1423.186          44.000  
J 7  35713367.434   187675004.686        -578.096          39.000  
G20  18929507.568    99475228.988         386.358          47.000  
E 1  23834633.221   125251890.104        2090.095          45.000  
J 3  36410508.863   191338514.141        -576.928          33.000  
E11  25999085.667                       -1675.672          29.000  
G25  22974680.532   120732723.791        3308.820          36.000  
G24  18479877.144    97112439.645       -1176.711          50.000  
E21  22314620.292   117264167.343        -344.302          46.000  
G28  24362478.128   128025664.648       -3366.407          33.000  
G32                                                                
> 2020  1 16  2  6 22.3950000  0 38                     
E27  24773068.394   130183379.104       -2844.092          40.000  
E19  21909763.178   115136592.921        -468.193          40.000  
G15  19899838.590   104574350.246       -2314.790          47.000  
J 1  36609253.183   192382923.902          97.370          47.000  
G21  22143511.040   116364924.825       -2472.413          40.000  
C 9  36598666.874   190578837.852        -251.499          45.000  
C22  20460431.847   106542808.854       -1467.534          51.000  
C 7  38271684.983   199290707.809         872.692          37.000  
C 8  37635194.090   195976312.669       -2700.323          40.000  
C 6  35318980.299   183915192.723        -269.120          46.000  
C19  23645114.290   123126288.007       -3398.454          42.000  
R 8  21901637.976   117282289.747       -3805.663          44.000  
R11  18666914.713    99750415.655       -3068.634          48.000  
R18  22724640.765                       -2002.480          27.000  
R 2  18714451.278    99863931.922        1884.213          52.000  
R12  17774296.132    94947160.987         851.877          53.000  
G10  21031231.779   110519882.604        2321.462          46.000  
J 2  35625465.429   187213069.565        -981.687          45.000  
G13  22382742.406   117622049.414       -3071.869          41.000  
E20  18675540.088    98140606.519       -2177.751          38.000  
G12  20630980.713   108416601.193        2535.919          48.000  
E12  24425238.039   128355454.081       -2995.416          36.000  
C16  35562569.537   185183630.695        -253.929          49.000  
C13  36937050.950   192340891.193       -2481.060          44.000  
R 1  18634735.721    99613332.816       -2116.770          50.000  
R13  21370408.564   114116794.418        3597.831          34.000  
R10  21905176.963   116849117.839       -4763.262          38.000  
E 4  24327840.117   127843647.965        1423.115          44.000  
J 7  35713389.407   187675120.295        -577.910          39.000  
G20  18929492.866    99475151.760         386.417          47.000  
E 1  23834553.710   125251472.107        2089.961          45.000  
J 3  36410530.769   191338629.730        -577.419          33.000  
E11  25999149.508                       -1675.190          29.000  
G25  22974554.569   120732061.971        3309.292          36.000  
G24  18479921.941    97112675.022       -1176.804          50.000  
E21  22314633.428   117264236.232        -344.396          46.000  
G28  24362606.189   128026337.908       -3367.008          33.000  
G32                                                                
> 2020  1 16  2  6 22.5950000  0 38                     
E27  24773176.576   130183947.904       -2843.819          40.000  
E19  21909780.932   115136686.560        -468.187          40.000  
G15  19899926.668   104574813.193       -2314.742          47.000  
J 1  36609249.508   192382904.388          97.570          47.000  
G21  22143605.159   116365419.254       -2472.187          40.000  
C 9  36598676.522   190578888.192        -251.705          45.000  
C22  20460488.185   106543102.364       -1467.543          51.000  
C 7  38271651.449   199290533.214         873.154          38.000  
C 8  37635297.776   195976852.687       -2700.265          40.000  
C 6  35318990.588   183915246.563        -269.108          46.000  
C19  23645244.811   123126967.673       -3398.317          42.000  
R 8  21901780.100   117283050.857       -3805.586          44.000  
R11  18667029.549    99751029.369       -3068.662          48.000  
R18  22724716.924                       -2002.597          27.000  
R 2  18714380.633    99863555.074        1884.283          52.000  
R12  17774264.254    94946990.587         851.923          53.000  
G10  21031143.408   110519418.284        2321.476          46.000  
J 2  35625502.820   187213265.908        -981.801          45.000  
G13  22382859.353   117622663.731       -3071.564          41.000  
E20  18675622.960    98141042.063       -2177.386          38.000  
G12  20630884.195   108416094.007        2535.994          48.000  
E12  24425351.970   128356053.021       -2994.521          36.000  
C16  35562579.191   185183681.470        -253.859          49.000  
C13  36937146.253   192341387.404       -2481.050          44.000  
R 1  18634814.945    99613756.166       -2116.818          50.000  
R13  21370273.773   114116074.757        3598.818          34.000  
R10  21905355.563   116850070.486       -4763.104          39.000  
E 4  24327785.933   127843363.318        1423.361          44.000  
J 7  35713411.381   187675235.856        -577.768          40.000  
G20  18929478.199    99475074.536         386.089          47.000  
E 1  23834474.135   125251054.076        2090.071          45.000  
J 3  36410552.634   191338745.286        -578.115          33.000  
E11  25999213.474                       -1675.616          29.000  
G25  22974428.622   120731400.156        3308.875          36.000  
G24  18479966.713    97112910.375       -1176.785          50.000  
E21  22314646.520   117264305.094        -344.312          46.000  
G28  24362734.263   128027011.092       -3365.801          34.000  
G32                                                                
> 2020  1 16  2  6 22.7950000  0 38                     
E27  24773284.733   130184516.749       -2844.112          40.000  
E19  21909798.766   115136780.186        -468.151          40.000  
G15  19900014.794   104575276.146       -2314.581          47.000  
J 1  36609245.684   192382884.871          97.813          47.000  
G21  22143699.223   116365913.689       -2471.858          40.000  
C 9  36598686.231   190578938.510        -251.131          45.000  
C22  20460544.548   106543395.886       -1467.440          51.000  
C 7  38271617.862   199290358.614         873.322          37.000  
C 8  37635401.445   195977392.710       -2700.034          40.000  
C 6  35319000.970   183915300.395        -269.048          46.000  
C19  23645375.391   123127647.343       -3398.104          42.000  
R 8  21901922.253   117283811.979       -3805.623          44.000  
R11  18667144.373    99751643.089       -3068.441          48.000  
R18  22724792.249                       -2002.723          27.000  
R 2  18714310.010    99863178.229        1884.485          52.000  
R12  17774232.336    94946820.220         851.993          53.000  
G10  21031055.076   110518953.971        2321.806          46.000  
J 2  35625540.185   187213462.244        -981.593          45.000  
G13  22382976.293   117623278.040       -3071.381          41.000  
E20  18675705.831    98141477.634       -2177.694          38.000  
G12  20630787.681   108415586.830        2536.089          48.000  
E12  24425465.991   128356652.036       -2995.221          36.000  
C16  35562589.035   185183732.237        -253.570          49.000  
C13  36937241.524   192341883.601       -2480.686          44.000  
R 1  18634894.175    99614179.534       -2116.590          50.000  
R13  21370139.039   114115355.118        3598.852          34.000  
R10  21905534.160   116851023.122       -4763.005          39.000  
E 4  24327731.824   127843078.685        1423.425          44.000  
J 7  35713433.374   187675351.443        -577.555          40.000  
G20  18929463.463    99474997.315         386.182          47.000  
E 1  23834394.541   125250636.050        2090.353          45.000  
J 3  36410574.548   191338860.780        -577.490          33.000  
E11  25999277.104                       -1675.254          29.000  
G25  22974302.711   120730738.272        3309.789          36.000  
G24  18480011.523    97113145.739       -1176.617          50.000  
E21  22314659.582   117264373.978        -344.327          46.000  
G28  24362862.356   128027684.388       -3365.945          34.000  
G32                                                                
> 2020  1 16  2  6 22.9950000  0 38                     
E27  24773393.059   130185085.625       -2844.818          40.000  
E19  21909816.532   115136873.858        -468.464          40.000  
G15  19900102.910   104575739.152       -2315.276          47.000  
J 1  36609241.984   192382865.397          97.157          47.000  
G21  22143793.394   116366408.203       -2472.980          40.000  
C 9  36598695.901   190578988.891        -251.993          45.000  
C22  20460600.887   106543689.461       -1468.175          51.000  
C 7  38271584.387   199290184.083         872.865          37.000  
C 8  37635505.127   195977932.762       -2700.769          40.000  
C 6  35319011.279   183915354.259        -269.703          46.000  
C19  23645505.943   123128327.069       -3398.793          42.000  
R 8  21902064.357   117284573.153       -3806.125          44.000  
R11  18667259.241    99752256.890       -3069.257          48.000  
R18  22724867.681                       -2002.912          27.000  
R 2  18714239.384    99862801.439        1883.710          52.000  
R12  17774200.474    94946649.926         851.154          53.000  
G10  21030966.746   110518489.719        2321.015          46.000  
J 2  35625577.530   187213658.609        -982.075          45.000  
G13  22383093.216   117623892.404       -3072.076          41.000  
E20  18675788.676    98141913.243       -2178.785          38.000  
G12  20630691.226   108415079.708        2535.319          48.000  
E12  24425580.005   128357250.981       -2994.851          36.000  
C16  35562598.709   185183783.051        -254.426          49.000  
C13  36937336.793   192342379.856       -2481.547          44.000  
R 1  18634973.365    99614602.969       -2117.438          50.000  
R13  21370004.264   114114635.555        3597.536          34.000  
R10  21905712.752   116851975.805       -4763.681          39.000  
E 4  24327677.731   127842794.079        1422.803          44.000  
J 7  35713455.429   187675467.065        -578.434          40.000  
G20  18929448.819    99474920.160         385.427          47.000  
E 1  23834315.184   125250218.080        2089.553          45.000  
J 3  36410596.435   191338976.358        -578.319          33.000  
E11  25999340.942                       -1675.931          29.000  
G25  22974176.790   120730076.487        3308.562          37.000  
G24  18480056.347    97113381.171       -1177.414          50.000  
E21  22314672.842   117264442.915        -345.076          46.000  
G28  24362990.442   128028357.664       -3366.742          34.000  
G32                                                                
> 2020  1 16  2  6 23.1950000  0 38                     
E27  24773501.256   130185654.485       -2844.321          40.000  
E19  21909834.418   115136967.541        -468.389          40.000  
G15  19900191.002   104576202.156       -2315.090          47.000  
J 1  36609238.363   192382845.910          97.462          47.000  
G21  22143887.518   116366902.682       -2472.424          40.000  
C 9  36598705.552   190579039.248        -251.838          45.000  
C22  20460657.273   106543983.047       -1468.012          51.000  
C 7  38271550.836   199290009.542         872.453          38.000  
C 8  37635608.855   195978472.808       -2700.303          40.000  
C 6  35319021.635   183915408.108        -269.235          46.000  
C19  23645636.527   123129006.783       -3398.618          42.000  
R 8  21902206.456   117285334.328       -3805.884          44.000  
R11  18667374.113    99752870.695       -3069.130          48.000  
R18  22724943.102                       -2003.238          27.000  
R 2  18714168.773    99862424.649        1883.860          52.000  
R12  17774168.630    94946479.653         851.225          53.000  
G10  21030878.405   110518025.468        2321.233          46.000  
J 2  35625614.876   187213854.988        -981.937          45.000  
G13  22383210.144   117624506.737       -3071.643          41.000  
E20  18675871.636    98142348.815       -2178.151          38.000  
G12  20630594.710   108414572.584        2535.514          48.000  
E12  24425693.910   128357849.976       -2994.383          36.000  
C16  35562608.479   185183833.831        -253.932          49.000  
C13  36937432.145   192342876.100       -2481.263          44.000  
R 1  18635052.619    99615026.410       -2117.287          50.000  
R13  21369869.524   114113915.992        3597.578          34.000  
R10  21905891.372   116852928.482       -4763.589          39.000  
E 4  24327623.519   127842509.466        1423.067          44.000  
J 7  35713477.425   187675582.650        -577.929          40.000  
G20  18929434.132    99474843.021         385.576          47.000  
E 1  23834235.529   125249800.095        2089.967          45.000  
J 3  36410618.397   191339091.867        -577.911          33.000  
E11  25999404.588                       -1676.257          29.000  
G25  22974050.849   120729414.657        3309.069          37.000  
G24  18480101.177    97113616.610       -1177.279          50.000  
E21  22314685.871   117264511.861        -344.770          46.000  
G28  24363118.560   128029030.951       -3366.373          34.000  
G32                                                                
> 2020  1 16  2  6 23.3950000  0 38                     
E27  24773609.601   130186223.391       -2844.735          40.000  
E19  21909852.308   115137061.239        -468.706          40.000  
G15  19900279.165   104576665.173       -2315.316          47.000  
J 1  36609234.734   192382826.430          97.261          47.000  
G21  22143981.641   116367397.205       -2472.855          40.000  
C 9  36598715.200   190579089.605        -252.095          45.000  
C22  20460713.648   106544276.652       -1468.255          51.000  
C 7  38271517.358   199289834.989         872.554          38.000  
C 8  37635712.554   195979012.848       -2700.416          40.000  
C 6  35319031.948   183915461.968        -269.534          46.000  
C19  23645767.125   123129686.520       -3398.901          42.000  
R 8  21902348.600   117286095.522       -3806.167          44.000  
R11  18667488.969    99753484.535       -3069.509          48.000  
R18  22725016.987                       -2002.986          27.000  
R 2  18714098.205    99862047.879        1883.605          52.000  
R12  17774136.787    94946309.421         850.827          53.000  
G10  21030790.063   110517561.240        2320.936          46.000  
J 2  35625652.231   187214051.368        -982.167          45.000  
G13  22383327.049   117625121.107       -3071.893          41.000  
E20  18675954.485    98142784.426       -2178.586          38.000  
G12  20630498.205   108414065.481        2535.299          48.000  
E12  24425807.970   128358449.031       -2995.199          36.000  
C16  35562618.214   185183884.639        -254.315          49.000  
C13  36937527.440   192343372.348       -2481.429          44.000  
R 1  18635131.800    99615449.883       -2117.653          50.000  
R13  21369734.772   114113196.418        3597.116          34.000  
R10  21906069.974   116853881.190       -4763.717          39.000  
E 4  24327569.365   127842224.864        1422.757          44.000  
J 7  35713499.467   187675698.257        -577.932          40.000  
G20  18929419.442    99474765.909         385.305          47.000  
E 1  23834156.008   125249382.143        2089.592          45.000  
J 3  36410640.429   191339207.414        -578.000          33.000  
E11  25999468.215                       -1675.887          29.000  
G25  22973924.916   120728752.848        3308.948          37.000  
G24  18480146.022    97113852.076       -1177.649          50.000  
E21  22314699.045   117264580.832        -345.058          46.000  
G28  24363246.704   128029704.289       -3367.413          34.000  
G32                                                                
> 2020  1 16  2  6 23.5950000  0 38                     
E27  24773717.763   130186792.304       -2844.391          40.000  
E19  21909870.102   115137154.957        -468.390          40.000  
G15  19900367.268   104577128.219       -2314.956          47.000  
J 1  36609231.007   192382806.968          97.676          47.000  
G21  22144075.708   116367891.732       -2472.484          40.000  
C 9  36598724.900   190579139.969        -251.544          45.000  
C22  20460770.086   106544570.292       -1468.035          51.000  
C 7  38271483.869   199289660.446         873.103          38.000  
C 8  37635816.287   195979552.930       -2699.843          40.000  
C 6  35319042.244   183915515.835        -269.079          46.000  
C19  23645897.668   123130366.279       -3398.833          42.000  
R 8  21902490.730   117286856.742       -3806.000          44.000  
R11  18667603.875    99754098.415       -3069.136          48.000  
R18  22725092.205                       -2003.738          27.000  
R 2  18714027.596    99861671.133        1884.002          52.000  
R12  17774104.906    94946139.237         851.095          53.000  
G10  21030701.715   110517097.039        2321.261          47.000  
J 2  35625689.621   187214247.767        -981.801          45.000  
G13  22383443.961   117625735.497       -3071.814          41.000  
E20  18676037.326    98143220.053       -2178.183          38.000  
G12  20630401.735   108413558.410        2535.577          48.000  
E12  24425922.048   128359048.048       -2995.157          36.000  
C16  35562628.036   185183935.438        -253.687          49.000  
C13  36937622.714   192343868.622       -2481.076          44.000  
R 1  18635211.092    99615873.393       -2117.349          50.000  
R13  21369600.046   114112476.842        3598.389          34.000  
R10  21906248.584   116854833.885       -4763.533          39.000  
E 4  24327515.075   127841940.281        1423.137          44.000  
J 7  35713521.461   187675813.874        -577.683          40.000  
G20  18929404.757    99474688.848         385.432          47.000  
E 1  23834076.385   125248964.226        2089.646          45.000  
J 3  36410662.523   191339322.963        -577.446          33.000  
E11  25999532.187                       -1675.218          29.000  
G25  22973799.033   120728091.051        3309.015          37.000  
G24  18480190.777    97114087.568       -1177.259          50.000  
E21  22314712.098   117264649.848        -344.912          46.000  
G28  24363374.837   128030377.608       -3366.199          34.000  
G32                                                                
> 2020  1 16  2  6 23.7950000  0 38                     
E27  24773825.976   130187361.280       -2845.062          40.000  
E19  21909887.985   115137248.722        -468.981          40.000  
G15  19900455.402   104577591.314       -2315.527          47.000  
J 1  36609227.243   192382787.542          97.125          47.000  
G21  22144169.845   116368386.314       -2472.925          40.000  
C 9  36598734.543   190579190.373        -251.965          45.000  
C22  20460826.444   106544863.986       -1468.653          51.000  
C 7  38271450.396   199289485.958         872.638          38.000  
C 8  37635919.980   195980093.045       -2700.393          40.000  
C 6  35319052.587   183915569.740        -269.653          46.000  
C19  23646028.229   123131046.059       -3398.963          41.000  
R 8  21902632.925   117287618.015       -3806.434          44.000  
R11  18667718.813    99754712.361       -3069.870          48.000  
R18  22725166.569                       -2003.668          27.000  
R 2  18713957.029    99861294.437        1883.384          52.000  
R12  17774073.105    94945969.130         850.331          53.000  
G10  21030613.430   110516632.888        2320.632          47.000  
J 2  35625727.027   187214444.202        -982.171          45.000  
G13  22383560.928   117626349.916       -3072.271          41.000  
E20  18676120.247    98143655.712       -2178.463          38.000  
G12  20630305.300   108413051.392        2534.932          48.000  
E12  24426036.087   128359647.105       -2995.406          36.000  
C16  35562637.769   185183986.287        -254.263          49.000  
C13  36937718.029   192344364.929       -2481.506          44.000  
R 1  18635290.343    99616296.962       -2117.991          50.000  
R13  21369465.289   114111757.359        3598.159          34.000  
R10  21906427.213   116855786.624       -4763.845          39.000  
E 4  24327460.946   127841655.732        1422.569          44.000  
J 7  35713543.529   187675929.541        -578.294          40.000  
G20  18929390.111    99474611.847         384.794          47.000  
E 1  23833996.944   125248546.333        2089.281          45.000  
J 3  36410684.701   191339438.580        -577.916          34.000  
E11  25999596.038                       -1676.627          29.000  
G25  22973673.146   120727429.274        3308.960          37.000  
G24  18480235.635    97114323.126       -1177.891          50.000  
E21  22314725.299   117264718.915        -345.514          46.000  
G28  24363503.005   128031051.006       -3367.214          34.000  
G32                                                                
> 2020  1 16  2  6 23.9950000  0 38                     
E27  24773934.193   130187930.237       -2844.800          40.000  
E19  21909905.927   115137342.459        -468.874          40.000  
G15  19900543.542   104578054.395       -2315.488          47.000  
J 1  36609223.567   192382768.095          97.192          47.000  
G21  22144263.947   116368880.880       -2472.969          40.000  
C 9  36598744.260   190579240.756        -251.923          45.000  
C22  20460882.902   106545157.667       -1468.485          51.000  
C 7  38271416.877   199289311.459         872.170          38.000  
C 8  37636023.670   195980633.139       -2700.729          40.000  
C 6  35319062.958   183915623.615        -269.373          46.000  
C19  23646158.802   123131725.853       -3399.049          41.000  
R 8  21902775.100   117288379.271       -3806.324          44.000  
R11  18667833.719    99755326.307       -3069.797          48.000  
R18  22725241.662                       -2003.616          27.000  
R 2  18713886.440    99860917.732        1883.388          52.000  
R12  17774041.225    94945799.023         850.349          53.000  
G10  21030525.127   110516168.724        2320.801          47.000  
J 2  35625764.410   187214640.622        -982.141          45.000  
G13  22383677.849   117626964.313       -3072.186          41.000  
E20  18676203.171    98144091.382       -2178.560          38.000  
G12  20630208.760   108412544.353        2535.096          48.000  
E12  24426150.115   128360246.140       -2994.911          36.000  
C16  35562647.534   185184037.112        -254.140          49.000  
C13  36937813.355   192344861.226       -2481.557          44.000  
R 1  18635369.568    99616720.527       -2117.941          50.000  
R13  21369330.544   114111037.876        3597.643          34.000  
R10  21906605.809   116856739.351       -4763.593          39.000  
E 4  24327406.806   127841371.159        1422.910          44.000  
J 7  35713565.569   187676045.179        -578.347          40.000  
G20  18929375.457    99474534.839         384.855          47.000  
E 1  23833917.323   125248128.435        2089.397          45.000  
J 3  36410706.820   191339554.177        -578.714          34.000  
E11  25999659.815                       -1675.844          28.000  
G25  22973547.245   120726767.494        3308.713          37.000  
G24  18480280.456    97114558.677       -1177.879          50.000  
E21  22314738.412   117264787.972        -345.386          46.000  
G28  24363631.093   128031724.373       -3367.052          34.000  
G32                                                                
> 2020  1 16  2  6 24.1950000  0 38                     
E27  24774042.396   130188499.231       -2845.168          40.000  
E19  21909923.810   115137436.234        -468.954          40.000  
G15  19900631.690   104578517.522       -2315.873          47.000  
J 1  36609219.944   192382748.678          96.951          47.000  
G21  22144358.104   116369375.487       -2473.096          40.000  
C 9  36598753.906   190579291.166        -252.039          45.000  
C22  20460939.331   106545451.402       -1468.790          51.000  
C 7  38271383.366   199289136.957         872.540          38.000  
C 8  37636127.463   195981173.263       -2700.705          40.000  
C 6  35319073.368   183915677.526        -269.732          46.000  
C19  23646289.373   123132405.663       -3399.128          41.000  
R 8  21902917.290   117289140.581       -3806.685          44.000  
R11  18667948.612    99755940.312       -3070.207          48.000  
R18  22725315.528                       -2004.607          27.000  
R 2  18713815.820    99860541.065        1883.156          52.000  
R12  17774009.428    94945628.990         850.017          53.000  
G10  21030436.789   110515704.603        2320.285          47.000  
J 2  35625801.793   187214837.073        -982.297          45.000  
G13  22383794.779   117627578.748       -3072.382          42.000  
E20  18676286.106    98144527.077       -2178.514          38.000  
G12  20630112.326   108412037.369        2534.773          48.000  
E12  24426264.097   128360845.237       -2995.749          36.000  
C16  35562657.276   185184087.961        -254.420          49.000  
C13  36937908.661   192345357.547       -2481.598          44.000  
R 1  18635448.822    99617144.147       -2118.266          50.000  
R13  21369195.790   114110318.406        3597.625          34.000  
R10  21906784.467   116857692.136       -4764.033          39.000  
E 4  24327352.620   127841086.621        1422.583          44.000  
J 7  35713587.578   187676160.839        -578.492          40.000  
G20  18929360.829    99474457.899         384.495          47.000  
E 1  23833837.782   125247710.575        2089.243          45.000  
J 3  36410728.878   191339669.750        -578.023          34.000  
E11  25999723.729                       -1676.691          28.000  
G25  22973421.403   120726105.735        3308.489          38.000  
G24  18480325.277    97114794.273       -1178.193          50.000  
E21  22314751.550   117264857.084        -345.712          46.000  
G28  24363759.284   128032397.811       -3367.451          34.000  
G32                                                                
> 2020  1 16  2  6 24.3950000  0 38                     
E27  24774150.616   130189068.272       -2845.342          40.000  
E19  21909941.640   115137530.067        -469.238          40.000  
G15  19900719.807   104578980.677       -2315.902          47.000  
J 1  36609216.317   192382729.289          96.861          47.000  
G21  22144452.236   116369870.141       -2473.502          40.000  
C 9  36598763.625   190579341.616        -252.359          45.000  
C22  20460995.745   106545745.185       -1469.084          51.000  
C 7  38271349.901   199288962.497         872.022          38.000  
C 8  37636231.227   195981713.420       -2700.654          40.000  
C 6  35319083.682   183915731.457        -269.850          46.000  
C19  23646419.937   123133085.528       -3399.226          41.000  
R 8  21903059.421   117289901.923       -3806.868          44.000  
R11  18668063.463    99756554.376       -3070.506          48.000  
R18  22725390.998                       -2004.295          27.000  
R 2  18713745.238    99860164.445        1882.894          52.000  
R12  17773977.582    94945459.020         849.623          53.000  
G10  21030348.469   110515240.526        2320.166          47.000  
J 2  35625839.180   187215033.564        -982.530          45.000  
G13  22383911.675   117628193.218       -3072.577          42.000  
E20  18676368.998    98144962.799       -2178.769          38.000  
G12  20630015.840   108411530.426        2534.488          48.000  
E12  24426378.172   128361444.357       -2995.848          36.000  
C16  35562666.978   185184138.849        -254.724          49.000  
C13  36938003.963   192345853.910       -2481.874          45.000  
R 1  18635528.111    99617567.823       -2118.539          50.000  
R13  21369061.057   114109598.998        3596.818          34.000  
R10  21906963.109   116858644.947       -4764.210          39.000  
E 4  24327298.499   127840802.107        1422.526          44.000  
J 7  35713609.595   187676276.527        -578.436          40.000  
G20  18929346.187    99474380.999         384.325          47.000  
E 1  23833758.287   125247292.765        2088.908          45.000  
J 3  36410751.026   191339785.390        -578.451          34.000  
E11  25999787.432                       -1676.962          29.000  
G25  22973295.566   120725443.994        3308.883          38.000  
G24  18480370.097    97115029.927       -1178.479          50.000  
E21  22314764.613   117264926.249        -346.001          46.000  
G28  24363887.453   128033071.263       -3367.628          34.000  
G32                                                                
> 2020  1 16  2  6 24.5950000  0 38                     
E27  24774258.920   130189637.306       -2845.056          40.000  
E19  21909959.460   115137623.883        -469.167          40.000  
G15  19900807.939   104579443.844       -2315.874          47.000  
J 1  36609212.620   192382709.879          97.202          47.000  
G21  22144546.388   116370364.766       -2472.793          40.000  
C 9  36598773.313   190579392.035        -251.993          45.000  
C22  20461052.212   106546038.963       -1468.825          51.000  
C 7  38271316.407   199288788.030         872.563          38.000  
C 8  37636334.962   195982253.572       -2700.930          40.000  
C 6  35319094.070   183915785.378        -269.561          46.000  
C19  23646550.560   123133765.387       -3399.177          41.000  
R 8  21903201.575   117290663.258       -3806.604          44.000  
R11  18668178.355    99757168.441       -3070.200          48.000  
R18  22725466.119                       -2005.013          27.000  
R 2  18713674.663    99859787.811        1883.229          52.000  
R12  17773945.777    94945289.069         849.768          53.000  
G10  21030260.151   110514776.446        2320.405          47.000  
J 2  35625876.543   187215230.046        -982.450          45.000  
G13  22384028.588   117628807.666       -3072.150          42.000  
E20  18676451.829    98145398.515       -2178.247          38.000  
G12  20629919.326   108411023.477        2534.793          48.000  
E12  24426492.173   128362043.434       -2995.621          36.000  
C16  35562676.779   185184189.699        -254.214          49.000  
C13  36938099.312   192346350.265       -2481.596          45.000  
R 1  18635607.381    99617991.496       -2118.322          50.000  
R13  21368926.299   114108879.570        3597.235          34.000  
R10  21907141.722   116859597.735       -4763.947          39.000  
E 4  24327244.323   127840517.583        1422.822          44.000  
J 7  35713631.640   187676392.222        -578.344          40.000  
G20  18929331.549    99474304.114         384.621          47.000  
E 1  23833678.720   125246874.942        2089.247          45.000  
J 3  36410773.041   191339900.992        -577.645          34.000  
E11  25999851.429                       -1676.591          28.000  
G25  22973169.720   120724782.264        3308.871          38.000  
G24  18480414.902    97115265.574       -1178.222          50.000  
E21  22314777.684   117264995.413        -345.809          46.000  
G28  24364015.570   128033744.702       -3366.917          34.000  
G32                                                                
> 2020  1 16  2  6 24.7950000  0 38                     
E27  24774367.277   130190206.333       -2845.081          40.000  
E19  21909977.410   115137717.688        -469.192          40.000  
G15  19900896.114   104579906.979       -2315.720          47.000  
J 1  36609208.859   192382690.451          97.193          47.000  
G21  22144640.540   116370859.401       -2472.972          40.000  
C 9  36598783.012   190579442.428        -251.878          45.000  
C22  20461108.649   106546332.741       -1468.923          51.000  
C 7  38271282.867   199288613.534         872.526          38.000  
C 8  37636438.659   195982793.651       -2700.153          40.000  
C 6  35319104.417   183915839.264        -269.487          46.000  
C19  23646681.130   123134445.219       -3399.173          41.000  
R 8  21903343.762   117291424.586       -3806.666          45.000  
R11  18668293.250    99757782.518       -3070.305          47.000  
R18  22725541.260                       -2004.214          27.000  
R 2  18713604.045    99859411.171        1883.210          52.000  
R12  17773913.977    94945119.125         849.635          53.000  
G10  21030171.819   110514312.351        2320.601          47.000  
J 2  35625913.891   187215426.493        -982.351          45.000  
G13  22384145.510   117629422.090       -3072.028          42.000  
E20  18676534.801    98145834.231       -2178.425          38.000  
G12  20629822.863   108410516.522        2534.759          48.000  
E12  24426606.058   128362642.487       -2995.243          36.000  
C16  35562686.537   185184240.533        -254.240          49.000  
C13  36938194.682   192346846.599       -2481.733          45.000  
R 1  18635686.659    99618415.171       -2118.403          50.000  
R13  21368791.582   114108160.111        3597.440          34.000  
R10  21907320.345   116860550.510       -4764.133          39.000  
E 4  24327190.280   127840233.045        1422.698          44.000  
J 7  35713653.688   187676507.873        -578.328          40.000  
G20  18929316.896    99474227.234         384.412          47.000  
E 1  23833599.219   125246457.110        2089.102          45.000  
J 3  36410794.987   191340016.565        -577.692          34.000  
E11  25999915.269                       -1676.283          28.000  
G25  22973043.893   120724120.497        3308.619          38.000  
G24  18480459.787    97115501.221       -1178.286          50.000  
E21  22314790.957   117265064.567        -345.846          46.000  
G28  24364143.728   128034418.166       -3367.376          34.000  
G32                                                                
> 2020  1 16  2  6 24.9950000  0 38                     
E27  24774475.501   130190775.334       -2845.124          40.000  
E19  21909995.271   115137811.447        -468.900          40.000  
G15  19900984.250   104580370.096       -2315.673          47.000  
J 1  36609205.120   192382670.991          97.282          47.000  
G21  22144734.651   116371353.998       -2473.290          40.000  
C 9  36598792.656   190579492.791        -251.864          45.000  
C22  20461165.056   106546626.500       -1468.978          51.000  
C 7  38271249.323   199288439.010         872.622          38.000  
C 8  37636542.352   195983333.753       -2700.614          40.000  
C 6  35319114.793   183915893.124        -269.380          46.000  
C19  23646811.723   123135125.039       -3399.263          41.000  
R 8  21903485.941   117292185.889       -3806.637          45.000  
R11  18668408.182    99758396.588       -3070.430          47.000  
R18  22725616.486                       -2004.495          27.000  
R 2  18713533.432    99859034.511        1883.150          52.000  
R12  17773882.168    94944949.185         849.589          53.000  
G10  21030083.487   110513848.248        2320.347          47.000  
J 2  35625951.258   187215622.919        -982.315          45.000  
G13  22384262.456   117630036.495       -3072.107          42.000  
E20  18676617.739    98146269.917       -2178.268          38.000  
G12  20629726.403   108410009.542        2534.812          48.000  
E12  24426720.088   128363241.545       -2995.174          36.000  
C16  35562696.338   185184291.328        -254.067          49.000  
C13  36938289.941   192347342.900       -2481.705          44.000  
R 1  18635765.920    99618838.834       -2118.562          50.000  
R13  21368656.910   114107440.701        3596.892          34.000  
R10  21907498.929   116861503.262       -4763.782          39.000  
E 4  24327136.160   127839948.454        1422.979          44.000  
J 7  35713675.703   187676623.500        -578.245          40.000  
G20  18929302.300    99474150.350         384.213          47.000  
E 1  23833519.685   125246039.248        2089.231          45.000  
J 3  36410816.885   191340132.092        -577.214          34.000  
E11  25999979.278                       -1677.131          28.000  
G25  22972918.047   120723458.677        3308.962          38.000  
G24  18480504.575    97115736.858       -1178.289          50.000  
E21  22314804.146   117265133.720        -345.878          46.000  
G28  24364271.901   128035091.554       -3366.974          34.000  
G32                                                                
> 2020  1 16  2  6 27.9950000  0 38                     
E27  24776099.492   130199311.979       -2845.722          40.000  
E19  21910263.098   115139219.252        -469.453          40.000  
G15  19902306.471   104587318.368       -2316.152          47.000  
J 1  36609149.601   192382379.338          97.445          47.000  
G21  22146146.622   116378774.451       -2473.392          40.000  
C 9  36598937.644   190580248.233        -251.467          45.000  
C22  20462011.658   106551035.156       -1469.927          51.000  
C 7  38270746.600   199285821.470         872.870          38.000  
C 8  37638098.202   195991435.352       -2700.510          40.000  
C 6  35319269.749   183916701.009        -268.891          46.000  
C19  23648770.700   123145323.418       -3399.638          41.000  
R 8  21905618.919   117303607.136       -3807.219          45.000  
R11  18670132.514    99767610.782       -3072.038          48.000  
R18  22726742.594                       -2006.689          27.000  
R 2  18712474.952    99853386.288        1882.577          52.000  
R12  17773405.658    94942404.182         847.351          53.000  
G10  21028759.024   110506888.402        2319.662          46.000  
J 2  35626512.081   187218569.940        -982.170          45.000  
G13  22386016.461   117639253.166       -3072.046          42.000  
E20  18677861.286    98152806.249       -2178.704          38.000  
G12  20628279.653   108402406.823        2533.844          47.000  
E12  24428429.832   128372227.599       -2994.961          36.000  
C16  35562842.600   185185053.373        -253.823          49.000  
C13  36939719.778   192354788.099       -2481.738          44.000  
R 1  18636955.409    99625196.607       -2119.854          50.000  
R13  21366636.024   114096650.146        3597.210          34.000  
R10  21910178.184   116875795.313       -4764.482          39.000  
E 4  24326323.914   127835680.146        1422.991          44.000  
J 7  35714005.777   187678358.157        -577.896          40.000  
G20  18929083.424    99473000.298         382.630          47.000  
E 1  23832327.114   125239772.880        2088.659          45.000  
J 3  36411146.553   191341865.181        -577.188          33.000  
E11  26000937.148                       -1678.076          29.000  
G25  22971029.694   120713531.648        3309.460          37.000  
G24  18481177.759    97119273.868       -1179.553          50.000  
E21  22315002.042   117266173.496        -347.207          46.000  
G28  24366194.643   128045194.410       -3368.243          35.000  
G32                                                                
> 2020  1 16  2  6 28.1950000  0 38                     
E27  24776207.847   130199881.136       -2845.954          40.000  
E19  21910281.022   115139313.108        -469.719          40.000  
G15  19902394.661   104587781.629       -2316.696          47.000  
J 1  36609145.928   192382359.836          97.223          47.000  
G21  22146240.803   116379269.181       -2473.929          40.000  
C 9  36598947.301   190580298.536        -251.719          45.000  
C22  20462068.068   106551329.150       -1470.245          51.000  
C 7  38270713.013   199285646.907         872.794          38.000  
C 8  37638201.873   195991975.401       -2700.861          40.000  
C 6  35319280.139   183916754.810        -269.336          46.000  
C19  23648901.311   123146003.320       -3399.935          41.000  
R 8  21905761.120   117304368.600       -3807.702          45.000  
R11  18670247.476    99768225.205       -3072.544          48.000  
R18  22726818.061                       -2006.022          27.000  
R 2  18712404.359    99853009.777        1882.194          52.000  
R12  17773373.868    94942234.712         846.932          53.000  
G10  21028670.774   110506424.464        2319.410          46.000  
J 2  35626549.454   187218766.383        -982.508          45.000  
G13  22386133.341   117639867.599       -3072.363          42.000  
E20  18677944.201    98153242.008       -2178.954          38.000  
G12  20628183.207   108401900.021        2533.654          47.000  
E12  24428543.819   128372826.647       -2995.141          36.000  
C16  35562852.344   185185104.109        -253.999          49.000  
C13  36939815.079   192355284.431       -2482.029          44.000  
R 1  18637034.766    99625620.578       -2120.230          50.000  
R13  21366501.344   114095930.840        3596.468          33.000  
R10  21910356.740   116876748.091       -4764.571          39.000  
E 4  24326269.806   127835395.536        1422.776          44.000  
J 7  35714027.806   187678473.753        -578.024          40.000  
G20  18929068.863    99472923.773         382.252          47.000  
E 1  23832247.636   125239355.156        2088.343          45.000  
J 3  36411168.576   191341980.680        -577.647          34.000  
E11  26001000.931                       -1677.403          29.000  
G25  22970903.732   120712869.767        3309.077          37.000  
G24  18481222.697    97119509.769       -1179.870          50.000  
E21  22315015.237   117266242.910        -347.196          46.000  
G28  24366322.733   128045867.932       -3368.089          35.000  
G32                                                                
> 2020  1 16  2  6 28.3950000  0 38                     
E27  24776316.153   130200450.291       -2845.810          40.000  
E19  21910298.898   115139406.963        -469.462          40.000  
G15  19902482.833   104588244.869       -2316.371          47.000  
J 1  36609142.309   192382340.325          97.546          47.000  
G21  22146334.944   116379763.903       -2473.968          40.000  
C 9  36598957.002   190580348.822        -251.460          45.000  
C22  20462124.515   106551623.149       -1470.172          51.000  
C 7  38270679.487   199285472.379         872.822          38.000  
C 8  37638305.599   195992515.447       -2700.419          40.000  
C 6  35319290.405   183916808.576        -268.968          46.000  
C19  23649031.869   123146683.216       -3399.411          41.000  
R 8  21905903.312   117305130.055       -3807.455          45.000  
R11  18670362.399    99768839.638       -3072.398          48.000  
R18  22726893.631                       -2006.047          28.000  
R 2  18712333.846    99852633.262        1882.468          52.000  
R12  17773342.159    94942065.262         847.035          53.000  
G10  21028582.497   110505960.521        2319.545          46.000  
J 2  35626586.837   187218962.815        -982.226          45.000  
G13  22386250.235   117640482.001       -3072.156          41.000  
E20  18678027.185    98153677.776       -2179.082          38.000  
G12  20628086.779   108401393.229        2533.878          47.000  
E12  24428657.881   128373425.672       -2995.281          36.000  
C16  35562862.047   185185154.835        -253.774          49.000  
C13  36939910.421   192355780.747       -2481.777          44.000  
R 1  18637114.063    99626044.563       -2120.066          50.000  
R13  21366366.659   114095211.520        3596.523          33.000  
R10  21910535.338   116877700.877       -4763.947          39.000  
E 4  24326215.575   127835110.931        1423.065          44.000  
J 7  35714049.786   187678589.333        -578.033          40.000  
G20  18929054.265    99472847.270         382.384          47.000  
E 1  23832168.094   125238937.420        2088.667          45.000  
J 3  36411190.486   191342096.116        -577.077          34.000  
E11  26001064.902                       -1678.202          29.000  
G25  22970777.800   120712207.905        3309.120          37.000  
G24  18481267.645    97119745.675       -1179.731          50.000  
E21  22315028.406   117266312.346        -347.337          46.000  
G28  24366450.888   128046541.497       -3367.766          35.000  
G32                                                                
> 2020  1 16  2  6 28.5950000  0 38                     
E27  24776424.539   130201019.465       -2845.999          40.000  
E19  21910316.724   115139500.833        -469.311          40.000  
G15  19902570.987   104588708.130       -2316.210          47.000  
J 1  36609138.596   192382320.826          97.565          47.000  
G21  22146429.116   116380258.608       -2473.189          40.000  
C 9  36598966.687   190580399.114        -251.528          45.000  
C22  20462181.059   106551917.168       -1470.028          51.000  
C 7  38270645.949   199285297.834         872.461          38.000  
C 8  37638409.308   195993055.495       -2700.303          40.000  
C 6  35319300.821   183916862.358        -268.698          46.000  
C19  23649162.399   123147363.135       -3399.383          41.000  
R 8  21906045.545   117305891.530       -3807.349          45.000  
R11  18670477.385    99769454.096       -3072.258          48.000  
R18  22726968.810                       -2006.162          28.000  
R 2  18712263.330    99852256.767        1882.546          52.000  
R12  17773310.491    94941895.855         847.008          53.000  
G10  21028494.236   110505496.610        2319.601          46.000  
J 2  35626624.215   187219159.260        -982.143          45.000  
G13  22386367.146   117641096.411       -3071.899          41.000  
E20  18678110.103    98154113.544       -2178.907          38.000  
G12  20627990.380   108400886.460        2533.954          47.000  
E12  24428771.902   128374024.714       -2995.305          36.000  
C16  35562871.849   185185205.561        -253.632          49.000  
C13  36940005.733   192356277.076       -2481.461          44.000  
R 1  18637193.371    99626468.570       -2120.051          50.000  
R13  21366231.947   114094492.169        3596.475          33.000  
R10  21910713.958   116878653.680       -4764.064          39.000  
E 4  24326161.337   127834826.333        1422.968          44.000  
J 7  35714071.764   187678704.923        -577.988          40.000  
G20  18929039.738    99472770.793         382.299          47.000  
E 1  23832088.540   125238519.717        2088.520          45.000  
J 3  36411212.443                        -576.708          34.000  
E11  26001129.013                       -1677.715          29.000  
G25  22970651.843   120711546.014        3309.529          37.000  
G24  18481312.504    97119981.598       -1179.512          50.000  
E21  22315041.520   117266381.790        -347.161          46.000  
G28  24366579.087   128047215.061       -3367.760          35.000  
G32                                                                
> 2020  1 16  2  6 28.7950000  0 38                     
E27  24776532.854   130201588.619       -2845.997          40.000  
E19  21910334.588   115139594.704        -469.485          40.000  
G15  19902659.187   104589171.399       -2316.582          47.000  
J 1  36609134.788   192382301.316          97.353          47.000  
G21  22146523.285   116380753.377       -2473.915          40.000  
C 9  36598976.318   190580449.388        -251.584          45.000  
C22  20462237.591   106552211.199       -1470.387          51.000  
C 7  38270612.430   199285123.268         872.208          38.000  
C 8  37638512.958   195993595.544       -2700.274          40.000  
C 6  35319311.130   183916916.140        -269.167          46.000  
C19  23649292.919   123148043.058       -3400.006          41.000  
R 8  21906187.760   117306653.010       -3807.799          45.000  
R11  18670592.423    99770068.588       -3072.722          48.000  
R18  22727044.274                       -2006.777          27.000  
R 2  18712192.731    99851880.276        1882.172          52.000  
R12  17773278.787    94941726.475         846.565          53.000  
G10  21028405.936   110505032.699        2319.213          46.000  
J 2  35626661.589   187219355.702        -982.484          45.000  
G13  22386484.056   117641710.835       -3072.375          41.000  
E20  18678193.001    98154549.317       -2179.267          38.000  
G12  20627893.964   108400379.698        2533.591          47.000  
E12  24428885.906   128374623.749       -2995.573          36.000  
C16  35562881.533   185185256.276        -253.813          49.000  
C13  36940100.996   192356773.398       -2481.907          44.000  
R 1  18637272.684    99626892.597       -2120.429          50.000  
R13  21366097.242   114093772.822        3596.998          33.000  
R10  21910892.565   116879606.463       -4764.009          39.000  
E 4  24326107.135   127834541.718        1422.828          44.000  
J 7  35714093.795   187678820.497        -578.119          40.000  
G20  18929025.230    99472694.332         381.948          47.000  
E 1  23832009.094   125238102.003        2088.184          45.000  
J 3  36411234.367                        -577.785          34.000  
E11  26001192.662                       -1677.790          29.000  
G25  22970525.906   120710884.127        3309.150          37.000  
G24  18481357.420    97120217.545       -1180.014          50.000  
E21  22315054.792   117266451.254        -347.547          46.000  
G28  24366707.226   128047888.634       -3367.636          35.000  
G32                                                                
> 2020  1 16  2  6 28.9950000  0 38                     
E27  24776641.198   130202157.801       -2845.763          40.000  
E19  21910352.408   115139688.579        -469.270          40.000  
G15  19902747.319   104589634.661       -2316.218          47.000  
J 1  36609131.015   192382281.795          97.620          47.000  
G21  22146617.445   116381248.107       -2473.898          40.000  
C 9  36598985.947   190580499.651        -251.174          45.000  
C22  20462294.151   106552505.236       -1470.106          51.000  
C 7  38270578.854   199284948.682         872.940          38.000  
C 8  37638616.643   195994135.613       -2700.210          40.000  
C 6  35319321.532   183916969.902        -268.788          46.000  
C19  23649423.501   123148722.963       -3399.669          41.000  
R 8  21906329.971   117307414.489       -3807.453          45.000  
R11  18670707.420    99770683.088       -3072.416          48.000  
R18  22727118.992                       -2006.717          27.000  
R 2  18712122.193    99851503.785        1882.390          52.000  
R12  17773247.105    94941557.122         846.748          53.000  
G10  21028317.656   110504568.787        2319.500          46.000  
J 2  35626698.988   187219552.131        -982.030          45.000  
G13  22386600.968   117642325.250       -3072.040          41.000  
E20  18678275.931    98154985.068       -2179.011          38.000  
G12  20627797.513   108399872.940        2533.889          47.000  
E12  24428999.860   128375222.738       -2994.960          36.000  
C16  35562891.277   185185306.984        -253.535          49.000  
C13  36940196.335   192357269.712       -2481.537          44.000  
R 1  18637351.993    99627316.630       -2120.110          50.000  
R13  21365962.567   114093053.537        3596.551          33.000  
R10  21911071.165   116880559.252       -4763.780          39.000  
E 4  24326052.974   127834257.090        1423.276          44.000  
J 7  35714115.786   187678936.086        -577.915          40.000  
G20  18929010.728    99472617.885         382.227          47.000  
E 1  23831929.548   125237684.292        2088.603          45.000  
J 3  36411256.271                        -576.960          33.000  
E11  26001256.599                       -1677.824          28.000  
G25  22970399.942   120710222.212        3310.269          37.000  
G24  18481402.305    97120453.498       -1179.779          50.000  
E21  22315067.971   117266520.735        -347.264          46.000  
G28  24366835.465   128048562.233       -3368.272          35.000  
G32                                                                
> 2020  1 16  2  6 29.1950000  0 38                     
E27  24776749.494   130202726.980       -2846.138          40.000  
E19  21910370.292   115139782.455        -469.601          40.000  
G15  19902835.496   104590097.928       -2316.444          47.000  
J 1  36609127.290   192382262.275          97.451          47.000  
G21  22146711.579   116381742.833       -2473.887          40.000  
C 9  36598995.585   190580549.910        -251.413          45.000  
C22  20462350.635   106552799.289       -1470.423          51.000  
C 7  38270545.313   199284774.122         872.669          38.000  
C 8  37638720.317   195994675.630       -2700.353          40.000  
C 6  35319331.855   183917023.655        -268.917          47.000  
C19  23649554.120   123149402.876       -3399.695          41.000  
R 8  21906472.190   117308175.973       -3807.490          45.000  
R11  18670822.434    99771297.618       -3072.931          48.000  
R18  22727193.904                       -2007.061          27.000  
R 2  18712051.646    99851127.295        1882.264          52.000  
R12  17773215.434    94941387.795         846.339          53.000  
G10  21028229.395   110504104.886        2319.246          46.000  
J 2  35626736.374   187219748.559        -982.289          45.000  
G13  22386717.808   117642939.669       -3072.308          41.000  
E20  18678358.868    98155420.838       -2179.223          38.000  
G12  20627701.097   108399366.187        2533.579          47.000  
E12  24429113.829   128375821.758       -2994.922          36.000  
C16  35562901.014   185185357.676        -253.448          49.000  
C13  36940291.619   192357766.035       -2481.759          44.000  
R 1  18637431.340    99627740.682       -2120.402          50.000  
R13  21365827.834   114092334.180        3596.626          33.000  
R10  21911249.758   116881512.051       -4764.125          39.000  
E 4  24325998.861   127833972.471        1423.105          44.000  
J 7  35714137.756   187679051.633        -577.892          40.000  
G20  18928996.210    99472541.455         381.980          47.000  
E 1  23831850.131   125237266.577        2088.374          45.000  
J 3  36411278.256                        -577.180          33.000  
E11  26001320.549                       -1677.698          28.000  
G25  22970274.010   120709560.349        3309.479          37.000  
G24  18481447.226    97120689.458       -1179.956          50.000  
E21  22315081.272   117266590.221        -347.619          46.000  
G28  24366963.742   128049235.784       -3367.953          35.000  
G32                                                                
> 2020  1 16  2  6 29.3950000  0 38                     
E27  24776857.808   130203296.207       -2846.499          40.000  
E19  21910388.084   115139876.362        -469.561          40.000  
G15  19902923.651   104590561.249       -2316.766          47.000  
J 1  36609123.641   192382242.779          97.316          47.000  
G21  22146805.755   116382237.628       -2474.032          40.000  
C 9  36599005.257   190580600.201        -251.592          45.000  
C22  20462407.094   106553093.388       -1470.661          51.000  
C 7  38270511.842   199284599.584         872.378          38.000  
C 8  37638824.048   195995215.720       -2700.678          40.000  
C 6  35319342.221   183917077.444        -269.115          46.000  
C19  23649684.646   123150082.824       -3399.748          41.000  
R 8  21906614.434   117308937.516       -3808.043          45.000  
R11  18670937.448    99771912.197       -3073.108          48.000  
R18  22727268.858                       -2006.912          27.000  
R 2  18711981.111    99850750.861        1881.983          52.000  
R12  17773183.749    94941218.540         846.100          53.000  
G10  21028141.131   110503641.024        2319.092          46.000  
J 2  35626773.755   187219945.028        -982.401          45.000  
G13  22386834.755   117643554.112       -3072.437          41.000  
E20  18678441.914    98155856.644       -2179.342          38.000  
G12  20627604.674   108398859.491        2533.214          47.000  
E12  24429227.798   128376420.835       -2995.698          36.000  
C16  35562910.785   185185408.421        -253.910          49.000  
C13  36940386.935   192358262.390       -2481.936          44.000  
R 1  18637510.675    99628164.800       -2120.763          50.000  
R13  21365693.120   114091614.944        3595.874          33.000  
R10  21911428.367   116882464.881       -4764.229          39.000  
E 4  24325944.746   127833687.885        1422.789          44.000  
J 7  35714159.790   187679167.247        -578.200          40.000  
G20  18928981.684    99472465.091         381.657          47.000  
E 1  23831770.748   125236848.917        2088.280          45.000  
J 3  36411300.302   191342673.303        -577.393          34.000  
E11  26001384.394                       -1678.189          28.000  
G25  22970148.085   120708898.506        3308.270          37.000  
G24  18481492.161    97120925.481       -1180.268          50.000  
E21  22315094.456   117266659.765        -347.839          46.000  
G28  24367091.925   128049909.425       -3367.903          35.000  
G32                                                                
> 2020  1 16  2  6 29.5950000  0 38                     
E27  24776966.032   130203865.469       -2846.330          40.000  
E19  21910405.870   115139970.327        -469.538          40.000  
G15  19903011.791   104591024.601       -2316.633          47.000  
J 1  36609119.949   192382223.323          97.295          47.000  
G21  22146899.945   116382732.451       -2474.122          40.000  
C 9  36599014.931   190580650.524        -251.430          45.000  
C22  20462463.616   106553387.539       -1470.735          51.000  
C 7  38270478.276   199284425.071         872.530          38.000  
C 8  37638927.786   195995755.816       -2700.404          40.000  
C 6  35319352.585   183917131.254        -268.972          46.000  
C19  23649815.245   123150762.826       -3399.787          41.000  
R 8  21906756.640   117309699.080       -3807.751          45.000  
R11  18671052.450    99772526.847       -3073.137          47.000  
R18  22727344.493                       -2007.334          27.000  
R 2  18711910.577    99850374.463        1882.013          52.000  
R12  17773152.091    94941049.357         845.935          53.000  
G10  21028052.861   110503177.211        2319.078          46.000  
J 2  35626811.102   187220141.536        -982.442          45.000  
G13  22386951.624   117644168.586       -3072.302          41.000  
E20  18678524.877    98156292.494       -2179.605          38.000  
G12  20627508.232   108398352.823        2533.434          47.000  
E12  24429341.781   128377019.910       -2995.708          36.000  
C16  35562920.555   185185459.177        -253.721          49.000  
C13  36940482.309   192358758.784       -2481.916          44.000  
R 1  18637589.984    99628588.966       -2120.832          50.000  
R13  21365558.371   114090895.691        3596.099          33.000  
R10  21911607.040   116883417.760       -4764.479          39.000  
E 4  24325890.603   127833403.333        1422.816          44.000  
J 7  35714181.776   187679282.870        -578.066          40.000  
G20  18928967.165    99472388.780         381.697          47.000  
E 1  23831691.299   125236431.302        2088.097          45.000  
J 3  36411322.410   191342788.786        -576.885          34.000  
E11  26001448.185                       -1678.980          28.000  
G25  22970022.214   120708236.640        3309.215          37.000  
G24  18481537.081    97121161.546       -1180.247          50.000  
E21  22315107.725   117266729.368        -348.103          46.000  
G28  24367220.136   128050583.088       -3368.126          35.000  
G32                                                                
> 2020  1 16  2  6 29.7950000  0 38                     
E27  24777074.397   130204434.702       -2846.115          40.000  
E19  21910423.715   115140064.253        -469.729          40.000  
G15  19903099.932   104591487.936       -2316.735          47.000  
J 1  36609116.159   192382203.821          97.546          47.000  
G21  22146994.125   116383227.262       -2474.097          40.000  
C 9  36599024.553   190580700.809        -251.455          45.000  
C22  20462520.104   106553681.668       -1470.748          51.000  
C 7  38270444.772   199284250.548         872.389          38.000  
C 8  37639031.420   195996295.910       -2700.597          40.000  
C 6  35319362.854   183917185.038        -269.049          46.000  
C19  23649945.804   123151442.798       -3399.733          41.000  
R 8  21906898.868   117310460.631       -3807.789          45.000  
R11  18671167.449    99773141.494       -3073.355          47.000  
R18  22727420.597                       -2006.421          27.000  
R 2  18711840.014    99849998.047        1881.961          52.000  
R12  17773120.413    94940880.173         845.805          53.000  
G10  21027964.592   110502713.384        2319.055          46.000  
J 2  35626848.462   187220338.013        -982.518          45.000  
G13  22387068.548   117644783.045       -3072.546          41.000  
E20  18678607.736    98156728.287       -2178.942          38.000  
G12  20627411.831   108397846.152        2533.334          47.000  
E12  24429455.791   128377618.959       -2995.281          36.000  
C16  35562930.264   185185509.899        -253.689          49.000  
C13  36940577.631   192359255.137       -2481.726          44.000  
R 1  18637669.329    99629013.116       -2120.840          50.000  
R13  21365423.706   114090176.453        3596.042          33.000  
R10  21911785.599   116884370.567       -4763.952          39.000  
E 4  24325836.433   127833118.729        1423.025          44.000  
J 7  35714203.746   187679398.463        -577.940          40.000  
G20  18928952.662    99472312.468         381.505          47.000  
E 1  23831611.845   125236013.661        2088.157          45.000  
J 3  36411344.415   191342904.268        -577.427          34.000  
E11  26001512.142                       -1677.404          29.000  
G25  22969896.343   120707574.766        3309.395          37.000  
G24  18481582.043    97121397.606       -1180.356          50.000  
E21  22315121.025   117266798.937        -348.010          46.000  
G28  24367348.329   128051256.721       -3368.059          35.000  
G32                                                                
> 2020  1 16  2  6 29.9950000  0 38                     
E27  24777182.739   130205003.978       -2846.357          40.000  
E19  21910441.702   115140158.222        -469.999          40.000  
G15  19903188.094   104591951.300       -2316.886          47.000  
J 1  36609112.403   192382184.346          97.443          47.000  
G21  22147088.256   116383722.064       -2473.900          40.000  
C 9  36599034.207   190580751.097        -251.360          45.000  
C22  20462576.598   106553975.838       -1471.005          51.000  
C 7  38270411.252   199284075.990         872.777          38.000  
C 8  37639135.123   195996836.018       -2701.152          40.000  
C 6  35319373.235   183917238.825        -268.976          46.000  
C19  23650076.383   123152122.805       -3400.256          41.000  
R 8  21907041.101   117311222.213       -3808.090          45.000  
R11  18671282.485    99773756.164       -3073.401          47.000  
R18  22727496.511                       -2007.696          27.000  
R 2  18711769.491    99849621.657        1881.915          52.000  
R12  17773088.744    94940711.040         845.498          53.000  
G10  21027876.322   110502249.582        2319.019          46.000  
J 2  35626885.878   187220534.505        -982.630          45.000  
G13  22387185.409   117645397.518       -3072.394          40.000  
E20  18678690.621    98157164.155       -2179.259          38.000  
G12  20627315.433   108397339.502        2533.195          47.000  
E12  24429569.796   128378218.031       -2995.655          36.000  
C16  35562940.109   185185560.640        -253.725          49.000  
C13  36940672.907   192359751.530       -2482.026          44.000  
R 1  18637748.673    99629437.311       -2121.059          50.000  
R13  21365289.079   114089457.234        3596.028          33.000  
R10  21911964.243   116885323.429       -4764.232          39.000  
E 4  24325782.389   127832834.165        1422.767          44.000  
J 7  35714225.738   187679514.074        -577.950          40.000  
G20  18928938.119    99472236.190         381.236          47.000  
E 1  23831532.331   125235596.041        2088.014          45.000  
J 3  36411366.355                        -577.588          34.000  
E11  26001575.989                       -1678.826          28.000  
G25  22969770.402   120706912.893        3309.503          37.000  
G24  18481626.970    97121633.698       -1180.589          50.000  
E21  22315134.215   117266868.550        -348.105          46.000  
G28  24367476.550   128051930.402       -3368.528          35.000  
G32                                                                
> 2020  1 16  2  6 53.5950000  0 39                     
E27  24789980.040   130272255.619       -2852.653          40.000  
E19  21912561.558   115151297.779        -474.051          41.000  
G32  23503976.935                        2084.739          29.000  
G15  19913606.044   104646697.441       -2322.545          47.000  
J 1  36608674.755   192379883.858          97.724          47.000  
G21  22158211.852   116442176.150       -2479.131          41.000  
C 9  36600171.162   190586670.912        -250.229          45.000  
C22  20469264.802   106588803.316       -1480.469          51.000  
C 7  38266456.810   199263484.596         872.678          37.000  
C 8  37651375.116   196060572.723       -2700.763          40.000  
C 6  35320589.488   183923570.720        -267.617          47.000  
C19  23665495.406   123232415.224       -3404.149          42.000  
R 8  21923837.871   117401167.213       -3814.332          44.000  
R11  18684888.304    99846460.735       -3087.693          48.000  
R18  22736404.217                       -2022.568          28.000  
R 2  18703461.155    99805287.604        1875.341          52.000  
R12  17769395.114    94920980.040         826.635          53.000  
G10  21017478.355   110447609.803        2311.589          46.000  
J 2  35631302.083   187243741.866        -984.072          45.000  
G13  22400987.202   117717926.216       -3074.042          42.000  
E20  18688486.405    98208642.094       -2182.762          38.000  
G12  20615956.878   108337649.459        2525.408          47.000  
E12  24443023.040   128448918.456       -2996.291          35.000  
C16  35564087.140   185191533.362        -252.277          49.000  
C13  36951925.916   192418349.934       -2483.744          45.000  
R 1  18647140.574    99679641.898       -2133.591          50.000  
R 3  22866688.469                3       3026.001          25.000  
R13  21349409.249   114004660.093        3590.117          34.000  
R10  21933048.880   116997794.526       -4766.900          41.000  
E 4  24319393.113   127799258.833        1422.596          44.000  
J 7  35716821.649   187693155.935        -577.666          40.000  
G20  18927258.414    99463409.931         366.748          47.000  
E 1  23822168.417   125186387.217        2082.260          45.000  
J 3  36413955.268   191356622.802        -575.797          34.000  
E11  26009130.880                       -1686.909          27.000  
G25  22954906.714   120628802.570        3310.463          38.000  
G24  18486953.502    97149624.656       -1191.505          50.000  
E21  22316722.741   117275216.500        -359.221          46.000  
G28  24382617.764   128131497.570       -3373.839          34.000  
> 2020  1 16  2  6 53.7950000  0 39                     
E27  24790088.820   130272826.236       -2853.430          40.000  
E19  21912579.695   115151392.657        -474.486          41.000  
G32  23503897.637                        2084.473          29.000  
G15  19913694.433   104647162.006       -2322.953          47.000  
J 1  36608671.069   192379864.364          97.367          47.000  
G21  22158306.249   116442672.096       -2479.577          41.000  
C 9  36600180.778   190586720.964        -250.417          45.000  
C22  20469321.647   106589099.472       -1480.890          51.000  
C 7  38266423.355   199263310.130         872.257          37.000  
C 8  37651478.858   196061112.940       -2701.139          40.000  
C 6  35320599.732   183923624.263        -267.850          47.000  
C19  23665626.191   123233096.149       -3404.805          42.000  
R 8  21923980.371   117401930.147       -3814.796          44.000  
R11  18685003.900    99847078.363       -3088.314          48.000  
R18  22736480.838                       -2022.861          28.000  
R 2  18703390.844    99804912.586        1874.949          52.000  
R12  17769364.151    94920814.787         826.103          53.000  
G10  21017390.389   110447147.535        2311.054          46.000  
J 2  35631339.547   187243938.743        -984.482          45.000  
G13  22401104.216   117718541.061       -3074.402          42.000  
E20  18688569.462    98209078.807       -2183.245          38.000  
G12  20615860.795   108337144.434        2524.994          47.000  
E12  24443136.948   128449517.686       -2996.280          35.000  
C16  35564096.769   185191583.877        -252.652          49.000  
C13  36952021.315   192418846.764       -2484.155          45.000  
R 1  18647220.401    99680068.650       -2133.877          50.000  
R 3  22866575.079                3       3025.601          25.000  
R13  21349274.800   114003942.057        3590.236          34.000  
R10  21933227.602   116998747.981       -4767.432          41.000  
E 4  24319338.953   127798974.356        1422.300          44.000  
J 7  35716843.650   187693271.582        -578.613          40.000  
G20  18927244.478    99463336.621         366.331          47.000  
E 1  23822089.145   125185970.812        2081.892          45.000  
J 3  36413977.158   191356737.896        -575.199          34.000  
E11  26009194.940                       -1687.353          27.000  
G25  22954780.771   120628140.564        3309.864          38.000  
G24  18486998.906    97149863.012       -1191.948          50.000  
E21  22316736.420   117275288.396        -359.649          46.000  
G28  24382746.225   128132172.548       -3374.725          34.000  
> 2020  1 16  2  6 53.9950000  0 39                     
E27  24790197.428   130273396.809       -2852.710          40.000  
E19  21912597.663   115151487.492        -473.974          41.000  
G32  23503818.343                        2085.005          29.000  
G15  19913782.820   104647626.537       -2322.615          47.000  
J 1  36608667.298   192379844.838          97.700          47.000  
G21  22158400.611   116443168.012       -2479.548          41.000  
C 9  36600190.425   190586770.983        -249.930          45.000  
C22  20469378.586   106589395.602       -1480.523          51.000  
C 7  38266389.816   199263135.626         872.781          37.000  
C 8  37651582.608   196061653.123       -2701.189          40.000  
C 6  35320610.029   183923677.773        -267.522          47.000  
C19  23665756.914   123233777.035       -3404.360          42.000  
R 8  21924122.813   117402693.052       -3814.601          44.000  
R11  18685119.487    99847695.979       -3088.117          48.000  
R18  22736558.160                       -2023.029          29.000  
R 2  18703320.537    99804537.540        1875.325          52.000  
R12  17769333.206    94920649.528         826.274          53.000  
G10  21017302.385   110446685.232        2311.473          46.000  
J 2  35631376.993   187244135.587        -984.074          45.000  
G13  22401221.218   117719155.871       -3073.865          42.000  
E20  18688652.464    98209515.472       -2183.206          38.000  
G12  20615764.677   108336639.389        2525.253          47.000  
E12  24443251.069   128450116.929       -2996.081          36.000  
C16  35564106.514   185191634.357        -252.352          49.000  
C13  36952116.705   192419343.570       -2484.028          45.000  
R 1  18647300.235    99680495.392       -2133.617          50.000  
R 3  22866462.058                3       3023.929          25.000  
R13  21349140.368   114003224.083        3590.332          34.000  
R10  21933406.326   116999701.387       -4766.936          41.000  
E 4  24319284.704   127798689.838        1422.785          44.000  
J 7  35716865.622   187693387.142        -577.728          40.000  
G20  18927230.484    99463263.303         366.812          47.000  
E 1  23822009.949   125185554.374        2082.210          45.000  
J 3  36413999.025   191356853.023        -576.246          34.000  
E11  26009259.061                       -1686.963          27.000  
G25  22954654.732   120627478.480        3310.409          38.000  
G24  18487044.215    97150101.357       -1191.636          50.000  
E21  22316750.008   117275360.276        -359.271          46.000  
G28  24382874.664   128132847.464       -3374.326          34.000  
> 2020  1 16  2  6 54.1950000  0 39                     
E27  24790306.150   130273967.415       -2853.260          40.000  
E19  21912615.745   115151582.379        -474.578          41.000  
G32  23503739.026                        2085.065          29.000  
G15  19913871.212   104648091.114       -2323.170          47.000  
J 1  36608663.528   192379825.327          97.303          47.000  
G21  22158494.994   116443663.955       -2479.955          41.000  
C 9  36600200.011   190586821.025        -250.357          45.000  
C22  20469435.462   106589691.782       -1481.136          51.000  
C 7  38266356.253   199262961.155         872.612          37.000  
C 8  37651686.300   196062193.307       -2701.089          40.000  
C 6  35320620.209   183923731.301        -267.916          47.000  
C19  23665887.684   123234457.955       -3404.894          42.000  
R 8  21924265.327   117403455.994       -3814.857          44.000  
R11  18685235.089    99848313.634       -3088.643          48.000  
R18  22736635.259                       -2022.661          28.000  
R 2  18703250.279    99804162.530        1874.893          52.000  
R12  17769302.289    94920484.324         825.722          53.000  
G10  21017214.404   110446222.976        2310.954          46.000  
J 2  35631414.466   187244332.457        -984.682          45.000  
G13  22401338.280   117719770.719       -3074.481          42.000  
E20  18688735.534    98209952.165       -2183.656          38.000  
G12  20615668.588   108336134.377        2524.771          47.000  
E12  24443365.080   128450716.164       -2996.319          36.000  
C16  35564116.171   185191684.848        -252.682          49.000  
C13  36952212.090   192419840.383       -2484.255          45.000  
R 1  18647380.127    99680922.180       -2134.235          50.000  
R 3  22866349.773                3       3023.098          25.000  
R13  21349005.938   114002506.085        3589.569          34.000  
R10  21933585.057   117000654.842       -4767.674          41.000  
E 4  24319230.657   127798405.345        1422.215          44.000  
J 7  35716887.599   187693502.770        -578.342          40.000  
G20  18927216.572    99463190.047         366.217          47.000  
E 1  23821930.768   125185137.970        2081.693          45.000  
J 3  36414020.897   191356968.087        -575.258          34.000  
E11  26009323.270                       -1687.892          27.000  
G25  22954528.695   120626816.449        3310.097          36.000  
G24  18487089.626    97150339.740       -1192.165          50.000  
E21  22316763.841   117275432.200        -359.918          46.000  
G28  24383003.111   128133522.406       -3374.779          34.000  
> 2020  1 16  2  6 54.3950000  0 39                     
E27  24790414.779   130274538.039       -2853.090          40.000  
E19  21912633.786   115151677.255        -474.419          41.000  
G32  23503659.612                        2084.994          29.000  
G15  19913959.605   104648555.681       -2322.971          47.000  
J 1  36608659.821   192379805.814          97.484          47.000  
G21  22158589.356   116444159.919       -2480.088          41.000  
C 9  36600209.603   190586871.056        -250.172          45.000  
C22  20469492.334   106589987.966       -1481.130          51.000  
C 7  38266322.709   199262786.700         872.320          37.000  
C 8  37651790.079   196062733.523       -2701.492          40.000  
C 6  35320630.501   183923784.822        -267.660          47.000  
C19  23666018.396   123235138.873       -3404.863          42.000  
R 8  21924407.838   117404218.943       -3814.969          45.000  
R11  18685350.683    99848931.309       -3088.460          48.000  
R18  22736711.783                       -2022.999          28.000  
R 2  18703180.009    99803787.528        1874.881          52.000  
R12  17769271.367    94920319.150         825.711          53.000  
G10  21017126.472   110445760.721        2311.152          46.000  
J 2  35631451.945   187244529.321        -984.520          45.000  
G13  22401455.283   117720385.566       -3074.353          42.000  
E20  18688818.670    98210388.848       -2183.612          38.000  
G12  20615572.521   108335629.368        2524.911          47.000  
E12  24443479.135   128451315.419       -2996.178          36.000  
C16  35564125.939   185191735.337        -252.552          49.000  
C13  36952307.567   192420337.210       -2484.211          45.000  
R 1  18647459.916    99681348.978       -2134.053          50.000  
R 3  22866237.154                3       3022.843          25.000  
R13  21348871.510   114001788.091        3589.834          34.000  
R10  21933763.765   117001608.283       -4767.452          40.000  
E 4  24319176.516   127798120.848        1422.426          44.000  
J 7  35716909.591   187693618.369        -578.053          40.000  
G20  18927202.621    99463116.807         366.013          47.000  
E 1  23821851.425   125184721.569        2082.006          44.000  
J 3  36414042.783   191357083.207        -575.954          34.000  
E11  26009387.254                       -1687.762          27.000  
G25  22954402.699   120626154.432        3310.298          36.000  
G24  18487134.974    97150578.137       -1192.138          50.000  
E21  22316777.446   117275504.138        -359.831          45.000  
G28  24383131.569   128134197.378       -3374.990          34.000  
> 2020  1 16  2  6 54.5950000  0 39                     
E27  24790523.325   130275108.638       -2852.992          40.000  
E19  21912651.738   115151772.099        -474.161          41.000  
G32  23503580.203                        2085.688          29.000  
G15  19914048.021   104649020.237       -2322.904          47.000  
J 1  36608656.198   192379786.269          97.673          47.000  
G21  22158683.761   116444655.833       -2479.819          41.000  
C 9  36600219.205   190586921.067        -250.086          45.000  
C22  20469549.187   106590284.136       -1480.996          51.000  
C 7  38266289.246   199262612.175         872.480          37.000  
C 8  37651893.810   196063273.663       -2700.639          40.000  
C 6  35320640.696   183923838.309        -267.503          47.000  
C19  23666149.133   123235819.761       -3404.515          42.000  
R 8  21924550.295   117404981.861       -3814.575          45.000  
R11  18685466.294    99849548.983       -3088.522          48.000  
R18  22736788.395                       -2023.383          29.000  
R 2  18703109.694    99803412.496        1875.084          52.000  
R12  17769240.451    94920153.969         825.814          53.000  
G10  21017038.581   110445298.451        2311.211          46.000  
J 2  35631489.378   187244726.149        -984.334          45.000  
G13  22401572.227   117721000.366       -3074.164          42.000  
E20  18688901.775    98210825.504       -2183.421          38.000  
G12  20615476.424   108335124.356        2524.940          47.000  
E12  24443593.216   128451914.636       -2996.093          36.000  
C16  35564135.564   185191785.792        -252.394          49.000  
C13  36952402.995   192420834.005       -2484.034          44.000  
R 1  18647539.734    99681775.770       -2134.079          50.000  
R 3  22866124.469                3       3024.002          25.000  
R13  21348737.036   114001070.082        3590.287          34.000  
R10  21933942.528   117002561.682       -4766.949          40.000  
E 4  24319122.273   127797836.321        1422.607          44.000  
J 7  35716931.606   187693733.947        -578.106          40.000  
G20  18927188.661    99463043.556         366.130          47.000  
E 1  23821772.210   125184305.152        2082.004          44.000  
J 3  36414064.652   191357198.211        -574.508          34.000  
E11  26009451.400                       -1687.375          27.000  
G25  22954276.714   120625492.323        3310.627          36.000  
G24  18487180.386    97150816.513       -1191.989          50.000  
E21  22316791.213   117275576.056        -359.719          45.000  
G28  24383260.024   128134872.288       -3374.258          34.000  
> 2020  1 16  2  6 54.7950000  0 39                     
E27  24790631.936   130275679.248       -2853.201          40.000  
E19  21912669.770   115151866.967        -474.370          41.000  
G32  23503500.869                        2085.232          29.000  
G15  19914136.443   104649484.793       -2322.948          47.000  
J 1  36608652.499   192379766.727          97.429          47.000  
G21  22158778.146   116445151.751       -2479.771          40.000  
C 9  36600228.781   190586971.054        -250.239          45.000  
C22  20469606.014   106590580.321       -1481.235          51.000  
C 7  38266255.719   199262437.662         872.696          37.000  
C 8  37651997.573   196063813.838       -2701.256          40.000  
C 6  35320650.920   183923891.793        -267.568          47.000  
C19  23666279.894   123236500.662       -3404.750          42.000  
R 8  21924692.790   117405744.801       -3815.013          45.000  
R11  18685581.893    99850166.671       -3088.734          48.000  
R18  22736865.362                       -2022.847          28.000  
R 2  18703039.430    99803037.482        1874.854          52.000  
R12  17769209.542    94919988.824         825.420          53.000  
G10  21016950.604   110444836.194        2311.092          46.000  
J 2  35631526.839   187244922.987        -984.445          45.000  
G13  22401689.210   117721615.160       -3074.005          42.000  
E20  18688984.932    98211262.176       -2183.674          38.000  
G12  20615380.315   108334619.346        2524.724          47.000  
E12  24443707.252   128452513.850       -2996.219          36.000  
C16  35564145.198   185191836.242        -252.524          49.000  
C13  36952498.424   192421330.803       -2484.219          45.000  
R 1  18647619.585    99682202.574       -2134.278          50.000  
R 3  22866012.069                3       3022.906          26.000  
R13  21348602.620   114000352.126        3589.307          35.000  
R10  21934121.241   117003515.107       -4767.455          40.000  
E 4  24319068.155   127797551.791        1422.532          44.000  
J 7  35716953.601   187693849.506        -578.031          40.000  
G20  18927174.703    99462970.327         365.866          47.000  
E 1  23821692.950   125183888.741        2081.854          44.000  
J 3  36414086.527   191357313.310        -575.237          34.000  
E11  26009515.450                       -1686.591          27.000  
G25  22954150.680   120624830.242        3310.061          37.000  
G24  18487225.773    97151054.913       -1192.284          50.000  
E21  22316804.829   117275647.998        -359.871          45.000  
G28  24383388.438   128135547.265       -3375.152          34.000  
> 2020  1 16  2  7  0.9950000  0 39                     
E27  24793999.067   130293372.033       -2854.733          40.000  
E19  21913229.951   115154809.822        -475.339          40.000  
G32  23501040.542                        2085.153          28.000  
G15  19916877.636   104663889.491       -2324.210          47.000  
J 1  36608536.638   192379159.054          97.888          47.000  
G21  22161704.218   116460528.712       -2480.839          40.000  
C 9  36600525.802   190588518.245        -249.412          45.000  
C22  20471370.690   106599768.680       -1483.528          51.000  
C 7  38265217.104   199257026.500         872.377          38.000  
C 8  37655213.107   196080557.756       -2700.714          40.000  
C 6  35320968.848   183925547.130        -267.009          47.000  
C19  23670334.629   123257610.755       -3405.649          41.000  
R 8  21929110.597   117429399.744       -3816.359          45.000  
R11  18689167.442    99869325.767       -3092.176          48.000  
R18  22739211.288                3      -2028.001          26.000  
R 2  18700861.590    99791415.766        1873.357          52.000  
R12  17768253.997    94914883.714         820.699          53.000  
G10  21014224.663   110430510.852        2309.369          47.000  
J 2  35632687.726   187251024.824        -984.582          45.000  
G13  22405315.856   117740674.237       -3074.176          39.000  
E20  18691561.262    98224800.650       -2184.644          38.000  
G12  20612402.170   108318969.231        2523.035          47.000  
E12  24447242.159   128471088.698       -2996.174          36.000  
C16  35564445.175   185193397.641        -251.778          49.000  
C13  36955455.912   192436731.800       -2484.454          44.000  
R 1  18650096.519    99695442.657       -2137.343          50.000  
R 3  22862512.668                1       3024.728          25.000  
R13  21344434.788   113978097.697        3588.373          34.000  
R10  21939661.902   117033071.702       -4767.591          39.000  
E 4  24317389.713   127788730.136        1422.593          44.000  
J 7  35717635.067   187697430.629        -578.210          40.000  
G20  18926744.838    99460711.046         362.254          47.000  
E 1  23819237.015   125170983.384        2080.547          45.000  
J 3  36414764.874   191360876.875        -573.900          34.000  
E11  26011507.480                       -1689.410          27.000  
G25  22950243.069   120604303.332        3310.496          36.000  
G24  18488633.328    97158452.979       -1194.807          50.000  
E21  22317230.713   117277886.024        -362.659          45.000  
G28  24387370.154   128156474.041       -3376.380          33.000  
> 2020  1 16  2  7  1.1950000  0 39                     
E27  24794107.719   130293942.964       -2854.661          40.000  
E19  21913247.987   115154904.899        -475.135          40.000  
G32  23500961.230                        2085.447          28.000  
G15  19916966.097   104664354.346       -2324.323          47.000  
J 1  36608532.841   192379139.485          97.806          47.000  
G21  22161798.659   116461024.914       -2480.773          40.000  
C 9  36600535.371   190588568.155        -249.369          45.000  
C22  20471427.674   106600065.371       -1483.469          51.000  
C 7  38265183.601   199256851.984         872.405          38.000  
C 8  37655316.829   196081097.939       -2701.030          40.000  
C 6  35320979.012   183925600.517        -266.768          47.000  
C19  23670465.425   123258291.884       -3405.684          41.000  
R 8  21929253.176   117430163.020       -3816.438          45.000  
R11  18689283.126    99869944.240       -3092.372          48.000  
R18  22739286.976                3      -2026.711          26.000  
R 2  18700791.377    99791041.099        1873.277          52.000  
R12  17768223.283    94914719.597         820.495          53.000  
G10  21014136.732   110430048.981        2309.216          47.000  
J 2  35632725.228   187251221.736        -984.598          45.000  
G13  22405432.827   117741289.145       -3074.573          39.000  
E20  18691644.340    98225237.506       -2184.448          38.000  
G12  20612306.162   108318464.639        2522.869          47.000  
E12  24447356.224   128471687.938       -2996.222          36.000  
C16  35564454.868   185193448.012        -251.890          49.000  
C13  36955551.399   192437228.696       -2484.498          44.000  
R 1  18650176.477    99695870.127       -2137.348          50.000  
R 3  22862398.826                3       3024.441          25.000  
R13  21344300.440   113977379.995        3588.748          34.000  
R10  21939840.658   117034025.275       -4767.743          39.000  
E 4  24317335.550   127788445.610        1422.545          44.000  
J 7  35717657.067   187697546.173        -577.938          40.000  
G20  18926731.057    99460638.598         362.262          47.000  
E 1  23819157.823   125170567.270        2080.622          45.000  
J 3  36414786.765   191360991.877        -575.114          34.000  
E11  26011571.845                       -1690.065          27.000  
G25  22950117.028   120603641.191        3310.363          36.000  
G24  18488678.832    97158691.963       -1194.885          50.000  
E21  22317244.476   117277958.557        -362.757          45.000  
G28  24387498.623   128157149.297       -3376.748          32.000  
> 2020  1 16  2  7  1.3950000  0 39                     
E27  24794216.359   130294513.896       -2854.685          40.000  
E19  21913266.065   115154999.986        -475.589          40.000  
G32  23500881.837                        2085.892          28.000  
G15  19917054.570   104664819.187       -2324.265          47.000  
J 1  36608529.124   192379119.877          97.996          47.000  
G21  22161893.093   116461521.114       -2480.939          41.000  
C 9  36600544.963   190588618.031        -249.422          45.000  
C22  20471484.674   106600362.055       -1483.444          51.000  
C 7  38265150.101   199256677.422         872.899          38.000  
C 8  37655420.523   196081638.095       -2701.186          40.000  
C 6  35320989.242   183925653.893        -266.912          47.000  
C19  23670596.239   123258972.990       -3405.864          41.000  
R 8  21929395.759   117430926.266       -3816.285          45.000  
R11  18689398.839    99870562.697       -3092.473          48.000  
R18  22739363.045                3      -2028.382          26.000  
R 2  18700721.184    99790666.411        1873.356          52.000  
R12  17768192.532    94914555.477         820.430          53.000  
G10  21014048.811   110429587.088        2309.403          47.000  
J 2  35632762.694   187251418.628        -984.593          45.000  
G13  22405549.822   117741904.003       -3074.341          39.000  
E20  18691727.432    98225674.341       -2183.917          38.000  
G12  20612210.136   108317960.031        2522.916          47.000  
E12  24447470.293   128472287.147       -2995.944          36.000  
C16  35564464.540   185193498.342        -251.728          49.000  
C13  36955646.834   192437725.568       -2484.425          44.000  
R 1  18650256.393    99696297.593       -2137.311          50.000  
R 3  22862285.345                3       3024.513          25.000  
R13  21344166.060   113976662.270        3589.075          34.000  
R10  21940019.400   117034978.797       -4767.708          38.000  
E 4  24317281.310   127788161.044        1422.794          44.000  
J 7  35717679.036   187697661.682        -577.521          40.000  
G20  18926717.268    99460566.147         362.089          47.000  
E 1  23819078.566   125170151.139        2080.674          45.000  
J 3  36414808.589   191361106.741        -574.457          34.000  
E11  26011636.137                       -1689.507          26.000  
G25  22949990.965   120602978.989        3310.685          36.000  
G24  18488724.346    97158930.936       -1194.956          50.000  
E21  22317258.277   117278031.076        -362.701          45.000  
G28  24387627.065   128157824.538       -3376.578          33.000  
> 2020  1 16  2  7  1.5950000  0 39                     
E27  24794325.000   130295084.866       -2855.118          40.000  
E19  21913284.114   115155095.062        -475.388          40.000  
G32  23500802.485                        2085.366          28.000  
G15  19917143.067   104665284.066       -2324.454          47.000  
J 1  36608525.442   192379100.307          97.833          47.000  
G21  22161987.561   116462017.328       -2480.882          41.000  
C 9  36600554.564   190588667.934        -249.430          45.000  
C22  20471541.560   106600658.793       -1483.867          51.000  
C 7  38265116.586   199256502.921         872.490          38.000  
C 8  37655524.225   196082178.248       -2701.033          40.000  
C 6  35320999.476   183925707.280        -266.984          47.000  
C19  23670727.019   123259654.111       -3405.726          41.000  
R 8  21929538.319   117431689.562       -3816.659          45.000  
R11  18689514.608    99871181.211       -3092.740          48.000  
R18  22739439.516                3      -2028.367          26.000  
R 2  18700651.005    99790291.770        1873.112          52.000  
R12  17768161.777    94914391.422         820.109          53.000  
G10  21013960.951   110429125.249        2309.161          47.000  
J 2  35632800.134   187251615.547        -984.606          45.000  
G13  22405666.838   117742518.901       -3074.481          39.000  
E20  18691810.499    98226111.217       -2184.213          38.000  
G12  20612114.124   108317455.469        2522.522          47.000  
E12  24447584.337   128472886.412       -2996.272          36.000  
C16  35564474.203   185193548.698        -251.710          49.000  
C13  36955742.311   192438222.472       -2484.607          44.000  
R 1  18650336.371    99696725.121       -2137.802          50.000  
R 3  22862171.321                3       3025.403          25.000  
R13  21344031.661   113975944.649        3587.646          34.000  
R10  21940198.150   117035932.358       -4767.841          38.000  
E 4  24317227.118   127787876.521        1422.635          44.000  
J 7  35717701.036   187697777.242        -578.302          40.000  
G20  18926703.459    99460493.748         361.833          47.000  
E 1  23818999.528   125169735.058        2080.364          45.000  
J 3  36414830.432   191361221.701        -574.753          34.000  
E11  26011700.490                       -1690.135          26.000  
G25  22949864.924   120602316.821        3310.869          36.000  
G24  18488769.824    97159169.954       -1195.181          50.000  
E21  22317272.047   117278103.645        -363.016          45.000  
G28  24387755.570   128158499.792       -3376.079          33.000  
> 2020  1 16  2  7  1.7950000  0 39                     
E27  24794433.639   130295655.774       -2854.587          40.000  
E19  21913302.192   115155190.124        -475.253          40.000  
G32  23500723.123                        2086.033          28.000  
G15  19917231.538   104665748.905       -2324.312          47.000  
J 1  36608521.711   192379080.679          97.913          47.000  
G21  22162081.948   116462513.520       -2480.647          41.000  
C 9  36600564.080   190588717.782        -249.350          45.000  
C22  20471598.484   106600955.478       -1483.614          51.000  
C 7  38265083.073   199256328.356         872.506          38.000  
C 8  37655627.960   196082718.348       -2700.479          40.000  
C 6  35321009.703   183925760.619        -266.765          47.000  
C19  23670857.789   123260335.210       -3405.457          41.000  
R 8  21929680.845   117432452.805       -3816.385          45.000  
R11  18689630.316    99871799.689       -3092.501          48.000  
R18  22739516.046                3      -2026.909          26.000  
R 2  18700580.775    99789917.082        1873.244          52.000  
R12  17768131.037    94914227.345         820.088          53.000  
G10  21013873.093   110428663.358        2309.224          47.000  
J 2  35632837.639   187251812.413        -984.523          45.000  
G13  22405783.816   117743133.750       -3074.463          39.000  
E20  18691893.705    98226548.045       -2183.800          38.000  
G12  20612018.088   108316950.853        2522.839          47.000  
E12  24447698.341   128473485.608       -2996.260          36.000  
C16  35564483.886   185193599.012        -251.681          49.000  
C13  36955837.753   192438719.332       -2484.443          44.000  
R 1  18650416.305    99697152.599       -2137.665          50.000  
R 3  22862057.805                3       3026.349          25.000  
R13  21343897.301   113975226.903        3588.320          34.000  
R10  21940376.884   117036885.878       -4767.708          38.000  
E 4  24317172.924   127787591.942        1422.870          44.000  
J 7  35717722.983   187697892.716        -577.376          40.000  
G20  18926689.711    99460421.315         362.003          47.000  
E 1  23818920.332   125169318.924        2080.532          45.000  
J 3  36414852.333   191361336.578        -574.861          34.000  
E11  26011764.585                       -1689.437          27.000  
G25  22949738.909   120601654.616        3310.923          36.000  
G24  18488815.329    97159408.940       -1195.162          50.000  
E21  22317285.829   117278176.167        -362.655          45.000  
G28  24387884.064   128159175.031       -3375.801          33.000  
> 2020  1 16  2  7  1.9950000  0 39                     
E27  24794542.304   130296226.739       -2854.767          40.000  
E19  21913320.308   115155285.213        -475.353          40.000  
G32  23500643.788                        2085.953          29.000  
G15  19917319.962   104666213.772       -2324.301          47.000  
J 1  36608517.985   192379061.066          98.084          47.000  
G21  22162176.383   116463009.739       -2481.010          41.000  
C 9  36600573.697   190588767.647        -249.260          45.000  
C22  20471655.510   106601252.208       -1483.648          51.000  
C 7  38265049.567   199256153.786         873.055          38.000  
C 8  37655731.683   196083258.499       -2700.338          40.000  
C 6  35321019.972   183925813.975        -266.739          47.000  
C19  23670988.649   123261016.339       -3405.623          41.000  
R 8  21929823.414   117433216.096       -3816.388          45.000  
R11  18689746.098    99872418.225       -3092.669          48.000  
R18  22739592.046                3      -2027.104          26.000  
R 2  18700510.594    99789542.426        1873.304          52.000  
R12  17768100.315    94914063.318         820.132          53.000  
G10  21013785.255   110428201.506        2309.366          47.000  
J 2  35632875.066   187252009.308        -984.406          45.000  
G13  22405900.761   117743748.612       -3074.182          39.000  
E20  18691976.897    98226984.924       -2184.033          38.000  
G12  20611922.028   108316446.282        2522.960          47.000  
E12  24447812.409   128474084.817       -2996.095          36.000  
C16  35564493.538   185193649.344        -251.641          49.000  
C13  36955933.174   192439216.222       -2484.492          44.000  
R 1  18650496.269    99697580.123       -2137.578          50.000  
R 3  22861944.288                3       3025.261          25.000  
R13  21343762.952   113974509.230        3588.795          34.000  
R10  21940555.604   117037839.405       -4767.578          38.000  
E 4  24317118.805   127787307.391        1422.757          44.000  
J 7  35717745.004   187698008.246        -577.493          40.000  
G20  18926675.920    99460348.933         362.007          47.000  
E 1  23818841.062   125168902.821        2080.571          45.000  
J 3  36414874.188   191361451.443        -574.100          34.000  
E11  26011829.050                       -1690.080          27.000  
G25  22949612.877   120600992.444        3311.083          36.000  
G24  18488860.801    97159647.961       -1195.124          50.000  
E21  22317299.749   117278248.757        -362.911          45.000  
G28  24388012.538   128159850.334       -3376.945          33.000  
> 2020  1 16  2  7  2.1950000  0 39                     
E27  24794650.984   130296797.739       -2855.238          40.000  
E19  21913338.413   115155380.335        -475.640          40.000  
G32  23500564.483                        2085.631          28.000  
G15  19917408.449   104666678.678       -2324.534          47.000  
J 1  36608514.178   192379041.495          97.839          47.000  
G21  22162270.795   116463505.994       -2481.354          41.000  
C 9  36600583.348   190588817.543        -249.524          45.000  
C22  20471712.555   106601548.988       -1483.945          51.000  
C 7  38265016.091   199255979.290         872.353          38.000  
C 8  37655835.442   196083798.682       -2700.953          40.000  
C 6  35321030.147   183925867.356        -266.858          47.000  
C19  23671119.429   123261697.505       -3406.023          41.000  
R 8  21929965.953   117433979.423       -3816.564          45.000  
R11  18689861.848    99873036.813       -3093.044          48.000  
R18  22739667.389                3      -2027.538          26.000  
R 2  18700440.385    99789167.822        1872.998          52.000  
R12  17768069.604    94913899.361         819.654          53.000  
G10  21013697.341   110427739.711        2308.980          47.000  
J 2  35632912.592   187252206.238        -984.615          45.000  
G13  22406017.763   117744363.530       -3074.701          39.000  
E20  18692060.021    98227421.818       -2184.186          38.000  
G12  20611826.042   108315941.769        2522.581          48.000  
E12  24447926.466   128474684.055       -2996.186          36.000  
C16  35564503.203   185193699.707        -251.968          49.000  
C13  36956028.591   192439713.138       -2484.750          44.000  
R 1  18650576.244    99698007.710       -2138.009          50.000  
R 3  22861830.815                3       3024.115          25.000  
R13  21343628.560   113973791.561        3588.225          34.000  
R10  21940734.297   117038792.988       -4768.006          38.000  
E 4  24317064.696   127787022.867        1422.530          44.000  
J 7  35717767.004   187698123.782        -577.597          40.000  
G20  18926662.134    99460276.610         361.565          47.000  
E 1  23818761.932   125168486.771        2080.093          45.000  
J 3  36414896.086   191361566.420        -574.990          34.000  
E11  26011893.387                       -1689.909          27.000  
G25  22949486.897   120600330.266        3310.760          36.000  
G24  18488906.320    97159887.043       -1195.492          50.000  
E21  22317313.578   117278321.387        -363.405          45.000  
G28  24388141.086   128160525.640       -3376.925          33.000  
> 2020  1 16  2  7  2.3950000  0 39                     
E27  24794759.630   130297368.754       -2854.809          40.000  
E19  21913356.495   115155475.478        -475.452          40.000  
G32  23500485.172                        2085.477          29.000  
G15  19917496.945   104667143.613       -2324.431          47.000  
J 1  36608510.492   192379021.927          98.095          47.000  
G21  22162365.261   116464002.266       -2481.323          41.000  
C 9  36600592.910   190588867.445        -249.231          45.000  
C22  20471769.567   106601845.794       -1483.817          51.000  
C 7  38264982.626   199255804.780         872.598          38.000  
C 8  37655939.180   196084338.850       -2700.495          40.000  
C 6  35321040.455   183925920.754        -266.748          47.000  
C19  23671250.290   123262378.666       -3405.425          41.000  
R 8  21930108.497   117434742.775       -3816.532          45.000  
R11  18689977.610    99873655.434       -3092.897          48.000  
R18  22739743.623                3      -2027.973          26.000  
R 2  18700370.202    99788793.236        1873.099          52.000  
R12  17768038.896    94913735.437         819.771          53.000  
G10  21013609.456   110427277.922        2309.032          47.000  
J 2  35632950.114   187252403.184        -984.574          45.000  
G13  22406134.765   117744978.439       -3074.341          39.000  
E20  18692143.249    98227858.758       -2184.339          38.000  
G12  20611730.105   108315437.257        2522.691          48.000  
E12  24448040.567   128475283.343       -2996.364          36.000  
C16  35564512.822   185193750.064        -251.561          49.000  
C13  36956124.034   192440210.067       -2484.440          44.000  
R 1  18650656.218    99698435.320       -2137.781          50.000  
R 3  22861717.830                3       3024.781          25.000  
R13  21343494.154   113973073.967        3588.334          34.000  
R10  21940913.036   117039746.590       -4768.055          38.000  
E 4  24317010.506   127786738.356        1422.768          44.000  
J 7  35717788.990   187698239.337        -576.865          40.000  
G20  18926648.336    99460204.323         361.685          47.000  
E 1  23818682.750   125168070.722        2080.519          45.000  
J 3  36414918.010   191361681.340        -575.201          34.000  
E11  26011957.654                       -1690.717          27.000  
G25  22949360.870   120599668.121        3311.121          36.000  
G24  18488951.794    97160126.151       -1195.304          50.000  
E21  22317327.239   117278394.035        -363.121          45.000  
G28  24388269.610   128161200.962       -3376.592          33.000  
> 2020  1 16  2  7  2.5950000  0 39                     
E27  24794868.362   130297939.750       -2854.998          40.000  
E19  21913374.687   115155570.600        -475.824          40.000  
G32  23500405.832                        2086.557          29.000  
G15  19917585.416   104667608.524       -2324.741          47.000  
J 1  36608506.854   192379002.336          97.830          47.000  
G21  22162459.692   116464498.511       -2481.171          41.000  
C 9  36600602.501   190588917.319        -249.435          45.000  
C22  20471826.454   106602142.590       -1484.157          51.000  
C 7  38264949.153   199255630.251         872.405          38.000  
C 8  37656042.925   196084879.020       -2700.667          40.000  
C 6  35321050.651   183925974.111        -266.873          47.000  
C19  23671381.092   123263059.850       -3406.122          41.000  
R 8  21930251.030   117435506.110       -3816.817          45.000  
R11  18690093.416    99874274.049       -3093.104          48.000  
R18  22739820.100                3      -2027.822          26.000  
R 2  18700300.018    99788418.631        1872.828          52.000  
R12  17768008.257    94913571.524         819.399          53.000  
G10  21013521.597   110426816.127        2308.779          47.000  
J 2  35632987.601   187252600.096        -984.643          45.000  
G13  22406251.771   117745593.335       -3074.646          39.000  
E20  18692226.359    98228295.657       -2184.433          38.000  
G12  20611634.067   108314932.744        2522.393          48.000  
E12  24448154.606   128475882.557       -2996.188          36.000  
C16  35564522.483   185193800.405        -251.911          49.000  
C13  36956219.424   192440706.970       -2484.658          44.000  
R 1  18650736.257    99698862.931       -2138.268          50.000  
R 3  22861605.285                3       3026.537          25.000  
R13  21343359.740   113972356.323        3587.931          34.000  
R10  21941091.828   117040700.150       -4768.150          38.000  
E 4  24316956.481   127786453.807        1422.691          44.000  
J 7  35717810.997   187698354.891        -577.977          40.000  
G20  18926634.554    99460132.027         361.426          47.000  
E 1  23818603.645   125167654.668        2080.233          45.000  
J 3  36414939.824   191361796.187        -573.918          34.000  
E11  26012022.164                       -1689.803          27.000  
G25  22949234.862   120599005.946        3310.892          36.000  
G24  18488997.294    97160365.247       -1195.622          50.000  
E21  22317341.266   117278466.679        -363.381          45.000  
G28  24388398.143   128161876.255       -3376.421          33.000  
> 2020  1 16  2  7  2.7950000  0 39                     
E27  24794976.978   130298510.766       -2855.351          40.000  
E19  21913392.816   115155665.735        -476.031          40.000  
G32  23500326.484                        2085.546          29.000  
G15  19917673.916   104668073.437       -2324.696          47.000  
J 1  36608503.143   192378982.731          97.946          47.000  
G21  22162554.107   116464994.786       -2481.434          41.000  
C 9  36600612.048   190588967.183        -249.411          45.000  
C22  20471883.449   106602439.392       -1484.169          51.000  
C 7  38264915.643   199255455.721         872.350          38.000  
C 8  37656146.745   196085419.183       -2700.910          40.000  
C 6  35321060.944   183926027.466        -266.893          47.000  
C19  23671511.872   123263741.001       -3405.912          41.000  
R 8  21930393.564   117436269.434       -3816.670          45.000  
R11  18690209.173    99874892.691       -3093.345          48.000  
R18  22739896.550                3      -2027.940          26.000  
R 2  18700229.821    99788044.033        1872.848          52.000  
R12  17767977.565    94913407.631         819.218          53.000  
G10  21013433.700   110426354.330        2308.869          47.000  
J 2  35633025.058   187252797.010        -984.549          45.000  
G13  22406368.737   117746208.228       -3074.591          39.000  
E20  18692309.506    98228732.553       -2184.393          38.000  
G12  20611538.069   108314428.229        2522.501          48.000  
E12  24448268.664   128476481.792       -2996.276          36.000  
C16  35564532.121   185193850.728        -251.696          49.000  
C13  36956314.833   192441203.871       -2484.633          44.000  
R 1  18650816.255    99699290.554       -2138.317          50.000  
R 3  22861491.604                3       3026.125          25.000  
R13  21343225.425   113971638.682        3587.837          34.000  
R10  21941270.556   117041653.705       -4768.037          38.000  
E 4  24316902.327   127786169.268        1422.688          44.000  
J 7  35717832.978   187698470.390        -577.605          40.000  
G20  18926620.837    99460059.760         361.050          47.000  
E 1  23818524.477   125167238.621        2080.115          45.000  
J 3  36414961.666   191361911.122        -574.462          34.000  
E11  26012086.570                       -1690.568          27.000  
G25  22949108.832   120598343.762        3310.621          36.000  
G24  18489042.784    97160604.353       -1195.647          50.000  
E21  22317354.974   117278539.329        -363.303          45.000  
G28  24388526.658   128162551.601       -3377.084          33.000  
> 2020  1 16  2  7  2.9950000  0 39                     
E27  24795085.720   130299081.773       -2855.052          40.000  
E19  21913410.907   115155760.827        -475.331          40.000  
G32  23500247.173                        2085.643          29.000  
G15  19917762.397   104668538.359       -2324.504          47.000  
J 1  36608499.384   192378963.127          98.122          47.000  
G21  22162648.529   116465491.054       -2481.650          41.000  
C 9  36600621.610   190589017.038        -248.993          45.000  
C22  20471940.433   106602736.209       -1483.998          51.000  
C 7  38264882.128   199255281.165         872.952          38.000  
C 8  37656250.452   196085959.338       -2700.736          40.000  
C 6  35321071.210   183926080.815        -266.673          47.000  
C19  23671642.660   123264422.160       -3405.718          41.000  
R 8  21930536.091   117437032.786       -3816.644          45.000  
R11  18690324.930    99875511.337       -3093.226          48.000  
R18  22739972.904                3      -2027.768          26.000  
R 2  18700159.614    99787669.438        1872.960          52.000  
R12  17767946.889    94913243.764         819.341          53.000  
G10  21013345.812   110425892.541        2308.977          47.000  
J 2  35633062.577   187252993.926        -984.482          45.000  
G13  22406485.737   117746823.104       -3074.371          39.000  
E20  18692392.609    98229169.448       -2184.224          38.000  
G12  20611442.091   108313923.734        2522.671          48.000  
E12  24448382.732   128477081.032       -2996.178          36.000  
C16  35564541.782   185193901.047        -251.537          49.000  
C13  36956410.234   192441700.765       -2484.362          44.000  
R 1  18650896.329    99699718.191       -2138.203          50.000  
R 3  22861378.199                3       3025.790          25.000  
R13  21343091.091   113970921.060        3588.478          34.000  
R10  21941449.282   117042607.259       -4767.490          38.000  
E 4  24316848.188   127785884.718        1422.755          44.000  
J 7  35717854.985   187698585.926        -577.186          39.000  
G20  18926607.088    99459987.501         361.341          47.000  
E 1  23818445.208   125166822.578        2080.181          45.000  
J 3  36414983.537   191362025.982        -574.291          34.000  
E11  26012151.019                       -1689.568          27.000  
G25  22948982.848   120597681.601        3310.625          36.000  
G24  18489088.251    97160843.476       -1195.499          50.000  
E21  22317368.775   117278612.015        -363.406          45.000  
G28  24388655.181   128163226.914       -3376.566          32.000  
> 2020  1 16  2  7  3.1950000  0 39                     
E27  24795194.400   130299652.837       -2855.408          40.000  
E19  21913429.125   115155856.018        -475.770          40.000  
G32  23500167.824                        2085.480          28.000  
G15  19917850.935   104669003.327       -2324.979          47.000  
J 1  36608495.564   192378943.558          97.801          47.000  
G21  22162742.988   116465987.348       -2481.687          41.000  
C 9  36600631.188   190589066.929        -249.426          45.000  
C22  20471997.381   106603033.074       -1484.376          51.000  
C 7  38264848.633   199255106.658         872.498          38.000  
C 8  37656354.220   196086499.519       -2700.815          40.000  
C 6  35321081.458   183926134.186        -266.970          47.000  
C19  23671773.470   123265103.367       -3406.125          41.000  
R 8  21930678.671   117437796.178       -3816.988          45.000  
R11  18690440.701    99876130.049       -3093.606          49.000  
R18  22740049.107                3      -2029.597          26.000  
R 2  18700089.397    99787294.890        1872.691          52.000  
R12  17767916.246    94913079.967         818.806          53.000  
G10  21013257.964   110425430.807        2308.523          47.000  
J 2  35633100.048   187253190.874        -984.839          45.000  
G13  22406602.740   117747438.028       -3074.518          39.000  
E20  18692475.784    98229606.418       -2185.140          38.000  
G12  20611346.112   108313419.288        2522.268          48.000  
E12  24448496.756   128477680.281       -2996.281          36.000  
C16  35564551.435   185193951.398        -251.787          49.000  
C13  36956505.688   192442197.707       -2484.816          44.000  
R 1  18650976.344    99700145.882       -2138.502          50.000  
R 3  22861264.813                3       3026.491          25.000  
R13  21342956.731   113970203.491        3587.310          34.000  
R10  21941628.068   117043560.873       -4768.091          38.000  
E 4  24316794.009   127785600.201        1422.472          44.000  
J 7  35717876.953   187698701.486        -578.046          39.000  
G20  18926593.373    99459915.309         360.956          47.000  
E 1  23818366.097   125166406.567        2079.958          45.000  
J 3  36415005.428   191362140.911        -574.130          34.000  
E11  26012215.731                       -1690.320          26.000  
G25  22948856.813   120597019.417        3310.758          36.000  
G24  18489133.786    97161082.652       -1195.944          50.000  
E21  22317382.652   117278684.737        -363.765          45.000  
G28  24388783.666   128163902.292       -3377.396          32.000  
> 2020  1 16  2  7  3.3950000  0 39                     
E27  24795303.142   130300223.896       -2855.382          40.000  
E19  21913447.236   115155951.187        -476.044          40.000  
G32  23500088.567                        2085.676          28.000  
G15  19917939.408   104669468.294       -2324.852          47.000  
J 1  36608491.831   192378923.978          97.862          47.000  
G21  22162837.408   116466483.663       -2481.641          41.000  
C 9  36600640.719   190589116.821        -249.520          45.000  
C22  20472054.428   106603329.954       -1484.337          51.000  
C 7  38264815.196   199254932.142         873.038          38.000  
C 8  37656457.962   196087039.711       -2700.928          40.000  
C 6  35321091.635   183926187.551        -266.713          47.000  
C19  23671904.302   123265784.584       -3405.976          41.000  
R 8  21930821.172   117438559.577       -3816.918          44.000  
R11  18690556.489    99876748.778       -3093.666          48.000  
R18  22740125.464                3      -2027.080          26.000  
R 2  18700019.213    99786920.353        1872.624          52.000  
R12  17767885.595    94912916.189         818.818          53.000  
G10  21013170.088   110424969.079        2308.806          47.000  
J 2  35633137.526   187253387.823        -984.644          45.000  
G13  22406719.787   117748052.955       -3074.677          39.000  
E20  18692558.838    98230043.348       -2184.828          38.000  
G12  20611250.155   108312914.848        2522.142          48.000  
E12  24448610.798   128478279.521       -2995.973          36.000  
C16  35564561.078   185194001.740        -251.586          49.000  
C13  36956601.117   192442694.640       -2484.737          44.000  
R 1  18651056.332    99700573.595       -2138.664          50.000  
R 3  22861151.090                3       3026.033          25.000  
R13  21342822.284   113969485.905        3587.241          34.000  
R10  21941806.799   117044514.476       -4768.333          38.000  
E 4  24316739.845   127785315.680        1422.616          44.000  
J 7  35717898.914   187698817.037        -577.693          39.000  
G20  18926579.647    99459843.133         360.820          47.000  
E 1  23818287.030   125165990.569        2079.963          45.000  
J 3  36415027.318   191362255.864        -575.560          34.000  
E11  26012280.129                       -1690.284          26.000  
G25  22948730.828   120596357.238        3310.688          36.000  
G24  18489179.295    97161321.839       -1195.924          50.000  
E21  22317396.427   117278757.476        -363.676          45.000  
G28  24388912.146   128164577.625       -3376.350          32.000  
> 2020  1 16  2  7  3.5950000  0 39                     
E27  24795411.788   130300794.967       -2855.127          40.000  
E19  21913465.356   115156046.377        -476.027          40.000  
G32  23500009.143                        2085.679          28.000  
G15  19918027.950   104669933.290       -2324.916          47.000  
J 1  36608488.219   192378904.413          98.058          47.000  
G21  22162931.852   116466979.979       -2481.359          41.000  
C 9  36600650.367   190589166.701        -249.233          45.000  
C22  20472111.446   106603626.861       -1484.435          51.000  
C 7  38264781.696   199254757.667         872.363          38.000  
C 8  37656561.655   196087579.907       -2700.811          40.000  
C 6  35321101.891   183926240.938        -266.780          47.000  
C19  23672035.168   123266465.794       -3405.870          41.000  
R 8  21930963.687   117439323.010       -3817.121          44.000  
R11  18690672.266    99877367.544       -3093.766          48.000  
R18  22740201.639                3      -2028.268          26.000  
R 2  18699948.985    99786545.827        1872.757          52.000  
R12  17767854.940    94912752.456         818.774          53.000  
G10  21013082.224   110424507.375        2308.623          47.000  
J 2  35633174.971   187253584.788        -984.730          45.000  
G13  22406836.823   117748667.896       -3074.493          39.000  
E20  18692642.036    98230480.301       -2184.878          38.000  
G12  20611154.125   108312410.424        2522.329          48.000  
E12  24448724.867   128478878.837       -2996.466          36.000  
C16  35564570.784   185194052.098        -251.579          49.000  
C13  36956696.593   192443191.586       -2484.569          44.000  
R 1  18651136.366    99701001.341       -2138.621          50.000  
R 3  22861037.755                3       3024.928          25.000  
R13  21342687.938   113968768.335        3587.615          34.000  
R10  21941985.576   117045468.081       -4767.820          38.000  
E 4  24316685.676   127785031.185        1422.578          44.000  
J 7  35717920.867   187698932.602        -577.570          39.000  
G20  18926565.930    99459770.997         360.786          47.000  
E 1  23818207.954   125165574.592        2080.010          45.000  
J 3  36415049.203   191362370.697        -574.173          34.000  
E11  26012344.644                       -1690.579          26.000  
G25  22948604.826   120595695.097        3310.815          36.000  
G24  18489224.855    97161561.058       -1195.955          50.000  
E21  22317410.331   117278830.255        -363.835          45.000  
G28  24389040.643   128165253.047       -3376.533          32.000  
> 2020  1 16  2  7  9.5950000  0 38                     
E27  24798672.309   130317929.274       -2856.294          41.000  
E19  21914008.902   115158902.133        -476.542          41.000  
G15  19920682.643   104683884.226       -2325.894          47.000  
J 1  36608375.747   192378313.874          98.585          47.000  
G21  22165765.530   116481870.685       -2482.343          41.000  
C 9  36600936.702   190590659.041        -248.549          45.000  
C22  20473822.736   106612538.363       -1486.413          51.000  
C 7  38263775.789   199249519.389         873.208          39.000  
C 8  37659673.158   196103782.690       -2700.319          40.000  
C 6  35321408.613   183927837.888        -265.917          47.000  
C19  23675959.743   123286902.704       -3406.605          42.000  
R 8  21935240.402   117462227.301       -3818.030          45.000  
R11  18694147.491    99895938.566       -3096.802          48.000  
R18  22742481.301                3      -2031.516          20.000  
R 2  18697843.941    99775311.794        1871.637          52.000  
R12  17766937.714    94907852.344         814.421          53.000  
G10  21010447.085   110410658.737        2307.282          47.000  
J 2  35634298.974   187259491.662        -984.477          45.000  
G13  22410347.028   117767113.988       -3074.506          40.000  
E20  18695136.457    98243588.952       -2185.467          38.000  
G12  20608275.049   108297280.789        2520.735          48.000  
E12  24452145.705   128496854.192       -2996.117          36.000  
C16  35564859.989   185195558.362        -250.808          49.000  
C13  36959559.202   192458098.454       -2484.681          44.000  
R 1  18653538.104    99713840.223       -2141.341          50.000  
R 3  22857639.392                3       3025.484          25.000  
R13  21338656.868   113947243.020        3586.935          34.000  
R10  21947348.308   117074075.304       -4767.894          39.000  
E 4  24315060.766   127776492.822        1423.073          44.000  
J 7  35718580.158   187702395.994        -577.229          39.000  
G20  18926155.433    99457615.030         357.728          47.000  
E 1  23815833.033   125153096.536        2078.878          45.000  
J 3  36415704.484   191365813.393        -574.038          34.000  
E11  26014279.817                3      -1693.166          27.000  
G25  22944824.609   120575826.360        3311.848          38.000  
G24  18490591.557    97168742.894       -1198.199          50.000  
E21  22317826.721   117281018.820        -366.146          46.000  
G28  24392896.405   128185516.355       -3377.657          34.000  
> 2020  1 16  2  7  9.7950000  0 38                     
E27  24798780.948   130318500.577       -2856.738          41.000  
E19  21914027.040   115158997.412        -476.874          41.000  
G15  19920771.121   104684349.388       -2326.344          47.000  
J 1  36608372.005   192378294.162          98.097          47.000  
G21  22165860.041   116482367.164       -2482.823          41.000  
C 9  36600946.203   190590708.733        -248.912          45.000  
C22  20473879.791   106612835.653       -1486.894          51.000  
C 7  38263742.236   199249344.775         872.724          39.000  
C 8  37659776.831   196104322.781       -2700.758          40.000  
C 6  35321418.887   183927891.068        -266.350          47.000  
C19  23676090.572   123287584.030       -3407.141          42.000  
R 8  21935383.040   117462990.933       -3818.436          45.000  
R11  18694263.399    99896557.957       -3097.385          48.000  
R18  22742557.595                3      -2026.881          20.000  
R 2  18697773.793    99774937.485        1871.121          52.000  
R12  17766907.246    94907689.495         813.773          53.000  
G10  21010359.328   110410197.294        2306.761          47.000  
J 2  35634336.477   187259688.586        -984.931          45.000  
G13  22410464.065   117767728.881       -3074.902          40.000  
E20  18695219.570    98244025.985       -2185.657          38.000  
G12  20608179.111   108296776.661        2520.153          48.000  
E12  24452259.680   128497453.363       -2996.294          36.000  
C16  35564869.667   185195608.522        -251.242          49.000  
C13  36959654.640   192458595.386       -2485.118          44.000  
R 1  18653618.231    99714268.496       -2141.869          50.000  
R 3  22857526.329                3       3025.968          25.000  
R13  21338522.521   113946525.646        3586.419          34.000  
R10  21947527.043   117075028.929       -4768.708          39.000  
E 4  24315006.730   127776208.191        1422.894          44.000  
J 7  35718602.132   187702511.418        -577.798          39.000  
G20  18926141.868    99457543.536         357.057          47.000  
E 1  23815753.945   125152680.732        2078.675          45.000  
J 3  36415726.295   191365928.060        -573.867          34.000  
E11  26014343.706                3      -1692.204          26.000  
G25  22944698.607   120575164.034        3311.077          38.000  
G24  18490637.175    97168982.554       -1198.733          50.000  
E21  22317840.729   117281092.042        -366.515          46.000  
G28  24393024.965   128186191.956       -3378.579          34.000  
> 2020  1 16  2  7  9.9950000  0 38                     
E27  24798889.628   130319071.871       -2856.466          41.000  
E19  21914045.184   115159092.686        -476.046          41.000  
G15  19920859.640   104684814.539       -2325.713          47.000  
J 1  36608368.233   192378274.436          98.700          47.000  
G21  22165954.537   116482863.644       -2482.503          41.000  
C 9  36600955.813   190590758.398        -248.179          45.000  
C22  20473936.884   106613132.939       -1486.409          51.000  
C 7  38263708.716   199249170.146         873.203          39.000  
C 8  37659880.482   196104862.845       -2700.291          40.000  
C 6  35321429.077   183927944.222        -265.642          47.000  
C19  23676221.396   123288265.353       -3406.675          42.000  
R 8  21935525.654   117463754.557       -3818.048          45.000  
R11  18694379.321    99897177.356       -3096.948          48.000  
R18  22742633.937                3      -2031.224          20.000  
R 2  18697703.652    99774563.169        1871.588          52.000  
R12  17766876.757    94907526.658         814.222          53.000  
G10  21010271.531   110409735.844        2307.303          47.000  
J 2  35634373.936   187259885.502        -984.585          45.000  
G13  22410581.044   117768343.768       -3074.298          40.000  
E20  18695302.741    98244463.025       -2185.129          37.000  
G12  20608083.175   108296272.523        2520.722          48.000  
E12  24452373.666   128498052.504       -2995.338          36.000  
C16  35564879.271   185195658.658        -250.674          49.000  
C13  36959750.059   192459092.298       -2484.528          44.000  
R 1  18653698.338    99714696.773       -2141.327          50.000  
R 3  22857412.730                3       3027.084          25.000  
R13  21338388.111   113945808.296        3586.569          34.000  
R10  21947705.811   117075982.529       -4767.846          39.000  
E 4  24314952.481   127775923.564        1423.234          44.000  
J 7  35718624.109   187702626.837        -577.180          39.000  
G20  18926128.266    99457472.039         357.618          47.000  
E 1  23815674.873   125152264.934        2079.015          45.000  
J 3  36415748.156   191366042.723        -573.063          34.000  
E11  26014406.595                3      -1692.198          27.000  
G25  22944572.632   120574501.686        3311.781          38.000  
G24  18490682.801    97169222.219       -1198.297          50.000  
E21  22317854.565   117281165.267        -366.016          45.000  
G28  24393153.507   128186867.518       -3377.725          34.000  
> 2020  1 16  2  7 10.1950000  0 38                     
E27  24798998.323   130319643.170       -2856.818          41.000  
E19  21914063.430   115159187.995        -476.890          41.000  
G15  19920948.154   104685279.720       -2326.180          47.000  
J 1  36608364.416   192378254.718          98.403          47.000  
G21  22166049.074   116483360.123       -2482.681          41.000  
C 9  36600965.332   190590808.082        -248.575          45.000  
C22  20473993.934   106613430.251       -1486.763          51.000  
C 7  38263675.179   199248995.516         872.943          39.000  
C 8  37659984.171   196105402.918       -2700.346          40.000  
C 6  35321439.235   183927997.382        -265.978          47.000  
C19  23676352.236   123288946.671       -3406.788          42.000  
R 8  21935668.264   117464518.205       -3818.534          45.000  
R11  18694495.312    99897796.797       -3097.523          48.000  
R18  22742710.177                3      -2030.944          20.000  
R 2  18697633.559    99774188.871        1871.216          52.000  
R12  17766846.274    94907363.868         813.622          53.000  
G10  21010183.767   110409274.430        2306.804          47.000  
J 2  35634411.466   187260082.417        -984.766          45.000  
G13  22410698.082   117768958.665       -3074.908          40.000  
E20  18695385.990    98244900.066       -2185.362          37.000  
G12  20607987.217   108295768.419        2520.301          48.000  
E12  24452487.710   128498651.707       -2996.180          36.000  
C16  35564888.906   185195708.808        -251.016          49.000  
C13  36959845.484   192459589.229       -2484.904          44.000  
R 1  18653778.520    99715125.087       -2141.833          50.000  
R 3  22857299.353                3       3028.491          25.000  
R13  21338253.772   113945090.919        3586.275          34.000  
R10  21947884.576   117076936.154       -4768.141          39.000  
E 4  24314898.319   127775638.936        1422.889          44.000  
J 7  35718646.040   187702742.251        -577.561          39.000  
G20  18926114.709    99457400.587         356.997          47.000  
E 1  23815595.773   125151849.140        2078.715          45.000  
J 3  36415770.021   191366157.400        -573.508          34.000  
E11  26014469.033                3      -1692.554          27.000  
G25  22944446.685   120573839.334        3311.925          38.000  
G24  18490728.479    97169461.913       -1198.771          50.000  
E21  22317868.627   117281238.528        -366.511          45.000  
G28  24393282.078   128187543.107       -3378.080          34.000  
> 2020  1 16  2  7 10.3950000  0 39                     
E27  24799107.151   130320214.540       -2856.777          41.000  
E19  21914081.529   115159283.351        -477.003          41.000  
G32  23497309.860                1       2086.692          29.000  
G15  19921036.611   104685744.958       -2326.342          47.000  
J 1  36608360.632   192378235.051          98.316          47.000  
G21  22166143.551   116483856.666       -2482.441          41.000  
C 9  36600974.863   190590857.806        -248.763          45.000  
C22  20474051.029   106613727.631       -1486.945          51.000  
C 7  38263641.663   199248820.960         872.528          39.000  
C 8  37660087.904   196105943.064       -2700.798          40.000  
C 6  35321449.497   183928050.602        -266.160          47.000  
C19  23676483.064   123289628.078       -3407.150          42.000  
R 8  21935810.903   117465281.907       -3818.691          45.000  
R11  18694611.271    99898416.303       -3097.602          48.000  
R18  22742786.333                3      -2036.267          20.000  
R 2  18697563.417    99773814.635        1871.143          52.000  
R12  17766815.795    94907201.159         813.339          53.000  
G10  21010095.967   110408813.061        2306.730          47.000  
J 2  35634448.959   187260279.402        -985.055          45.000  
G13  22410815.080   117769573.609       -3074.701          40.000  
E20  18695469.191    98245337.158       -2185.264          38.000  
G12  20607891.300   108295264.367        2520.096          48.000  
E12  24452601.753   128499250.924       -2996.084          36.000  
C16  35564898.590   185195758.998        -251.029          49.000  
C13  36959940.936   192460086.213       -2484.906          44.000  
R 1  18653858.633    99715553.470       -2142.087          50.000  
R 3  22857185.568                3       3027.393          25.000  
R13  21338119.450   113944373.644        3585.977          34.000  
R10  21948063.355   117077889.848       -4768.735          39.000  
E 4  24314844.099   127775354.362        1422.814          44.000  
J 7  35718668.032   187702857.706        -577.394          39.000  
G20  18926101.054    99457329.205         356.761          47.000  
E 1  23815516.704   125151433.419        2078.487          45.000  
J 3  36415791.856   191366272.138        -573.557          34.000  
E11  26014534.015                3      -1693.642          27.000  
G25  22944320.708   120573177.051        3311.230          38.000  
G24  18490774.060    97169701.675       -1198.928          50.000  
E21  22317882.528   117281311.861        -366.763          46.000  
G28  24393410.651   128188218.763       -3378.322          34.000  
> 2020  1 16  2  7 10.5950000  0 39                     
E27  24799215.838   130320785.904       -2856.738          41.000  
E19  21914099.619   115159378.687        -476.690          41.000  
G32  23497230.616                        2086.498          29.000  
G15  19921125.109   104686210.184       -2326.053          47.000  
J 1  36608356.967   192378215.370          98.494          47.000  
G21  22166238.069   116484353.225       -2482.856          41.000  
C 9  36600984.462   190590907.512        -248.460          45.000  
C22  20474108.160   106614025.011       -1486.870          51.000  
C 7  38263608.161   199248646.359         872.810          39.000  
C 8  37660191.569   196106483.177       -2700.553          40.000  
C 6  35321459.771   183928103.786        -265.743          47.000  
C19  23676613.918   123290309.460       -3407.140          42.000  
R 8  21935953.539   117466045.613       -3818.370          45.000  
R11  18694727.162    99899035.825       -3097.545          48.000  
R18  22742861.943                3      -2037.124          20.000  
R 2  18697493.309    99773440.397        1871.273          52.000  
R12  17766785.306    94907038.464         813.466          53.000  
G10  21010008.183   110408351.699        2306.735          47.000  
J 2  35634486.452   187260476.358        -984.744          45.000  
G13  22410932.106   117770188.546       -3074.579          39.000  
E20  18695552.423    98245774.258       -2185.061          38.000  
G12  20607795.397   108294760.321        2520.280          48.000  
E12  24452715.871   128499850.130       -2995.775          36.000  
C16  35564908.258   185195809.172        -250.780          49.000  
C13  36960036.400   192460583.177       -2484.752          44.000  
R 1  18653938.710    99715981.852       -2141.824          50.000  
R 3  22857071.258                3       3026.954          25.000  
R13  21337985.136   113943656.352        3586.208          34.000  
R10  21948242.171   117078843.500       -4768.132          39.000  
E 4  24314789.940   127775069.760        1423.134          44.000  
J 7  35718689.967   187702973.167        -577.461          39.000  
G20  18926087.463    99457257.835         356.879          47.000  
E 1  23815437.594   125151017.681        2078.742          45.000  
J 3  36415813.718   191366386.838        -573.884          34.000  
E11  26014598.919                3      -1692.393          26.000  
G25  22944194.680   120572514.721        3311.983          38.000  
G24  18490819.660    97169941.442       -1198.783          50.000  
E21  22317896.402   117281385.192        -366.725          46.000  
G28  24393539.230   128188894.427       -3378.343          34.000  
> 2020  1 16  2  7 10.7950000  0 39                     
E27  24799324.627   130321357.276       -2857.030          41.000  
E19  21914117.815   115159474.052        -477.097          41.000  
G32  23497151.246                        2086.042          29.000  
G15  19921213.653   104686675.425       -2326.445          47.000  
J 1  36608353.283   192378195.685          98.138          47.000  
G21  22166332.552   116484849.762       -2483.066          40.000  
C 9  36600994.088   190590957.222        -248.905          45.000  
C22  20474165.217   106614322.410       -1487.289          51.000  
C 7  38263574.663   199248471.762         872.441          39.000  
C 8  37660295.251   196107023.277       -2700.661          40.000  
C 6  35321470.025   183928156.989        -266.244          47.000  
C19  23676744.792   123290990.860       -3407.417          42.000  
R 8  21936096.148   117466809.339       -3819.024          45.000  
R11  18694843.083    99899655.375       -3098.160          48.000  
R18  22742938.299                3      -2030.964          20.000  
R 2  18697423.173    99773066.172        1870.799          52.000  
R12  17766754.849    94906875.809         812.866          53.000  
G10  21009920.400   110407890.346        2306.482          47.000  
J 2  35634523.947   187260673.324        -985.103          45.000  
G13  22411049.158   117770803.485       -3074.975          39.000  
E20  18695635.583    98246211.352       -2185.506          38.000  
G12  20607699.501   108294256.289        2519.804          48.000  
E12  24452829.849   128500449.378       -2996.706          36.000  
C16  35564917.811   185195859.345        -251.105          49.000  
C13  36960131.883   192461080.152       -2485.333          44.000  
R 1  18654018.849    99716410.268       -2142.460          50.000  
R 3  22856958.141                3       3026.582          25.000  
R13  21337850.825   113942939.039        3585.929          34.000  
R10  21948420.968   117079797.189       -4768.637          39.000  
E 4  24314735.825   127774785.177        1422.687          44.000  
J 7  35718711.933   187703088.614        -577.855          39.000  
G20  18926073.878    99457186.490         356.305          47.000  
E 1  23815358.532   125150601.962        2078.244          45.000  
J 3  36415835.536   191366501.524        -573.612          34.000  
E11  26014663.201                3      -1692.397          27.000  
G25  22944068.685   120571852.424        3311.278          38.000  
G24  18490865.301    97170181.231       -1199.254          50.000  
E21  22317910.497   117281458.532        -367.030          46.000  
G28  24393667.815   128189570.077       -3378.298          34.000  
> 2020  1 16  2  7 10.9950000  0 39                     
E27  24799433.322   130321928.628       -2856.357          41.000  
E19  21914135.902   115159569.369        -476.196          41.000  
G32  23497071.859                        2086.757          29.000  
G15  19921302.154   104687140.635       -2325.631          47.000  
J 1  36608349.452   192378175.963          99.069          47.000  
G21  22166427.007   116485346.295       -2482.240          40.000  
C 9  36601003.659   190591006.887        -247.917          45.000  
C22  20474222.379   106614619.787       -1486.594          51.000  
C 7  38263541.150   199248297.126         873.531          39.000  
C 8  37660398.934   196107563.367       -2700.065          40.000  
C 6  35321480.228   183928210.137        -265.454          47.000  
C19  23676875.719   123291672.221       -3406.616          42.000  
R 8  21936238.792   117467573.026       -3818.149          45.000  
R11  18694959.020    99900274.897       -3097.314          48.000  
R18  22743013.395                3      -2020.200          20.000  
R 2  18697353.014    99772691.916        1871.619          52.000  
R12  17766724.465    94906713.141         813.651          53.000  
G10  21009832.650   110407428.971        2307.215          47.000  
J 2  35634561.397   187260870.249        -984.216          45.000  
G13  22411166.128   117771418.392       -3074.292          39.000  
E20  18695718.763    98246648.436       -2184.525          38.000  
G12  20607603.514   108293752.225        2520.693          48.000  
E12  24452943.854   128501048.533       -2995.416          36.000  
C16  35564927.595   185195909.477        -250.224          49.000  
C13  36960227.324   192461577.092       -2484.316          44.000  
R 1  18654099.002    99716838.652       -2141.539          50.000  
R 3  22856844.317                3       3027.466          25.000  
R13  21337716.487   113942221.701        3587.367          34.000  
R10  21948599.748   117080750.819       -4767.857          39.000  
E 4  24314681.690   127774500.547        1423.563          44.000  
J 7  35718733.904   187703204.010        -576.482          39.000  
G20  18926060.262    99457115.131         356.990          47.000  
E 1  23815279.349   125150186.209        2079.179          45.000  
J 3  36415857.376   191366616.183        -573.240          34.000  
E11  26014726.569                3      -1691.989          27.000  
G25  22943942.670   120571190.097        3312.000          38.000  
G24  18490910.898    97170420.999       -1198.526          50.000  
E21  22317924.327   117281531.866        -366.266          46.000  
G28  24393796.421   128190245.723       -3378.031          34.000  
> 2020  1 16  2  7 11.1950000  0 39                     
E27  24799542.176   130322500.031       -2857.341          41.000  
E19  21914154.062   115159664.744        -477.189          41.000  
G32  23496992.493                        2086.840          29.000  
G15  19921390.697   104687605.900       -2326.453          47.000  
J 1  36608345.648   192378156.286          98.226          47.000  
G21  22166521.502   116485842.864       -2483.200          40.000  
C 9  36601013.176   190591056.588        -248.659          45.000  
C22  20474279.480   106614917.219       -1487.325          51.000  
C 7  38263507.642   199248122.527         872.820          39.000  
C 8  37660502.641   196108103.476       -2700.869          40.000  
C 6  35321490.456   183928263.333        -266.185          47.000  
C19  23677006.584   123292353.613       -3407.178          42.000  
R 8  21936381.414   117468336.772       -3819.034          45.000  
R11  18695075.012    99900894.496       -3098.334          47.000  
R18  22743089.781                3      -2042.519          20.000  
R 2  18697282.888    99772317.713        1870.790          52.000  
R12  17766694.068    94906550.555         812.645          53.000  
G10  21009744.933   110406967.650        2306.349          47.000  
J 2  35634598.926   187261067.231        -985.116          45.000  
G13  22411283.137   117772033.340       -3074.921          39.000  
E20  18695801.950    98247085.565       -2185.885          38.000  
G12  20607507.566   108293248.228        2519.767          48.000  
E12  24453057.884   128501647.764       -2996.570          36.000  
C16  35564937.148   185195959.652        -251.076          49.000  
C13  36960322.788   192462074.073       -2485.097          44.000  
R 1  18654179.114    99717267.110       -2142.592          50.000  
R 3  22856730.585                3       3026.533          25.000  
R13  21337582.128   113941504.472        3585.667          34.000  
R10  21948778.530   117081704.501       -4768.481          39.000  
E 4  24314627.540   127774215.957        1422.685          44.000  
J 7  35718755.872   187703319.490        -577.488          39.000  
G20  18926046.671    99457043.827         356.228          47.000  
E 1  23815200.393   125149770.513        2078.275          45.000  
J 3  36415879.181   191366730.870        -573.366          34.000  
E11  26014790.875                3      -1692.637          27.000  
G25  22943816.709   120570527.766        3311.227          38.000  
G24  18490956.511    97170660.820       -1199.336          50.000  
E21  22317938.276   117281605.257        -367.219          46.000  
G28  24393924.981   128190921.410       -3378.579          34.000  
> 2020  1 16  2  7 11.3950000  0 39                     
E27  24799650.895   130323071.455       -2857.154          40.000  
E19  21914172.266   115159760.135        -476.785          41.000  
G32  23496913.201                        2086.246          29.000  
G15  19921479.262   104688071.189       -2326.306          47.000  
J 1  36608341.906   192378136.618          98.333          47.000  
G21  22166616.024   116486339.454       -2482.780          40.000  
C 9  36601022.749   190591106.308        -248.520          45.000  
C22  20474336.644   106615214.688       -1487.424          51.000  
C 7  38263474.146   199247947.949         873.113          39.000  
C 8  37660606.414   196108643.591       -2700.404          40.000  
C 6  35321500.682   183928316.533        -265.923          47.000  
C19  23677137.423   123293035.045       -3406.929          42.000  
R 8  21936524.101   117469100.542       -3818.736          45.000  
R11  18695190.976    99901514.132       -3098.255          47.000  
R18  22743166.720                3      -2031.566          20.000  
R 2  18697212.760    99771943.543        1870.806          52.000  
R12  17766663.624    94906388.012         812.611          53.000  
G10  21009657.140   110406506.342        2306.537          47.000  
J 2  35634636.386   187261264.218        -984.917          45.000  
G13  22411400.185   117772648.311       -3074.933          39.000  
E20  18695885.160    98247522.708       -2185.514          38.000  
G12  20607411.650   108292744.249        2519.938          48.000  
E12  24453171.997   128502247.005       -2996.164          36.000  
C16  35564946.878   185196009.832        -250.852          49.000  
C13  36960418.204   192462571.077       -2485.041          44.000  
R 1  18654259.285    99717695.598       -2142.495          50.000  
R 3  22856617.226                3       3026.881          25.000  
R13  21337447.762   113940787.206        3586.321          33.000  
R10  21948957.314   117082658.207       -4768.586          39.000  
E 4  24314573.379   127773931.394        1422.815          44.000  
J 7  35718777.836   187703434.955        -577.441          39.000  
G20  18926033.102    99456972.582         356.176          47.000  
E 1  23815121.201   125149354.845        2078.246          45.000  
J 3  36415901.060   191366845.625        -573.951          34.000  
E11  26014855.918                3      -1693.767          27.000  
G25  22943690.691   120569865.458        3311.821          38.000  
G24  18491002.135    97170900.680       -1199.305          50.000  
E21  22317952.234   117281678.677        -367.068          46.000  
G28  24394053.625   128191597.133       -3378.816          34.000  
> 2020  1 16  2  7 11.5950000  0 39                     
E27  24799759.659   130323642.901       -2857.283          40.000  
E19  21914190.473   115159855.556        -477.349          41.000  
G32  23496833.743                        2086.479          29.000  
G15  19921567.784   104688536.500       -2326.694          47.000  
J 1  36608338.189   192378116.958          98.198          47.000  
G21  22166710.521   116486836.078       -2483.402          40.000  
C 9  36601032.338   190591156.037        -248.644          45.000  
C22  20474393.689   106615512.168       -1487.564          51.000  
C 7  38263440.645   199247773.396         872.605          39.000  
C 8  37660710.152   196109183.747       -2700.698          40.000  
C 6  35321510.982   183928369.739        -266.056          47.000  
C19  23677268.311   123293716.495       -3407.349          42.000  
R 8  21936666.729   117469864.329       -3819.118          45.000  
R11  18695306.981    99902133.791       -3098.495          47.000  
R18  22743243.245                3      -2039.378          20.000  
R 2  18697142.656    99771569.377        1870.719          52.000  
R12  17766633.198    94906225.509         812.307          53.000  
G10  21009569.387   110406045.069        2306.302          47.000  
J 2  35634673.879   187261461.219        -985.062          45.000  
G13  22411517.209   117773263.268       -3074.963          39.000  
E20  18695968.299    98247959.879       -2186.197          38.000  
G12  20607315.766   108292240.296        2519.568          48.000  
E12  24453286.015   128502846.239       -2996.344          36.000  
C16  35564956.406   185196060.023        -250.963          49.000  
C13  36960513.644   192463068.088       -2485.176          44.000  
R 1  18654339.451    99718124.110       -2142.622          50.000  
R 3  22856503.929                3       3028.112          25.000  
R13  21337313.454   113940069.966        3585.968          33.000  
R10  21949136.095   117083611.908       -4768.499          39.000  
E 4  24314519.263   127773646.815        1422.754          44.000  
J 7  35718799.790   187703550.423        -577.476          39.000  
G20  18926019.609    99456901.346         356.060          47.000  
E 1  23815042.062   125148939.172        2078.277          44.000  
J 3  36415922.871   191366960.325        -574.400          34.000  
E11  26014920.681                3      -1693.033          27.000  
G25  22943564.687   120569203.168        3311.322          38.000  
G24  18491047.780    97171140.562       -1199.540          50.000  
E21  22317966.322   117281752.123        -367.409          46.000  
G28  24394182.164   128192272.857       -3379.308          34.000  
> 2020  1 16  2  7 11.7950000  0 39                     
E27  24799868.298   130324214.323       -2857.278          40.000  
E19  21914208.592   115159950.928        -476.928          41.000  
G32  23496754.338                        2086.802          29.000  
G15  19921656.344   104689001.777       -2326.504          47.000  
J 1  36608334.464   192378097.261          98.460          47.000  
G21  22166804.991   116487332.655       -2483.140          41.000  
C 9  36601041.888   190591205.724        -248.426          45.000  
C22  20474450.844   106615809.639       -1487.446          51.000  
C 7  38263407.060   199247598.789         873.043          39.000  
C 8  37660813.945   196109723.844       -2700.428          40.000  
C 6  35321521.162   183928422.915        -265.851          47.000  
C19  23677399.167   123294397.909       -3407.163          42.000  
R 8  21936809.335   117470628.088       -3818.800          45.000  
R11  18695422.949    99902753.441       -3098.425          47.000  
R18  22743319.323                3      -2036.959          20.000  
R 2  18697072.525    99771195.197        1870.878          52.000  
R12  17766602.779    94906062.999         812.431          53.000  
G10  21009481.596   110405583.779        2306.314          47.000  
J 2  35634711.357   187261658.187        -984.840          45.000  
G13  22411634.232   117773878.217       -3074.609          39.000  
E20  18696051.453    98248396.991       -2185.860          38.000  
G12  20607219.875   108291736.313        2519.787          48.000  
E12  24453400.046   128503445.443       -2995.923          36.000  
C16  35564966.080   185196110.173        -250.865          49.000  
C13  36960609.107   192463565.076       -2484.894          44.000  
R 1  18654419.623    99718552.621       -2142.656          50.000  
R 3  22856389.820                3       3028.079          25.000  
R13  21337179.133   113939352.710        3586.777          33.000  
R10  21949314.911   117084565.583       -4768.181          39.000  
E 4  24314465.193   127773362.226        1422.923          44.000  
J 7  35718821.765   187703665.879        -577.571          39.000  
G20  18926006.063    99456830.115         356.201          47.000  
E 1  23814962.861   125148523.498        2078.427          44.000  
J 3  36415944.676   191367074.949        -573.028          34.000  
E11  26014985.300                3      -1693.355          27.000  
G25  22943438.612   120568540.808        3312.334          38.000  
G24  18491093.436    97171380.429       -1199.393          50.000  
E21  22317980.283   117281825.557        -367.110          46.000  
G28  24394310.695   128192948.558       -3378.759          34.000  
> 2020  1 16  2  7 11.9950000  0 39                     
E27  24799976.968   130324785.765       -2857.410          40.000  
E19  21914226.843   115160046.342        -477.213          41.000  
G32  23496674.991                        2086.387          29.000  
G15  19921744.898   104689467.086       -2326.621          47.000  
J 1  36608330.707   192378077.588          98.340          47.000  
G21  22166899.508   116487829.278       -2483.272          41.000  
C 9  36601051.406   190591255.429        -248.621          45.000  
C22  20474507.945   106616107.145       -1487.679          51.000  
C 7  38263373.544   199247424.206         872.873          39.000  
C 8  37660917.672   196110263.982       -2700.558          40.000  
C 6  35321531.377   183928476.105        -266.005          47.000  
C19  23677530.004   123295079.359       -3407.272          42.000  
R 8  21936951.932   117471391.887       -3819.013          45.000  
R11  18695538.916    99903373.139       -3098.548          47.000  
R18  22743395.678                3      -2035.087          20.000  
R 2  18697002.397    99770821.052        1870.609          52.000  
R12  17766572.388    94905900.549         812.083          53.000  
G10  21009393.809   110405122.510        2306.196          47.000  
J 2  35634748.871   187261855.183        -985.175          45.000  
G13  22411751.293   117774493.178       -3074.768          39.000  
E20  18696134.672    98248834.151       -2186.081          38.000  
G12  20607123.992   108291232.369        2519.661          48.000  
E12  24453514.001   128504044.668       -2996.097          36.000  
C16  35564975.639   185196160.346        -250.925          49.000  
C13  36960704.505   192464062.084       -2485.108          44.000  
R 1  18654499.826    99718981.169       -2142.899          50.000  
R 3  22856276.520                3       3028.913          24.000  
R13  21337044.875   113938635.505        3586.244          33.000  
R10  21949493.683   117085519.302       -4768.604          39.000  
E 4  24314411.039   127773077.643        1422.870          44.000  
J 7  35718843.752   187703781.334        -577.597          40.000  
G20  18925992.489    99456758.927         355.834          47.000  
E 1  23814883.802   125148107.837        2078.182          44.000  
J 3  36415966.515   191367189.656        -572.713          34.000  
E11  26015051.684                3      -1693.544          27.000  
G25  22943312.599   120567878.531        3311.508          38.000  
G24  18491139.096    97171620.338       -1199.624          50.000  
E21  22317994.354   117281899.037        -367.559          46.000  
G28  24394439.324   128193624.289       -3378.784          34.000  
> 2020  1 16  2  7 12.1950000  0 39                     
E27  24800085.620   130325357.203       -2856.810          40.000  
E19  21914244.946   115160141.737        -476.813          41.000  
G32  23496595.544                        2086.632          29.000  
G15  19921833.412   104689932.391       -2326.351          47.000  
J 1  36608326.890   192378057.890          98.679          47.000  
G21  22166994.025   116488325.863       -2482.670          41.000  
C 9  36601060.880   190591305.108        -248.295          45.000  
C22  20474565.164   106616404.645       -1487.377          51.000  
C 7  38263340.006   199247249.615         873.125          39.000  
C 8  37661021.412   196110804.085       -2700.106          40.000  
C 6  35321541.644   183928529.275        -265.583          47.000  
C19  23677660.885   123295760.807       -3407.198          42.000  
R 8  21937094.578   117472155.668       -3818.687          45.000  
R11  18695654.861    99903992.846       -3098.371          47.000  
R18  22743471.695                3      -2035.087          20.000  
R 2  18696932.278    99770446.891        1871.013          52.000  
R12  17766541.997    94905738.098         812.452          53.000  
G10  21009306.035   110404661.240        2306.561          47.000  
J 2  35634786.319   187262052.154        -984.617          45.000  
G13  22411868.301   117775108.131       -3074.475          39.000  
E20  18696217.835    98249271.296       -2185.961          38.000  
G12  20607028.097   108290728.430        2519.866          48.000  
E12  24453628.098   128504643.909       -2996.088          36.000  
C16  35564985.360   185196210.490        -250.480          49.000  
C13  36960799.896   192464559.076       -2484.794          44.000  
R 1  18654579.966    99719409.713       -2142.575          50.000  
R 3  22856163.318                3       3026.656          24.000  
R13  21336910.525   113937918.297        3586.199          33.000  
R10  21949672.483   117086473.005       -4768.383          39.000  
E 4  24314356.785   127772793.043        1423.165          44.000  
J 7  35718865.708   187703896.757        -576.895          39.000  
G20  18925978.997    99456687.746         356.087          47.000  
E 1  23814804.667   125147692.183        2078.451          44.000  
J 3  36415988.348   191367304.389        -573.931          34.000  
E11  26015116.064                3      -1693.081          27.000  
G25  22943186.596   120567216.204        3311.412          38.000  
G24  18491184.641    97171860.244       -1199.405          50.000  
E21  22318008.267   117281972.507        -367.225          46.000  
G28  24394567.942   128194300.040       -3378.748          34.000  
> 2020  1 16  2  7 17.9950000  0 39                     
E27  24803239.629   130341932.158       -2858.628          40.000  
E19  21914771.900   115162909.933        -478.219          40.000  
G32  23494292.157                        2087.594          29.000  
G15  19924401.747   104703428.777       -2327.847          47.000  
J 1  36608218.019   192377484.954          98.548          47.000  
G21  22169734.964   116502729.704       -2484.397          40.000  
C 9  36601337.296   190592743.235        -248.033          45.000  
C22  20476223.196   106625037.785       -1489.902          51.000  
C 7  38262367.348   199242184.714         872.941          39.000  
C 8  37664029.409   196126466.026       -2700.779          40.000  
C 6  35321837.146   183930068.517        -265.375          47.000  
C19  23681456.196   123315524.024       -3408.130          42.000  
R 8  21941231.485   117494308.344       -3820.437          45.000  
R11  18699019.641    99921973.260       -3102.112          48.000  
R18  22745681.362                3      -2036.078          24.000  
R 2  18694899.578    99759599.619        1869.141          52.000  
R12  17765662.190    94901039.728         807.486          52.000  
G10  21006761.418   110391288.260        2304.524          47.000  
J 2  35635873.357   187267764.111        -985.248          45.000  
G13  22415262.155   117792941.322       -3075.213          41.000  
E20  18698630.635    98261949.712       -2186.856          38.000  
G12  20604247.805   108276118.168        2517.730          47.000  
E12  24456934.860   128522020.014       -2996.299          36.000  
C16  35565264.044   185197662.259        -250.276          49.000  
C13  36963567.603   192478971.674       -2485.378          44.000  
R 1  18656906.123    99731845.193       -2145.838          50.000  
R 3  22852879.709                3       3027.521          25.000  
R13  21333015.905   113917121.481        3584.738          34.000  
R10  21954857.129   117114130.494       -4769.446          39.000  
E 4  24312785.908   127764538.340        1423.012          44.000  
J 7  35719502.517   187707242.853        -577.049          39.000  
G20  18925588.031    99454632.604         352.329          47.000  
E 1  23812511.350   125135640.692        2076.734          44.000  
J 3  36416620.514   191370626.755        -572.642          35.000  
E11  26016986.732                       -1694.754          27.000  
G25  22939531.086   120548006.238        3311.636          37.000  
G24  18492509.893    97178824.119       -1202.235          50.000  
E21  22318415.078   117284109.814        -370.023          46.000  
G28  24398297.664   128213898.895       -3380.339          33.000  
> 2020  1 16  2  7 18.1950000  0 39                     
E27  24803348.412   130342503.883       -2858.471          40.000  
E19  21914790.032   115163005.514        -477.956          40.000  
G32  23494212.689                        2086.985          29.000  
G15  19924490.302   104703894.334       -2327.775          47.000  
J 1  36608214.222   192377465.199          98.834          47.000  
G21  22169829.467   116503226.525       -2484.052          40.000  
C 9  36601346.864   190592792.798        -247.810          45.000  
C22  20476280.503   106625335.736       -1489.794          51.000  
C 7  38262333.821   199242010.064         873.610          39.000  
C 8  37664133.134   196127006.112       -2700.251          40.000  
C 6  35321847.351   183930121.575        -265.142          47.000  
C19  23681587.083   123316205.632       -3408.007          42.000  
R 8  21941374.127   117495072.405       -3820.158          45.000  
R11  18699135.749    99922593.649       -3101.954          48.000  
R18  22745757.415                3      -2036.924          24.000  
R 2  18694829.475    99759225.744        1869.378          52.000  
R12  17765631.943    94900878.211         807.583          53.000  
G10  21006673.694   110390827.316        2304.780          47.000  
J 2  35635910.870   187267961.130        -984.980          45.000  
G13  22415379.201   117793556.317       -3074.975          41.000  
E20  18698713.869    98262386.990       -2186.486          38.000  
G12  20604151.954   108275614.582        2517.886          47.000  
E12  24457048.999   128522619.219       -2995.847          36.000  
C16  35565273.625   185197712.298        -249.954          49.000  
C13  36963663.050   192479468.725       -2485.118          44.000  
R 1  18656986.400    99732274.335       -2145.678          50.000  
R 3  22852766.636                3       3028.205          25.000  
R13  21332881.625   113916404.527        3584.424          34.000  
R10  21955035.941   117115084.269       -4769.028          39.000  
E 4  24312731.700   127764253.712        1423.261          44.000  
J 7  35719524.523   187707358.261        -577.091          40.000  
G20  18925574.598    99454562.127         352.411          47.000  
E 1  23812432.277   125135225.273        2077.157          44.000  
J 3  36416642.280   191370741.284        -572.389          35.000  
E11  26017051.260                       -1695.068          26.000  
G25  22939405.007   120547343.802        3312.418          37.000  
G24  18492555.604    97179064.538       -1202.063          50.000  
E21  22318429.146   117284183.814        -370.001          46.000  
G28  24398426.327   128214574.885       -3380.090          33.000  
> 2020  1 16  2  7 18.3950000  0 39                     
E27  24803457.324   130343075.615       -2858.785          40.000  
E19  21914808.214   115163101.099        -478.265          40.000  
G32  23494133.181                        2087.375          29.000  
G15  19924578.895   104704359.881       -2327.947          47.000  
J 1  36608210.447   192377445.442          98.677          47.000  
G21  22169924.045   116503723.363       -2484.136          40.000  
C 9  36601356.393   190592842.356        -247.843          45.000  
C22  20476337.701   106625633.701       -1490.092          51.000  
C 7  38262300.276   199241835.435         873.249          39.000  
C 8  37664236.809   196127546.204       -2700.755          40.000  
C 6  35321857.554   183930174.620        -265.373          47.000  
C19  23681717.964   123316887.254       -3408.258          42.000  
R 8  21941516.856   117495836.487       -3820.510          45.000  
R11  18699251.827    99923214.061       -3102.265          48.000  
R18  22745833.945                3      -2036.622          24.000  
R 2  18694759.433    99758851.882        1869.129          52.000  
R12  17765601.709    94900716.723         807.217          53.000  
G10  21006585.969   110390366.387        2304.533          47.000  
J 2  35635948.406   187268158.144        -985.174          45.000  
G13  22415496.218   117794171.299       -3074.994          41.000  
E20  18698797.106    98262824.302       -2186.785          38.000  
G12  20604056.095   108275110.992        2517.741          47.000  
E12  24457163.052   128523218.412       -2996.179          36.000  
C16  35565283.211   185197762.336        -250.344          49.000  
C13  36963758.443   192479965.774       -2485.391          44.000  
R 1  18657066.676    99732703.487       -2145.947          50.000  
R 3  22852653.206                3       3027.841          25.000  
R13  21332747.358   113915687.544        3584.934          34.000  
R10  21955214.753   117116038.055       -4769.114          39.000  
E 4  24312677.570   127763969.075        1423.206          44.000  
J 7  35719546.470   187707473.646        -577.400          39.000  
G20  18925561.203    99454491.663         352.084          47.000  
E 1  23812353.220   125134809.873        2076.914          44.000  
J 3  36416664.063   191370855.775        -571.989          35.000  
E11  26017115.934                       -1695.163          27.000  
G25  22939278.966   120546681.376        3311.927          37.000  
G24  18492601.363    97179304.974       -1202.333          50.000  
E21  22318443.246   117284257.822        -370.262          46.000  
G28  24398555.000   128215250.850       -3379.838          33.000  
> 2020  1 16  2  7 42.1950000  0 39                     
E27  24816415.951   130411178.665       -2864.072          40.000  
E19  21916980.442   115174518.885        -481.306          41.000  
G32  23484675.532   123412810.769        2088.620          30.000  
G15  19935132.584   104759821.126       -2332.812          47.000  
J 1  36607760.642   192375081.551          99.932          47.000  
G21  22181184.673   116562900.027       -2488.741          39.000  
C 9  36602483.740   190598713.557        -245.353          45.000  
C22  20483167.649   106661198.936       -1498.737          51.000  
C 7  38258306.947   199221045.299         873.848          38.000  
C 8  37676577.696   196191811.043       -2699.987          39.000  
C 6  35323064.729   183936460.391        -262.858          46.000  
C19  23697303.562   123398042.366       -3411.691          42.000  
R 8  21958509.744   117586829.612       -3825.971          46.000  
R11  18713098.432    99997205.950       -3115.708          49.000  
R18  22754946.953                1      -2051.036          28.000  
R 2  18686435.471    99714433.736        1863.458          52.000  
R12  17762045.555    94881720.594         788.980          52.000  
G10  20996163.458   110335597.065        2298.122          47.000  
J 2  35640411.758   187291613.873        -985.931          45.000  
G13  22429424.666   117867365.469       -3075.793          39.000  
E20  18708706.193    98314901.562       -2189.100          38.000  
G12  20592669.065   108215272.140        2510.678          47.000  
E12  24470730.591   128594522.044       -2995.837          35.000  
C16  35566421.792   185203690.709        -247.994          49.000  
C13  36975120.232   192539129.462       -2486.606          44.000  
R 1  18666646.700    99783915.184       -2157.515          50.000  
R 3  22839178.901                1       3032.186          27.000  
R13  21316781.548   113830432.100        3579.406          34.000  
R10  21976496.038   117229559.420       -4770.427          39.000  
E 4  24306231.080   127730091.920        1423.907          44.000  
J 7  35722156.835   187721193.073        -575.909          40.000  
G20  18923997.367    99446273.864         338.428          47.000  
E 1  23802958.261   125085438.087        2072.010          44.000  
J 3  36419251.828   191384451.660        -569.852          35.000  
E11  26024805.302                3      -1703.023          26.000  
G25  22924273.505   120467831.421        3313.885          37.000  
G24  18498069.350    97208039.746       -1212.446          50.000  
E21  22320142.961   117293189.813        -380.302          46.000  
G28  24413874.639   128295757.031       -3385.461          33.000  
> 2020  1 16  2  7 42.3950000  0 39                     
E27  24816524.967   130411751.550       -2864.338          40.000  
E19  21916998.847   115174615.242        -481.910          41.000  
G32  23484595.992                        2088.609          30.000  
G15  19935221.339   104760287.709       -2332.958          47.000  
J 1  36607756.951   192375061.600          99.768          47.000  
G21  22181279.379   116563397.781       -2488.787          39.000  
C 9  36602493.160   190598762.697        -245.597          45.000  
C22  20483225.217   106661498.735       -1499.052          51.000  
C 7  38258273.429   199220870.540         873.675          38.000  
C 8  37676681.453   196192351.050       -2700.236          39.000  
C 6  35323074.787   183936513.012        -263.045          46.000  
C19  23697434.602   123398724.715       -3411.623          42.000  
R 8  21958652.697   117587594.864       -3826.276          46.000  
R11  18713215.073    99997829.114       -3115.846          49.000  
R18  22755023.973                       -2051.548          28.000  
R 2  18686365.624    99714061.089        1863.208          52.000  
R12  17762016.018    94881562.841         788.731          52.000  
G10  20996076.018   110335137.538        2297.637          47.000  
J 2  35640449.249   187291811.098        -986.185          45.000  
G13  22429541.743   117867980.671       -3075.897          39.000  
E20  18708789.539    98315339.554       -2189.889          37.000  
G12  20592573.522   108214770.043        2510.420          47.000  
E12  24470844.663   128595121.238       -2995.916          35.000  
C16  35566431.308   185203740.339        -248.081          49.000  
C13  36975215.697   192539626.771       -2486.542          44.000  
R 1  18666727.443    99784346.754       -2157.887          50.000  
R 3  22839065.467                        3032.618          27.000  
R13  21316647.493   113829716.215        3579.230          34.000  
R10  21976674.902   117230513.614       -4771.139          38.000  
E 4  24306176.882   127729807.225        1423.482          44.000  
J 7  35722178.745   187721308.297        -576.308          40.000  
G20  18923984.479    99446206.235         338.036          47.000  
E 1  23802879.405   125085023.741        2071.664          44.000  
J 3  36419273.528   191384565.669        -569.802          35.000  
E11  26024870.998                3      -1704.560          26.000  
G25  22924147.403   120467168.665        3314.082          37.000  
G24  18498115.482    97208282.260       -1212.472          50.000  
E21  22320157.558   117293265.954        -380.865          46.000  
G28  24414003.510   128296434.111       -3385.577          33.000  
