     3.02           OBSERVATION DATA    M: Mixed            RINEX VERSION / TYPE
RTKCONV 2.4.3 b32                       20200116 032223 UTC PGM / RUN BY / DATE 
log: C:\Users\ykouk\Desktop\1133\log_base_station.ubx       COMMENT             
format: u-blox                                              COMMENT             
                                                            MARKER NAME         
                                                            MARKER NUMBER       
                                                            MARKER TYPE         
                                                            OBSERVER / AGENCY   
                                                            REC # / TYPE / VERS 
                                                            ANT # / TYPE        
 -3934423.4010  3384136.6166  3695920.9959                  APPROX POSITION XYZ 
        0.0000        0.0000        0.0000                  ANTENNA: DELTA H/E/N
G    4 C1C L1C D1C S1C                                      SYS / # / OBS TYPES 
R    4 C1C L1C D1C S1C                                      SYS / # / OBS TYPES 
E    4 C1C L1C D1C S1C                                      SYS / # / OBS TYPES 
J    4 C1C L1C D1C S1C                                      SYS / # / OBS TYPES 
C    4 C1I L1I D1I S1I                                      SYS / # / OBS TYPES 
  2020     1    16     2    22   11.3950000     GPS         TIME OF FIRST OBS   
  2020     1    16     2    32   27.3950000     GPS         TIME OF LAST OBS    
G                                                           SYS / PHASE SHIFT   
R                                                           SYS / PHASE SHIFT   
E                                                           SYS / PHASE SHIFT   
J                                                           SYS / PHASE SHIFT   
C                                                           SYS / PHASE SHIFT   
  0                                                         GLONASS SLOT / FRQ #
 C1C    0.000 C1P    0.000 C2C    0.000 C2P    0.000        GLONASS COD/PHS/BIS 
                                                            END OF HEADER       
> 2020  1 16  2 22 11.3950000  0 37                     
E27  25306806.009   132988188.375       -3057.230          41.000  
E19  22009402.645   115660204.054        -639.754          40.000  
G15  20337155.478   106872467.775       -2527.698          45.000  
J 1  36589402.669   192278607.982         120.717          47.000  
G21  22605335.672   118791820.377       -2627.939          39.000  
C 9  36637788.087   190782551.835        -176.859          45.000  
C22  20761950.379   108112890.427       -1841.881          51.000  
C 7  38111952.495   198458940.326         877.582          37.000  
C 8  38126489.646   198534617.197       -2687.487          35.000  
C 6  35361357.648   184135863.810        -196.049          46.000  
C19  24277983.906   126421765.664       -3540.885          40.000  
R 8  22596645.877   121003962.643       -4030.342          42.000  
R11  19258430.771   102911290.813       -3571.777          49.000  
R 2  18403999.364    98207299.966        1590.351          52.000  
R12  17690053.578    94497155.688          94.678          52.000  
G10  20639799.901   108462897.807        1998.782          46.000  
J 2  35807156.273   188167865.000       -1029.202          46.000  
G13  22941977.862   120560857.895       -3121.501          34.000  
E20  19081873.241   100275909.751       -2323.449          38.000  
G12  20203088.343   106168017.296        2185.244          50.000  
E12  24965310.349   131193546.598       -2975.020          35.000  
C16  35602508.733   185391604.547        -184.595          49.000  
C13  37394529.993   194723105.083       -2535.736          42.000  
R 1  19053838.475   101853673.712       -2604.645          49.000  
R 3  22336071.552   119566803.818        3156.366          37.000  
R13  20753289.973   110821412.917        3329.982          36.000  
R10  22757521.816   121395790.241       -4800.296          36.000  
E 4  24070881.429   126493319.545        1418.704          46.000  
J 7  35815674.371   188212630.015        -555.078          40.000  
G20  18912272.180    99384657.203        -201.373          46.000  
E 1  23478025.530   123377910.306        1850.204          44.000  
J 3  36506521.487   191843058.522        -485.219          35.000  
G25  22374348.046   117577981.203        3322.424          39.000  
G24  18729392.279    98423649.504       -1576.972          49.000  
E21  22415448.914   117794024.854        -770.257          48.000  
E11                                                                
G32                                                                
> 2020  1 16  2 22 11.5950000  0 37                     
E27  25306922.323   132988799.839       -3057.730          41.000  
E19  22009427.079   115660332.059        -640.051          40.000  
G15  20337251.678   106872973.387       -2527.876          45.000  
J 1  36589398.053   192278583.899         120.392          47.000  
G21  22605435.656   118792345.965       -2627.891          39.000  
C 9  36637794.928   190782587.265        -177.192          45.000  
C22  20762021.147   108113258.859       -1842.239          51.000  
C 7  38111918.785   198458764.865         877.321          37.000  
C 8  38126592.810   198535154.737       -2687.621          35.000  
C 6  35361365.241   184135903.080        -196.338          46.000  
C19  24278119.917   126422473.901       -3541.143          40.000  
R 8  22596796.424   121004768.820       -4030.846          42.000  
R11  19258564.405   102912005.213       -3572.094          49.000  
R 2  18403939.771    98206981.950        1590.013          52.000  
R12  17690050.034    94497136.820          94.202          52.000  
G10  20639723.844   108462498.116        1998.301          46.000  
J 2  35807195.410   188168070.890       -1029.468          46.000  
G13  22942096.715   120561482.330       -3122.222          34.000  
E20  19081961.667   100276374.495       -2323.982          38.000  
G12  20203005.171   106167580.324        2184.733          50.000  
E12  24965423.639   131194141.582       -2975.125          35.000  
C16  35602515.837   185391641.514        -184.812          49.000  
C13  37394627.428   194723612.269       -2535.992          42.000  
R 1  19053935.903   101854194.696       -2604.950          49.000  
R 3  22335953.613   119566172.606        3155.640          36.000  
R13  20753165.220   110820746.958        3329.888          36.000  
R10  22757701.831   121396750.342       -4800.613          37.000  
E 4  24070827.466   126493035.836        1418.384          46.000  
J 7  35815695.507   188212740.986        -554.615          40.000  
G20  18912279.859    99384697.529        -201.666          46.000  
E 1  23477955.183   123377540.316        1849.805          44.000  
J 3  36506539.993   191843155.678        -485.957          35.000  
G25  22374221.592   117577316.780        3322.363          39.000  
G24  18729452.290    98423964.947       -1577.253          49.000  
E21  22415478.304   117794178.953        -770.621          48.000  
E11                                                                
G32                                                                
> 2020  1 16  2 22 11.7950000  0 37                     
E27  25307038.684   132989411.296       -3057.365          41.000  
E19  22009451.468   115660460.072        -640.178          40.000  
G15  20337347.910   106873479.003       -2528.194          45.000  
J 1  36589393.554   192278559.805         120.428          47.000  
G21  22605535.645   118792871.593       -2627.967          39.000  
C 9  36637801.679   190782622.689        -177.069          45.000  
C22  20762091.882   108113627.296       -1842.303          51.000  
C 7  38111885.083   198458589.387         877.307          37.000  
C 8  38126696.027   198535692.245       -2688.167          35.000  
C 6  35361372.735   184135942.342        -196.458          46.000  
C19  24278256.006   126423182.138       -3541.438          40.000  
R 8  22596946.959   121005574.992       -4031.029          42.000  
R11  19258698.094   102912719.625       -3572.143          49.000  
R 2  18403880.208    98206663.938        1589.943          52.000  
R12  17690046.475    94497117.968          94.116          52.000  
G10  20639647.786   108462098.419        1998.389          46.000  
J 2  35807234.577   188168276.782       -1029.560          46.000  
G13  22942215.538   120562106.718       -3121.836          34.000  
E20  19082050.072   100276839.230       -2323.835          38.000  
G12  20202922.005   106167143.350        2184.725          50.000  
E12  24965536.747   131194736.539       -2975.039          35.000  
C16  35602522.846   185391678.472        -184.921          49.000  
C13  37394724.826   194724119.457       -2535.938          42.000  
R 1  19054033.342   101854715.699       -2605.178          49.000  
R 3  22335835.718   119565541.358        3155.646          36.000  
R13  20753040.557   110820081.001        3330.040          36.000  
R10  22757881.782   121397710.421       -4800.676          36.000  
E 4  24070773.429   126492752.116        1418.667          46.000  
J 7  35815716.631   188212851.998        -554.913          40.000  
G20  18912287.527    99384737.884        -201.924          46.000  
E 1  23477884.760   123377170.319        1850.010          44.000  
J 3  36506558.429   191843252.795        -486.075          35.000  
G25  22374095.158   117576652.352        3321.814          39.000  
G24  18729512.307    98424280.395       -1577.372          49.000  
E21  22415507.655   117794333.061        -770.618          48.000  
E11                                                                
G32                                                                
> 2020  1 16  2 22 11.9950000  0 37                     
E27  25307154.996   132990022.790       -3057.652          41.000  
E19  22009475.839   115660588.074        -640.354          40.000  
G15  20337444.161   106873984.631       -2528.537          45.000  
J 1  36589389.009   192278535.731         119.892          47.000  
G21  22605635.670   118793397.242       -2628.692          39.000  
C 9  36637808.476   190782658.130        -177.609          45.000  
C22  20762162.631   108113995.772       -1842.739          51.000  
C 7  38111851.346   198458413.942         876.614          37.000  
C 8  38126799.198   198536229.731       -2687.686          35.000  
C 6  35361380.292   184135981.610        -196.771          46.000  
C19  24278391.992   126423890.387       -3541.556          40.000  
R 8  22597097.498   121006381.186       -4031.561          42.000  
R11  19258831.806   102913434.083       -3572.687          49.000  
R 2  18403820.580    98206345.963        1589.438          52.000  
R12  17690042.904    94497099.170          93.568          52.000  
G10  20639571.713   108461698.769        1997.867          46.000  
J 2  35807273.748   188168482.688       -1030.072          46.000  
G13  22942334.417   120562731.156       -3122.346          34.000  
E20  19082138.589   100277303.982       -2324.344          38.000  
G12  20202838.901   106166706.423        2184.194          50.000  
E12  24965649.988   131195331.510       -2975.064          34.000  
C16  35602530.024   185391715.447        -185.341          49.000  
C13  37394822.175   194724626.665       -2536.469          42.000  
R 1  19054130.803   101855236.733       -2605.590          49.000  
R 3  22335717.775   119564910.113        3155.591          36.000  
R13  20752915.833   110819415.107        3329.157          36.000  
R10  22758061.771   121398670.515       -4800.631          36.000  
E 4  24070719.596   126492468.438        1418.083          46.000  
J 7  35815737.737   188212963.040        -555.723          40.000  
G20  18912295.244    99384778.279        -202.478          46.000  
E 1  23477814.383   123376800.367        1849.444          44.000  
J 3  36506576.881   191843349.928        -486.032          35.000  
G25  22373968.710   117575987.930        3321.765          39.000  
G24  18729572.337    98424595.882       -1577.829          49.000  
E21  22415537.088   117794487.202        -770.981          48.000  
E11                                                                
G32                                                                
> 2020  1 16  2 22 12.1950000  0 37                     
E27  25307271.401   132990634.366       -3058.028          41.000  
E19  22009500.160   115660716.180        -640.482          40.000  
G15  20337540.431   106874490.330       -2528.581          45.000  
J 1  36589384.384   192278511.702         119.978          47.000  
G21  22605735.734   118793922.941       -2628.977          39.000  
C 9  36637815.331   190782693.609        -177.605          45.000  
C22  20762233.377   108114364.315       -1842.968          51.000  
C 7  38111817.683   198458238.535         876.695          37.000  
C 8  38126902.420   198536767.299       -2687.849          35.000  
C 6  35361387.787   184136020.937        -196.888          46.000  
C19  24278528.031   126424598.694       -3541.679          40.000  
R 8  22597248.115   121007187.435       -4031.363          42.000  
R11  19258965.532   102914148.607       -3572.845          49.000  
R 2  18403761.028    98206028.051        1589.386          52.000  
R12  17690039.379    94497080.456          93.358          52.000  
G10  20639495.695   108461299.190        1997.701          46.000  
J 2  35807312.929   188168688.647       -1029.954          46.000  
G13  22942453.254   120563355.661       -3122.574          34.000  
E20  19082227.047   100277768.804       -2324.302          38.000  
G12  20202755.825   106166269.559        2184.098          50.000  
E12  24965763.187   131195926.577       -2975.635          35.000  
C16  35602537.132   185391752.468        -185.406          49.000  
C13  37394919.578   194725133.921       -2536.530          42.000  
R 1  19054228.285   101855757.852       -2605.665          49.000  
R 3  22335599.845   119564278.910        3156.201          36.000  
R13  20752791.083   110818749.228        3329.313          36.000  
R10  22758241.743   121399630.677       -4800.697          36.000  
E 4  24070665.580   126492184.799        1418.003          46.000  
J 7  35815758.860   188213074.090        -555.678          40.000  
G20  18912302.957    99384818.747        -202.523          46.000  
E 1  23477744.031   123376430.481        1849.223          44.000  
J 3  36506595.356   191843447.094        -485.617          35.000  
G25  22373842.301   117575323.585        3321.753          39.000  
G24  18729632.368    98424911.437       -1577.978          49.000  
E21  22415566.410   117794641.424        -771.260          48.000  
E11                                                                
G32                                                                
> 2020  1 16  2 22 12.3950000  0 37                     
E27  25307387.714   132991245.925       -3058.064          41.000  
E19  22009524.554   115660844.277        -640.582          40.000  
G15  20337636.659   106874996.034       -2528.610          45.000  
J 1  36589379.786   192278487.674         120.161          47.000  
G21  22605835.759   118794448.642       -2628.798          39.000  
C 9  36637822.092   190782729.091        -177.474          45.000  
C22  20762304.180   108114732.865       -1842.833          51.000  
C 7  38111784.022   198458063.116         876.865          37.000  
C 8  38127005.642   198537304.867       -2687.434          35.000  
C 6  35361395.379   184136060.249        -196.612          46.000  
C19  24278664.023   126425307.007       -3541.504          40.000  
R 8  22597398.706   121007993.709       -4031.499          42.000  
R11  19259099.196   102914863.148       -3572.791          49.000  
R 2  18403701.452    98205710.149        1589.471          52.000  
R12  17690035.885    94497061.775          93.227          52.000  
G10  20639419.660   108460899.616        1997.769          46.000  
J 2  35807352.148   188168894.604       -1029.876          46.000  
G13  22942572.125   120563980.145       -3122.427          34.000  
E20  19082315.541   100278233.623       -2324.114          38.000  
G12  20202672.755   106165832.706        2184.213          50.000  
E12  24965876.450   131196521.586       -2975.126          35.000  
C16  35602544.173   185391789.481        -185.171          49.000  
C13  37395017.032   194725641.171       -2536.188          42.000  
R 1  19054325.829   101856278.984       -2605.732          49.000  
R 3  22335481.917   119563647.736        3156.110          37.000  
R13  20752666.411   110818083.373        3329.979          36.000  
R10  22758421.742   121400590.843       -4800.797          36.000  
E 4  24070611.457   126491901.156        1418.183          46.000  
J 7  35815779.936   188213185.130        -555.196          40.000  
G20  18912310.664    99384859.246        -202.571          46.000  
E 1  23477673.625   123376060.595        1849.390          44.000  
J 3  36506613.888   191843544.320        -486.266          35.000  
G25  22373715.858   117574659.220        3321.948          39.000  
G24  18729692.407    98425227.005       -1577.913          49.000  
E21  22415595.726   117794795.645        -771.102          48.000  
E11                                                                
G32                                                                
> 2020  1 16  2 22 12.5950000  0 37                     
E27  25307503.943   132991857.451       -3057.582          41.000  
E19  22009548.958   115660972.341        -640.315          40.000  
G15  20337732.923   106875501.710       -2528.352          45.000  
J 1  36589375.265   192278463.617         120.175          47.000  
G21  22605935.780   118794974.290       -2628.227          39.000  
C 9  36637828.913   190782764.532        -177.172          45.000  
C22  20762374.931   108115101.405       -1842.768          51.000  
C 7  38111750.339   198457887.684         877.473          38.000  
C 8  38127108.904   198537842.453       -2687.897          35.000  
C 6  35361402.935   184136099.533        -196.432          46.000  
C19  24278800.074   126426015.302       -3541.405          40.000  
R 8  22597549.223   121008799.935       -4031.214          42.000  
R11  19259232.941   102915577.675       -3572.815          49.000  
R 2  18403641.864    98205392.229        1589.503          52.000  
R12  17690032.395    94497043.082          93.320          52.000  
G10  20639343.617   108460500.022        1997.918          46.000  
J 2  35807391.356   188169100.530       -1029.687          46.000  
G13  22942690.958   120564604.588       -3122.013          34.000  
E20  19082404.057   100278698.420       -2324.214          38.000  
G12  20202589.561   106165395.841        2184.370          50.000  
E12  24965989.663   131197116.579       -2974.807          35.000  
C16  35602551.332   185391826.462        -184.925          49.000  
C13  37395114.399   194726148.405       -2536.157          42.000  
R 1  19054423.308   101856800.101       -2605.647          49.000  
R 3  22335364.089   119563016.513        3155.957          37.000  
R13  20752541.693   110817417.545        3329.330          36.000  
R10  22758601.681   121401550.962       -4800.387          37.000  
E 4  24070557.394   126491617.487        1418.400          46.000  
J 7  35815801.025   188213296.179        -555.234          40.000  
G20  18912318.356    99384899.731        -202.535          46.000  
E 1  23477603.211   123375690.681        1849.539          44.000  
J 3  36506632.338   191843641.438        -485.796          35.000  
G25  22373589.464   117573994.837        3321.973          39.000  
G24  18729752.455    98425542.555       -1577.809          49.000  
E21  22415624.961   117794949.866        -771.102          48.000  
E11                                                                
G32                                                                
> 2020  1 16  2 22 12.7950000  0 37                     
E27  25307620.348   132992469.013       -3057.878          41.000  
E19  22009573.345   115661100.439        -640.499          40.000  
G15  20337829.184   106876007.421       -2528.673          45.000  
J 1  36589370.702   192278439.572         119.971          47.000  
G21  22606035.817   118795499.980       -2628.532          39.000  
C 9  36637835.687   190782799.991        -177.401          45.000  
C22  20762445.704   108115469.977       -1842.988          51.000  
C 7  38111716.661   198457712.277         876.787          38.000  
C 8  38127212.118   198538379.984       -2688.189          35.000  
C 6  35361410.384   184136138.834        -196.751          46.000  
C19  24278936.080   126426723.614       -3541.730          40.000  
R 8  22597699.833   121009606.205       -4031.681          42.000  
R11  19259366.680   102916292.238       -3572.967          48.000  
R 2  18403582.269    98205074.341        1589.277          52.000  
R12  17690028.901    94497024.444          92.924          52.000  
G10  20639267.586   108460100.474        1997.566          46.000  
J 2  35807430.526   188169306.480       -1029.832          46.000  
G13  22942809.765   120565229.080       -3122.608          35.000  
E20  19082492.450   100279163.236       -2324.560          38.000  
G12  20202506.430   106164959.011        2184.037          50.000  
E12  24966102.833   131197711.591       -2974.923          35.000  
C16  35602558.325   185391863.462        -185.206          49.000  
C13  37395211.854   194726655.661       -2536.548          42.000  
R 1  19054520.778   101857321.263       -2606.045          49.000  
R 3  22335246.175   119562385.295        3155.768          37.000  
R13  20752416.975   110816751.710        3329.407          36.000  
R10  22758781.665   121402511.128       -4800.981          37.000  
E 4  24070503.581   126491333.845        1418.086          46.000  
J 7  35815822.176   188213407.221        -555.663          40.000  
G20  18912326.051    99384940.259        -202.760          46.000  
E 1  23477532.785   123375320.812        1849.157          44.000  
J 3  36506650.857   191843738.613        -485.955          35.000  
G25  22373463.022   117573330.472        3321.484          39.000  
G24  18729812.516    98425858.139       -1578.130          49.000  
E21  22415654.363   117795104.120        -771.541          48.000  
E11                                                                
G32                                                                
> 2020  1 16  2 22 12.9950000  0 37                     
E27  25307736.706   132993080.602       -3057.987          41.000  
E19  22009597.692   115661228.566        -640.753          40.000  
G15  20337925.396   106876513.153       -2529.052          45.000  
J 1  36589366.090   192278415.543         120.003          47.000  
G21  22606135.868   118796025.709       -2629.017          39.000  
C 9  36637842.502   190782835.473        -177.593          45.000  
C22  20762516.445   108115838.587       -1843.250          51.000  
C 7  38111683.008   198457536.871         876.628          38.000  
C 8  38127315.371   198538917.564       -2688.081          35.000  
C 6  35361417.995   184136178.147        -196.780          46.000  
C19  24279072.130   126427431.944       -3541.863          40.000  
R 8  22597850.393   121010412.499       -4031.701          42.000  
R11  19259500.396   102917006.847       -3573.212          48.000  
R 2  18403522.678    98204756.487        1589.112          52.000  
R12  17690025.435    94497005.852          92.755          52.000  
G10  20639191.504   108459700.950        1997.343          46.000  
J 2  35807469.749   188169512.450       -1029.978          46.000  
G13  22942928.603   120565853.576       -3122.837          35.000  
E20  19082580.841   100279628.085       -2324.501          38.000  
G12  20202423.298   106164522.214        2183.828          50.000  
E12  24966216.033   131198306.639       -2975.356          35.000  
C16  35602565.381   185391900.466        -185.227          49.000  
C13  37395309.186   194727162.912       -2536.359          42.000  
R 1  19054618.329   101857842.458       -2606.149          49.000  
R 3  22335128.259   119561754.085        3156.226          37.000  
R13  20752292.245   110816085.939        3328.480          36.000  
R10  22758961.643   121403471.260       -4800.693          37.000  
E 4  24070449.534   126491050.212        1418.004          46.000  
J 7  35815843.316   188213518.270        -555.157          40.000  
G20  18912333.796    99384980.840        -203.060          46.000  
E 1  23477462.445   123374950.960        1849.192          44.000  
J 3  36506669.321   191843835.779        -485.960          35.000  
G25  22373336.628   117572666.116        3321.496          39.000  
G24  18729872.594    98426173.756       -1578.301          49.000  
E21  22415683.681   117795258.404        -771.623          48.000  
E11                                                                
G32                                                                
> 2020  1 16  2 22 13.1950000  0 37                     
E27  25307853.018   132993692.203       -3057.953          41.000  
E19  22009621.951   115661356.698        -640.840          40.000  
G15  20338021.652   106877018.882       -2528.472          45.000  
J 1  36589361.457   192278391.509         120.234          47.000  
G21  22606235.888   118796551.436       -2629.101          39.000  
C 9  36637849.277   190782870.934        -177.396          45.000  
C22  20762587.254   108116207.203       -1843.066          51.000  
C 7  38111649.307   198457361.451         877.116          38.000  
C 8  38127418.631   198539455.121       -2687.925          35.000  
C 6  35361425.546   184136217.443        -196.366          46.000  
C19  24279208.114   126428140.265       -3541.379          40.000  
R 8  22598000.985   121011218.789       -4031.709          42.000  
R11  19259634.110   102917721.459       -3572.986          48.000  
R 2  18403463.076    98204438.634        1589.289          52.000  
R12  17690021.950    94496987.290          92.853          52.000  
G10  20639115.491   108459301.434        1997.589          46.000  
J 2  35807508.950   188169718.418       -1029.734          46.000  
G13  22943047.444   120566478.066       -3122.331          35.000  
E20  19082669.362   100280092.906       -2323.978          38.000  
G12  20202340.147   106164085.432        2183.922          50.000  
E12  24966329.269   131198901.654       -2974.719          35.000  
C16  35602572.593   185391937.472        -185.038          49.000  
C13  37395406.560   194727670.175       -2535.999          42.000  
R 1  19054715.791   101858363.671       -2606.043          49.000  
R 3  22335010.411   119561122.877        3156.293          37.000  
R13  20752167.606   110815420.151        3328.883          36.000  
R10  22759141.655   121404431.444       -4801.000          37.000  
E 4  24070395.510   126490766.571        1418.305          46.000  
J 7  35815864.439   188213629.350        -555.389          40.000  
G20  18912341.506    99385021.435        -203.072          46.000  
E 1  23477392.077   123374581.123        1849.100          44.000  
J 3  36506687.850   191843932.955        -486.004          35.000  
G25  22373210.220   117572001.760        3321.783          39.000  
G24  18729932.661    98426489.375       -1578.033          49.000  
E21  22415713.031   117795412.703        -771.444          48.000  
E11                                                                
G32                                                                
> 2020  1 16  2 22 13.3950000  0 37                     
E27  25307969.390   132994303.785       -3058.026          41.000  
E19  22009646.332   115661484.796        -640.544          40.000  
G15  20338117.913   106877524.616       -2528.687          45.000  
J 1  36589356.944   192278367.463         120.095          47.000  
G21  22606335.897   118797077.121       -2628.586          39.000  
C 9  36637856.046   190782906.377        -177.279          45.000  
C22  20762658.025   108116575.820       -1843.210          51.000  
C 7  38111615.642   198457186.023         877.598          38.000  
C 8  38127521.892   198539992.680       -2688.025          35.000  
C 6  35361433.028   184136256.735        -196.511          46.000  
C19  24279344.108   126428848.609       -3541.834          40.000  
R 8  22598151.538   121012025.070       -4031.720          42.000  
R11  19259767.817   102918436.083       -3573.132          48.000  
R 2  18403403.533    98204120.786        1589.188          52.000  
R12  17690018.527    94496968.749          92.563          52.000  
G10  20639039.436   108458901.930        1997.416          46.000  
J 2  35807548.103   188169924.377       -1029.892          46.000  
G13  22943166.277   120567102.527       -3122.078          35.000  
E20  19082757.856   100280557.736       -2323.747          38.000  
G12  20202257.048   106163648.651        2183.776          50.000  
E12  24966442.541   131199496.681       -2975.383          35.000  
C16  35602579.665   185391974.450        -185.022          49.000  
C13  37395503.998   194728177.438       -2536.438          42.000  
R 1  19054813.274   101858884.886       -2606.166          49.000  
R 3  22334892.494   119560491.664        3155.707          37.000  
R13  20752042.965   110814754.341        3329.055          36.000  
R10  22759321.609   121405391.571       -4800.883          37.000  
E 4  24070341.540   126490482.916        1418.118          46.000  
J 7  35815885.569   188213740.365        -555.362          40.000  
G20  18912349.229    99385062.035        -203.090          46.000  
E 1  23477321.717   123374211.266        1849.276          44.000  
J 3  36506706.326   191844030.094        -485.692          35.000  
G25  22373083.791   117571337.392        3321.808          39.000  
G24  18729992.718    98426805.011       -1578.243          49.000  
E21  22415742.469   117795567.006        -771.663          48.000  
E11                                                                
G32                                                                
> 2020  1 16  2 22 13.5950000  0 37                     
E27  25308085.833   132994915.386       -3058.003          41.000  
E19  22009670.712   115661612.930        -640.189          40.000  
G15  20338214.151   106878030.360       -2528.471          45.000  
J 1  36589352.388   192278343.419         120.401          47.000  
G21  22606435.935   118797602.836       -2628.391          39.000  
C 9  36637862.873   190782941.827        -177.103          45.000  
C22  20762728.822   108116944.462       -1843.020          51.000  
C 7  38111582.001   198457010.624         877.219          38.000  
C 8  38127625.101   198540530.231       -2687.379          35.000  
C 6  35361440.595   184136296.017        -196.126          46.000  
C19  24279480.130   126429556.931       -3541.600          40.000  
R 8  22598302.070   121012831.364       -4031.409          42.000  
R11  19259901.548   102919150.731       -3572.943          48.000  
R 2  18403343.975    98203802.958        1589.300          52.000  
R12  17690015.080    94496950.244          92.659          52.000  
G10  20638963.414   108458502.439        1997.605          46.000  
J 2  35807587.249   188170130.338       -1029.601          46.000  
G13  22943285.172   120567727.049       -3122.402          35.000  
E20  19082846.412   100281022.603       -2323.834          38.000  
G12  20202173.947   106163211.895        2183.915          50.000  
E12  24966555.722   131200091.681       -2974.952          35.000  
C16  35602586.840   185392011.440        -184.666          49.000  
C13  37395601.484   194728684.688       -2535.883          42.000  
R 1  19054910.756   101859406.135       -2606.028          49.000  
R 3  22334774.562   119559860.415        3156.281          37.000  
R13  20751918.318   110814088.590        3329.306          35.000  
R10  22759501.577   121406351.709       -4800.469          37.000  
E 4  24070287.588   126490199.273        1418.465          46.000  
J 7  35815906.697   188213851.405        -554.713          40.000  
G20  18912356.932    99385102.682        -203.037          46.000  
E 1  23477251.354   123373841.450        1849.190          44.000  
J 3  36506724.809   191844127.258        -485.801          35.000  
G25  22372957.385   117570673.038        3321.991          39.000  
G24  18730052.782    98427120.659       -1578.110          49.000  
E21  22415771.809   117795721.329        -771.436          48.000  
E11                                                                
G32                                                                
> 2020  1 16  2 22 13.7950000  0 37                     
E27  25308202.266   132995526.955       -3057.752          41.000  
E19  22009695.157   115661741.048        -640.564          40.000  
G15  20338310.347   106878536.101       -2528.884          46.000  
J 1  36589347.748   192278319.349         120.324          47.000  
G21  22606535.978   118798128.524       -2628.339          39.000  
C 9  36637869.698   190782977.247        -177.080          45.000  
C22  20762799.613   108117313.094       -1843.267          51.000  
C 7  38111548.269   198456835.177         877.188          38.000  
C 8  38127728.306   198541067.761       -2687.616          35.000  
C 6  35361448.101   184136335.285        -196.375          46.000  
C19  24279616.129   126430265.241       -3541.644          40.000  
R 8  22598452.623   121013637.658       -4031.679          42.000  
R11  19260035.263   102919865.374       -3573.322          48.000  
R 2  18403284.387    98203485.117        1589.108          52.000  
R12  17690011.565    94496931.750          92.293          52.000  
G10  20638887.412   108458102.938        1997.332          46.000  
J 2  35807626.451   188170336.276       -1029.836          46.000  
G13  22943404.046   120568351.516       -3122.708          35.000  
E20  19082934.878   100281487.446       -2324.071          38.000  
G12  20202090.853   106162775.128        2183.764          50.000  
E12  24966668.958   131200686.658       -2974.963          35.000  
C16  35602593.933   185392048.408        -184.957          49.000  
C13  37395698.966   194729191.926       -2536.115          42.000  
R 1  19055008.229   101859927.377       -2606.356          49.000  
R 3  22334656.604   119559229.156        3156.287          37.000  
R13  20751793.546   110813422.802        3329.154          35.000  
R10  22759681.597   121407311.818       -4800.402          37.000  
E 4  24070233.680   126489915.605        1418.164          46.000  
J 7  35815927.797   188213962.442        -555.188          40.000  
G20  18912364.673    99385143.321        -203.390          46.000  
E 1  23477181.007   123373471.602        1849.191          44.000  
J 3  36506743.276   191844224.369        -485.737          35.000  
G25  22372830.977   117570008.656        3321.796          39.000  
G24  18730112.850    98427436.298       -1578.348          49.000  
E21  22415801.255   117795875.652        -771.731          48.000  
E11                                                                
G32                                                                
> 2020  1 16  2 22 13.9950000  0 37                     
E27  25308318.709   132996138.584       -3058.351          41.000  
E19  22009719.488   115661869.195        -640.954          40.000  
G15  20338406.612   106879041.852       -2528.941          46.000  
J 1  36589343.160   192278295.300         120.094          47.000  
G21  22606636.002   118798654.253       -2628.725          39.000  
C 9  36637876.432   190783012.694        -177.298          45.000  
C22  20762870.456   108117681.756       -1843.417          51.000  
C 7  38111514.525   198456659.766         877.101          38.000  
C 8  38127831.577   198541605.283       -2687.498          35.000  
C 6  35361455.708   184136374.557        -196.474          46.000  
C19  24279752.145   126430973.581       -3541.644          40.000  
R 8  22598603.208   121014443.969       -4031.615          42.000  
R11  19260168.932   102920580.052       -3573.529          49.000  
R 2  18403224.780    98203167.306        1588.878          52.000  
R12  17690008.091    94496913.304          92.110          52.000  
G10  20638811.424   108457703.477        1997.188          46.000  
J 2  35807665.627   188170542.229       -1029.854          46.000  
G13  22943522.812   120568976.006       -3122.788          35.000  
E20  19083023.382   100281952.297       -2324.066          38.000  
G12  20202007.734   106162338.398        2183.539          49.000  
E12  24966782.233   131201281.643       -2974.773          35.000  
C16  35602600.978   185392085.382        -184.977          49.000  
C13  37395796.362   194729699.198       -2536.536          42.000  
R 1  19055105.726   101860448.654       -2606.490          49.000  
R 3  22334538.684   119558597.915        3156.055          37.000  
R13  20751668.827   110812757.071        3328.606          35.000  
R10  22759861.591   121408271.940       -4800.559          37.000  
E 4  24070179.765   126489631.947        1418.276          46.000  
J 7  35815948.949   188214073.491        -555.333          40.000  
G20  18912372.383    99385183.999        -203.641          46.000  
E 1  23477110.524   123373101.795        1848.941          44.000  
J 3  36506761.759   191844321.507        -486.025          35.000  
G25  22372704.535   117569344.288        3321.838          39.000  
G24  18730172.925    98427751.976       -1578.564          49.000  
E21  22415830.620   117796030.003        -771.845          48.000  
E11                                                                
G32                                                                
> 2020  1 16  2 22 14.1950000  0 37                     
E27  25308435.132   132996750.228       -3058.315          41.000  
E19  22009743.892   115661997.385        -640.977          40.000  
G15  20338502.847   106879547.652       -2528.820          46.000  
J 1  36589338.640   192278271.280         120.292          47.000  
G21  22606736.019   118799180.006       -2628.671          39.000  
C 9  36637883.265   190783048.165        -177.250          45.000  
C22  20762941.282   108118050.475       -1843.443          51.000  
C 7  38111480.833   198456484.380         877.208          38.000  
C 8  38127934.772   198542142.889       -2688.191          35.000  
C 6  35361463.312   184136413.863        -196.284          46.000  
C19  24279888.203   126431681.969       -3542.022          40.000  
R 8  22598753.813   121015250.340       -4031.727          42.000  
R11  19260302.689   102921294.783       -3573.498          49.000  
R 2  18403165.215    98202849.542        1588.957          52.000  
R12  17690004.667    94496894.932          91.960          52.000  
G10  20638735.439   108457304.061        1997.129          46.000  
J 2  35807704.858   188170748.226       -1029.808          46.000  
G13  22943641.663   120569600.502       -3122.374          35.000  
E20  19083111.846   100282417.204       -2324.461          38.000  
G12  20201924.633   106161901.721        2183.471          49.000  
E12  24966895.479   131201876.675       -2974.883          35.000  
C16  35602608.226   185392122.392        -184.909          49.000  
C13  37395893.792   194730206.492       -2536.316          42.000  
R 1  19055203.314   101860969.992       -2606.517          49.000  
R 3  22334420.713   119557966.683        3156.452          37.000  
R13  20751544.197   110812091.356        3328.530          35.000  
R10  22760041.582   121409232.140       -4800.781          37.000  
E 4  24070125.754   126489348.343        1418.083          46.000  
J 7  35815970.117   188214184.575        -555.389          40.000  
G20  18912380.091    99385224.741        -203.569          47.000  
E 1  23477040.302   123372732.023        1848.977          44.000  
J 3  36506780.278   191844418.668        -485.607          35.000  
G25  22372578.148   117568679.969        3321.796          40.000  
G24  18730232.980    98428067.702       -1578.689          49.000  
E21  22415859.971   117796184.419        -772.009          48.000  
E11                                                                
G32                                                                
> 2020  1 16  2 22 14.3950000  0 37                     
E27  25308551.469   132997361.863       -3058.249          41.000  
E19  22009768.269   115662125.548        -640.915          40.000  
G15  20338599.090   106880053.444       -2528.882          46.000  
J 1  36589334.071   192278247.250         120.072          47.000  
G21  22606836.044   118799705.755       -2628.816          39.000  
C 9  36637890.034   190783083.605        -177.317          45.000  
C22  20763012.044   108118419.193       -1843.765          51.000  
C 7  38111447.180   198456308.987         876.775          38.000  
C 8  38128038.014   198542680.435       -2688.111          35.000  
C 6  35361470.851   184136453.144        -196.348          46.000  
C19  24280024.219   126432390.324       -3541.781          40.000  
R 8  22598904.407   121016056.692       -4031.924          42.000  
R11  19260436.384   102922009.520       -3573.803          49.000  
R 2  18403105.660    98202531.783        1588.673          52.000  
R12  17690001.254    94496876.576          91.584          52.000  
G10  20638659.446   108456904.641        1997.099          46.000  
J 2  35807744.078   188170954.214       -1030.100          46.000  
G13  22943760.546   120570225.017       -3122.443          35.000  
E20  19083200.275   100282882.108       -2324.740          38.000  
G12  20201841.554   106161465.046        2183.275          49.000  
E12  24967008.798   131202471.714       -2975.264          35.000  
C16  35602615.265   185392159.384        -185.068          49.000  
C13  37395991.253   194730713.774       -2536.414          42.000  
R 1  19055300.834   101861491.336       -2606.813          49.000  
R 3  22334302.758   119557335.457        3156.189          37.000  
R13  20751419.531   110811425.666        3328.699          35.000  
R10  22760221.554   121410192.279       -4800.900          37.000  
E 4  24070071.823   126489064.708        1418.057          46.000  
J 7  35815991.279   188214295.635        -555.898          40.000  
G20  18912387.836    99385265.499        -203.976          47.000  
E 1  23476969.834   123372362.249        1848.909          44.000  
J 3  36506798.743   191844515.807        -485.629          35.000  
G25  22372451.742   117568015.627        3321.631          40.000  
G24  18730293.005    98428383.424       -1578.713          49.000  
E21  22415889.501   117796338.823        -772.157          48.000  
E11                                                                
G32                                                                
> 2020  1 16  2 22 14.5950000  0 37                     
E27  25308667.900   132997973.520       -3058.307          41.000  
E19  22009792.639   115662253.744        -640.976          40.000  
G15  20338695.321   106880559.258       -2529.219          46.000  
J 1  36589329.457   192278223.214         120.179          47.000  
G21  22606936.103   118800231.504       -2628.722          39.000  
C 9  36637896.899   190783119.056        -177.220          45.000  
C22  20763082.833   108118787.924       -1843.794          51.000  
C 7  38111413.453   198456133.566         877.200          38.000  
C 8  38128141.276   198543217.982       -2687.172          34.000  
C 6  35361478.437   184136492.432        -196.312          46.000  
C19  24280160.225   126433098.702       -3542.048          40.000  
R 8  22599054.997   121016863.050       -4031.821          42.000  
R11  19260570.146   102922724.281       -3573.871          49.000  
R 2  18403046.137    98202214.035        1588.619          51.000  
R12  17689997.825    94496858.250          91.524          52.000  
G10  20638583.456   108456505.259        1996.780          46.000  
J 2  35807783.280   188171160.191       -1029.955          46.000  
G13  22943879.362   120570849.535       -3122.512          35.000  
E20  19083288.750   100283346.976       -2324.355          37.000  
G12  20201758.432   106161028.388        2183.171          49.000  
E12  24967122.051   131203066.701       -2974.929          35.000  
C16  35602622.448   185392196.365        -184.957          49.000  
C13  37396088.688   194731221.059       -2536.444          42.000  
R 1  19055398.334   101862012.698       -2606.855          49.000  
R 3  22334184.883   119556704.239        3156.104          37.000  
R13  20751294.854   110810759.985        3328.342          35.000  
R10  22760401.571   121411152.445       -4801.123          37.000  
E 4  24070017.837   126488781.079        1418.041          46.000  
J 7  35816012.408   188214406.668        -555.289          40.000  
G20  18912395.566    99385306.277        -203.980          47.000  
E 1  23476899.480   123371992.502        1848.723          44.000  
J 3  36506817.271   191844612.969        -485.753          35.000  
G25  22372325.358   117567351.287        3321.771          40.000  
G24  18730353.127    98428699.175       -1578.841          49.000  
E21  22415918.785   117796493.252        -772.201          48.000  
E11                                                                
G32                                                                
> 2020  1 16  2 22 17.5950000  0 37                     
E27  25310413.882   133007148.930       -3058.832          41.000  
E19  22010158.714   115664177.161        -641.460          40.000  
G15  20340139.342   106888147.129       -2530.022          46.000  
J 1  36589260.905   192277862.352         120.062          47.000  
G21  22608436.881   118808118.082       -2629.358          39.000  
C 9  36637999.104   190783650.140        -177.266          45.000  
C22  20764145.324   108124320.543       -1845.082          51.000  
C 7  38110907.991   198453502.323         876.751          38.000  
C 8  38129689.856   198551281.008       -2687.339          35.000  
C 6  35361591.444   184137081.116        -196.459          46.000  
C19  24282200.762   126443724.663       -3542.191          41.000  
R 8  22601314.097   121028959.312       -4032.765          42.000  
R11  19262576.962   102933447.491       -3575.311          48.000  
R 2  18402153.344    98197449.291        1587.472          52.000  
R12  17689947.135    94496586.942          88.930          52.000  
G10  20637443.692   108450515.878        1995.581          46.000  
J 2  35808371.230   188174249.912       -1030.349          46.000  
G13  22945662.327   120580217.272       -3122.743          35.000  
E20  19084615.438   100290320.922       -2325.474          37.000  
G12  20200512.238   106154480.275        2181.750          49.000  
E12  24968820.351   131211991.336       -2975.296          35.000  
C16  35602728.763   185392750.561        -184.881          49.000  
C13  37397549.914   194738830.288       -2536.652          42.000  
R 1  19056861.698   101869835.325       -2608.604          49.000  
R 3  22332415.992   119547234.784        3156.128          37.000  
R13  20749424.665   110800776.066        3327.238          35.000  
R10  22763101.560   121425554.381       -4800.679          38.000  
E 4  24069208.013   126484526.472        1417.871          46.000  
J 7  35816329.345   188216072.095        -555.039          40.000  
G20  18912512.412    99385920.754        -206.139          47.000  
E 1  23475844.325   123366447.192        1847.672          44.000  
J 3  36507094.468   191846069.400        -485.632          35.000  
G25  22370429.290   117557386.143        3320.947          39.000  
G24  18731254.737    98433436.944       -1580.167          49.000  
E21  22416359.976   117798811.519        -773.673          48.000  
E11                                                                
G32                                                                
> 2020  1 16  2 22 17.7950000  0 37                     
E27  25310530.234   133007760.656       -3058.419          41.000  
E19  22010183.131   115664305.425        -641.259          40.000  
G15  20340235.640   106888653.017       -2529.463          46.000  
J 1  36589256.279   192277838.246         120.662          47.000  
G21  22608536.942   118808643.853       -2628.985          39.000  
C 9  36638005.887   190783685.471        -176.718          45.000  
C22  20764216.193   108124689.471       -1844.650          51.000  
C 7  38110874.331   198453326.841         877.683          38.000  
C 8  38129793.067   198551818.518       -2687.122          35.000  
C 6  35361598.980   184137120.280        -195.664          46.000  
C19  24282336.829   126444433.052       -3541.567          41.000  
R 8  22601464.685   121029765.734       -4032.010          43.000  
R11  19262710.705   102934162.476       -3574.982          48.000  
R 2  18402093.829    98197131.720        1587.885          52.000  
R12  17689943.790    94496569.059          89.409          52.000  
G10  20637367.697   108450116.660        1996.133          46.000  
J 2  35808410.454   188174455.860       -1029.790          46.000  
G13  22945781.164   120580841.761       -3122.594          35.000  
E20  19084703.951   100290785.839       -2324.309          37.000  
G12  20200429.169   106154043.825        2182.309          49.000  
E12  24968933.569   131212586.263       -2974.819          34.000  
C16  35602735.895   185392787.445        -184.374          49.000  
C13  37397647.279   194739337.542       -2536.182          42.000  
R 1  19056959.282   101870356.950       -2608.100          49.000  
R 3  22332298.030   119546603.390        3156.915          37.000  
R13  20749300.058   110800110.554        3327.654          35.000  
R10  22763281.550   121426514.466       -4800.134          38.000  
E 4  24069153.909   126484242.794        1418.575          46.000  
J 7  35816350.462   188216183.080        -554.544          40.000  
G20  18912520.259    99385961.875        -205.542          47.000  
E 1  23475773.887   123366077.543        1848.370          44.000  
J 3  36507112.922   191846166.390        -484.882          35.000  
G25  22370302.907   117556721.748        3321.832          39.000  
G24  18731314.840    98433752.878       -1579.632          49.000  
E21  22416389.298   117798966.173        -773.303          48.000  
E11                                                                
G32                                                                
> 2020  1 16  2 22 17.9950000  0 37                     
E27  25310646.671   133008372.369       -3058.538          41.000  
E19  22010207.425   115664433.650        -641.164          40.000  
G15  20340331.909   106889158.890       -2529.343          46.000  
J 1  36589251.652   192277814.137         120.393          47.000  
G21  22608636.997   118809169.612       -2629.045          39.000  
C 9  36638012.702   190783720.792        -176.525          45.000  
C22  20764287.037   108125058.402       -1844.773          51.000  
C 7  38110840.708   198453151.398         877.309          38.000  
C 8  38129896.290   198552356.002       -2687.757          35.000  
C 6  35361606.525   184137159.456        -195.870          46.000  
C19  24282472.887   126445141.459       -3541.872          41.000  
R 8  22601615.287   121030572.177       -4032.260          43.000  
R11  19262844.476   102934877.470       -3575.110          49.000  
R 2  18402034.312    98196814.152        1587.733          52.000  
R12  17689940.429    94496551.205          89.184          52.000  
G10  20637291.730   108449717.463        1995.870          46.000  
J 2  35808449.603   188174661.800       -1029.717          46.000  
G13  22945900.002   120581466.229       -3122.201          35.000  
E20  19084792.424   100291250.783       -2324.935          37.000  
G12  20200346.139   106153607.388        2182.121          49.000  
E12  24969046.783   131213181.156       -2974.769          34.000  
C16  35602743.012   185392824.316        -184.345          49.000  
C13  37397744.718   194739844.776       -2536.310          42.000  
R 1  19057056.842   101870878.594       -2608.371          49.000  
R 3  22332180.088   119545972.010        3156.744          37.000  
R13  20749175.448   110799445.027        3327.267          35.000  
R10  22763461.561   121427474.525       -4799.985          38.000  
E 4  24069100.058   126483959.107        1418.361          46.000  
J 7  35816371.614   188216294.052        -554.717          40.000  
G20  18912528.082    99386003.018        -205.824          47.000  
E 1  23475703.598   123365707.904        1848.167          44.000  
J 3  36507131.348   191846263.422        -485.027          35.000  
G25  22370176.504   117556057.373        3321.832          39.000  
G24  18731375.005    98434068.824       -1579.731          49.000  
E21  22416418.774   117799120.829        -773.458          48.000  
E11                                                                
G32                                                                
> 2020  1 16  2 22 18.1950000  0 37                     
E27  25310763.081   133008984.121       -3058.676          41.000  
E19  22010231.839   115664561.937        -641.218          40.000  
G15  20340428.177   106889664.825       -2529.673          46.000  
J 1  36589247.107   192277790.036         120.607          47.000  
G21  22608737.042   118809695.404       -2629.244          39.000  
C 9  36638019.513   190783756.142        -176.646          45.000  
C22  20764357.884   108125427.376       -1844.797          51.000  
C 7  38110807.046   198452975.951         877.485          38.000  
C 8  38129999.555   198552893.496       -2687.543          35.000  
C 6  35361614.062   184137198.645        -195.957          46.000  
C19  24282609.018   126445849.890       -3542.170          41.000  
R 8  22601765.880   121031378.641       -4032.086          43.000  
R11  19262978.228   102935592.514       -3575.153          49.000  
R 2  18401974.768    98196496.625        1587.653          52.000  
R12  17689937.084    94496533.410          88.938          52.000  
G10  20637215.797   108449318.297        1995.752          46.000  
J 2  35808488.837   188174867.777       -1029.678          46.000  
G13  22946018.851   120582090.790       -3123.000          35.000  
E20  19084880.874   100291715.748       -2324.947          37.000  
G12  20200263.088   106153170.999        2181.882          49.000  
E12  24969159.927   131213776.062       -2974.380          34.000  
C16  35602750.024   185392861.210        -184.457          49.000  
C13  37397842.101   194740352.035       -2536.273          42.000  
R 1  19057154.474   101871400.278       -2608.300          49.000  
R 3  22332062.157   119545340.643        3156.702          37.000  
R13  20749050.862   110798779.535        3327.553          35.000  
R10  22763641.573   121428434.633       -4800.307          38.000  
E 4  24069046.025   126483675.454        1418.351          46.000  
J 7  35816392.757   188216405.049        -554.684          40.000  
G20  18912535.910    99386044.212        -205.945          47.000  
E 1  23475633.192   123365338.313        1847.890          44.000  
J 3  36507149.802   191846360.452        -485.002          35.000  
G25  22370050.086   117555393.018        3321.771          39.000  
G24  18731435.176    98434384.807       -1579.933          49.000  
E21  22416448.081   117799275.531        -773.499          48.000  
E11                                                                
G32                                                                
> 2020  1 16  2 22 18.3950000  0 37                     
E27  25310879.625   133009595.855       -3059.028          41.000  
E19  22010256.246   115664690.205        -641.578          40.000  
G15  20340524.426   106890170.727       -2529.994          46.000  
J 1  36589242.567   192277765.928         120.332          47.000  
G21  22608837.082   118810221.155       -2628.941          39.000  
C 9  36638026.219   190783791.460        -176.962          45.000  
C22  20764428.694   108125796.342       -1845.154          51.000  
C 7  38110773.363   198452800.507         876.871          38.000  
C 8  38130102.783   198553430.967       -2687.776          35.000  
C 6  35361621.574   184137237.804        -196.039          46.000  
C19  24282744.992   126446558.287       -3542.382          41.000  
R 8  22601916.495   121032185.102       -4032.606          43.000  
R11  19263112.014   102936307.551       -3575.616          49.000  
R 2  18401915.273    98196179.089        1587.380          52.000  
R12  17689933.705    94496515.620          88.514          52.000  
G10  20637139.849   108448919.126        1995.431          46.000  
J 2  35808528.074   188175073.725       -1029.990          46.000  
G13  22946137.692   120582715.264       -3123.017          35.000  
E20  19084969.378   100292180.691       -2325.166          37.000  
G12  20200180.034   106152734.589        2181.698          49.000  
E12  24969273.044   131214370.939       -2974.132          34.000  
C16  35602757.172   185392898.073        -184.570          49.000  
C13  37397939.484   194740859.286       -2536.554          42.000  
R 1  19057252.107   101871921.975       -2608.867          49.000  
R 3  22331944.190   119544709.238        3156.470          37.000  
R13  20748926.206   110798114.033        3327.453          35.000  
R10  22763821.578   121429394.701       -4800.635          38.000  
E 4  24068992.143   126483391.772        1418.148          46.000  
J 7  35816413.897   188216516.023        -555.325          40.000  
G20  18912543.771    99386085.405        -206.346          46.000  
E 1  23475562.924   123364968.682        1847.972          44.000  
J 3  36507168.286   191846457.460        -485.397          35.000  
G25  22369923.683   117554728.634        3321.649          39.000  
G24  18731495.325    98434700.784       -1580.233          49.000  
E21  22416477.676   117799430.226        -773.825          48.000  
E11                                                                
G32                                                                
> 2020  1 16  2 22 18.5950000  0 37                     
E27  25310996.046   133010207.586       -3058.289          41.000  
E19  22010280.555   115664818.494        -641.205          40.000  
G15  20340620.679   106890676.622       -2529.080          46.000  
J 1  36589237.959   192277741.815         120.768          47.000  
G21  22608937.133   118810746.921       -2628.183          39.000  
C 9  36638032.975   190783826.765        -176.072          45.000  
C22  20764499.600   108126165.323       -1844.653          51.000  
C 7  38110739.680   198452625.036         877.251          38.000  
C 8  38130205.937   198553968.445       -2687.047          35.000  
C 6  35361629.116   184137276.972        -195.545          46.000  
C19  24282881.086   126447266.693       -3541.587          41.000  
R 8  22602067.098   121032991.573       -4032.055          43.000  
R11  19263245.813   102937022.610       -3575.036          49.000  
R 2  18401855.754    98195861.575        1587.800          52.000  
R12  17689930.386    94496497.866          88.935          52.000  
G10  20637063.859   108448519.974        1996.019          46.000  
J 2  35808567.222   188175279.679       -1029.407          46.000  
G13  22946256.499   120583339.742       -3122.246          35.000  
E20  19085057.804   100292645.625       -2324.515          37.000  
G12  20200096.970   106152298.214        2182.113          49.000  
E12  24969386.171   131214965.863       -2974.153          34.000  
C16  35602764.259   185392934.941        -184.020          49.000  
C13  37398036.900   194741366.533       -2535.999          42.000  
R 1  19057349.734   101872443.682       -2608.441          49.000  
R 3  22331826.158   119544077.799        3157.910          37.000  
R13  20748801.597   110797448.570        3327.546          35.000  
R10  22764001.568   121430354.770       -4800.011          38.000  
E 4  24068938.078   126483108.091        1418.709          46.000  
J 7  35816435.028   188216626.995        -554.622          40.000  
G20  18912551.599    99386126.624        -205.826          46.000  
E 1  23475492.512   123364599.094        1848.166          44.000  
J 3  36507186.728   191846554.455        -484.646          35.000  
G25  22369797.247   117554064.258        3322.186          39.000  
G24  18731555.454    98435016.772       -1579.657          49.000  
E21  22416506.918   117799584.944        -773.352          48.000  
E11                                                                
G32                                                                
> 2020  1 16  2 22 18.7950000  0 37                     
E27  25311112.501   133010819.334       -3058.940          41.000  
E19  22010304.911   115664946.751        -641.302          40.000  
G15  20340716.939   106891182.558       -2529.525          46.000  
J 1  36589233.300   192277717.703         120.457          47.000  
G21  22609037.203   118811272.736       -2628.959          39.000  
C 9  36638039.714   190783862.092        -176.492          45.000  
C22  20764570.410   108126534.331       -1845.207          51.000  
C 7  38110705.978   198452449.574         877.058          38.000  
C 8  38130309.181   198554505.940       -2687.706          35.000  
C 6  35361636.601   184137316.140        -195.925          46.000  
C19  24283017.156   126447975.123       -3542.158          41.000  
R 8  22602217.731   121033798.047       -4032.470          43.000  
R11  19263379.650   102937737.694       -3575.500          49.000  
R 2  18401796.242    98195544.078        1587.374          52.000  
R12  17689927.074    94496480.150          88.451          52.000  
G10  20636987.875   108448120.840        1995.521          46.000  
J 2  35808606.449   188175485.650       -1029.894          46.000  
G13  22946375.337   120583964.227       -3122.413          35.000  
E20  19085146.266   100293110.614       -2325.263          37.000  
G12  20200013.932   106151861.854        2181.607          49.000  
E12  24969499.380   131215560.768       -2974.598          34.000  
C16  35602771.289   185392971.809        -184.424          49.000  
C13  37398134.344   194741873.802       -2536.462          42.000  
R 1  19057447.337   101872965.417       -2608.834          49.000  
R 3  22331708.197   119543446.433        3157.196          37.000  
R13  20748676.922   110796783.086        3327.379          35.000  
R10  22764181.552   121431314.850       -4800.486          38.000  
E 4  24068884.184   126482824.417        1418.230          46.000  
J 7  35816456.149   188216737.964        -555.062          40.000  
G20  18912559.459    99386167.876        -206.435          46.000  
E 1  23475422.226   123364229.502        1847.803          44.000  
J 3  36507205.196   191846651.461        -485.073          35.000  
G25  22369670.790   117553399.896        3321.692          39.000  
G24  18731615.553    98435332.782       -1580.160          49.000  
E21  22416536.501   117799739.678        -773.869          48.000  
E11                                                                
G32                                                                
> 2020  1 16  2 22 18.9950000  0 37                     
E27  25311228.965   133011431.116       -3059.186          41.000  
E19  22010329.345   115665075.086        -641.729          40.000  
G15  20340813.221   106891688.523       -2530.044          46.000  
J 1  36589228.743   192277693.611         120.247          47.000  
G21  22609137.252   118811798.547       -2629.260          39.000  
C 9  36638046.425   190783897.425        -176.967          45.000  
C22  20764641.243   108126903.364       -1845.424          51.000  
C 7  38110672.331   198452274.111         877.242          38.000  
C 8  38130412.467   198555043.413       -2687.381          35.000  
C 6  35361644.145   184137355.315        -196.025          46.000  
C19  24283153.203   126448683.578       -3542.579          41.000  
R 8  22602368.353   121034604.547       -4032.647          43.000  
R11  19263513.428   102938452.807       -3575.909          49.000  
R 2  18401736.764    98195226.613        1587.134          52.000  
R12  17689923.850    94496462.486          87.950          52.000  
G10  20636911.965   108447721.733        1995.370          46.000  
J 2  35808645.640   188175691.632       -1030.167          46.000  
G13  22946494.216   120584588.733       -3122.477          35.000  
E20  19085234.786   100293575.580       -2324.851          37.000  
G12  20199930.924   106151425.518        2181.412          50.000  
E12  24969612.553   131216155.701       -2974.773          34.000  
C16  35602778.474   185393008.689        -184.644          49.000  
C13  37398231.779   194742381.071       -2536.633          42.000  
R 1  19057544.962   101873487.181       -2609.079          49.000  
R 3  22331590.204   119542815.054        3156.769          37.000  
R13  20748552.359   110796117.684        3326.963          36.000  
R10  22764361.530   121432274.947       -4800.703          38.000  
E 4  24068830.210   126482540.758        1418.145          46.000  
J 7  35816477.265   188216848.953        -555.145          40.000  
G20  18912567.312    99386209.165        -206.631          47.000  
E 1  23475351.902   123363859.950        1847.564          44.000  
J 3  36507223.672   191846748.483        -485.542          35.000  
G25  22369544.408   117552735.542        3321.399          39.000  
G24  18731675.742    98435648.829       -1580.381          49.000  
E21  22416565.941   117799894.448        -774.066          48.000  
E11                                                                
G32                                                                
> 2020  1 16  2 22 19.1950000  0 37                     
E27  25311345.591   133012042.881       -3059.030          41.000  
E19  22010353.874   115665203.386        -641.731          40.000  
G15  20340909.523   106892194.460       -2530.174          46.000  
J 1  36589224.205   192277669.496         120.187          47.000  
G21  22609237.316   118812324.356       -2629.532          39.000  
C 9  36638053.138   190783932.743        -176.824          45.000  
C22  20764712.083   108127272.401       -1845.528          52.000  
C 7  38110638.622   198452098.672         876.951          38.000  
C 8  38130515.696   198555580.914       -2687.700          35.000  
C 6  35361651.616   184137394.470        -196.063          46.000  
C19  24283289.309   126449391.997       -3542.346          41.000  
R 8  22602518.961   121035411.054       -4032.906          43.000  
R11  19263647.261   102939167.920       -3575.983          49.000  
R 2  18401677.309    98194909.148        1586.995          52.000  
R12  17689920.520    94496444.835          87.771          52.000  
G10  20636835.993   108447322.642        1995.062          46.000  
J 2  35808684.829   188175897.590       -1030.096          46.000  
G13  22946613.070   120585213.248       -3122.850          35.000  
E20  19085323.298   100294040.541       -2324.738          37.000  
G12  20199847.915   106150989.192        2181.257          50.000  
E12  24969725.659   131216750.571       -2974.648          34.000  
C16  35602785.428   185393045.552        -184.680          49.000  
C13  37398329.207   194742888.328       -2536.792          42.000  
R 1  19057642.581   101874008.963       -2609.313          49.000  
R 3  22331472.201   119542183.631        3156.696          37.000  
R13  20748427.760   110795452.247        3326.949          36.000  
R10  22764541.530   121433235.025       -4800.993          38.000  
E 4  24068776.195   126482257.078        1418.255          46.000  
J 7  35816498.387   188216959.928        -555.423          40.000  
G20  18912575.210    99386250.469        -206.858          47.000  
E 1  23475281.525   123363490.378        1847.562          44.000  
J 3  36507242.102   191846845.459        -485.051          35.000  
G25  22369418.003   117552071.184        3321.552          39.000  
G24  18731735.908    98435964.876       -1580.662          49.000  
E21  22416595.426   117800049.218        -774.095          48.000  
E11                                                                
G32                                                                
> 2020  1 16  2 22 19.3950000  0 37                     
E27  25311461.941   133012654.674       -3058.858          41.000  
E19  22010378.209   115665331.726        -641.779          40.000  
G15  20341005.805   106892700.443       -2529.917          46.000  
J 1  36589219.604   192277645.402         120.589          47.000  
G21  22609337.391   118812850.155       -2628.923          39.000  
C 9  36638059.948   190783968.076        -176.680          45.000  
C22  20764782.971   108127641.470       -1845.268          52.000  
C 7  38110604.908   198451923.226         877.227          38.000  
C 8  38130618.897   198556118.367       -2686.988          35.000  
C 6  35361659.252   184137433.649        -195.875          46.000  
C19  24283425.361   126450100.462       -3542.102          41.000  
R 8  22602669.628   121036217.568       -4032.582          43.000  
R11  19263781.065   102939883.073       -3575.763          49.000  
R 2  18401617.829    98194591.714        1587.225          52.000  
R12  17689917.205    94496427.233          88.037          52.000  
G10  20636760.045   108446923.573        1995.320          46.000  
J 2  35808724.033   188176103.584       -1029.862          46.000  
G13  22946731.896   120585837.783       -3122.521          35.000  
E20  19085411.808   100294505.549       -2324.586          38.000  
G12  20199764.901   106150552.903        2181.428          50.000  
E12  24969838.931   131217345.484       -2974.278          34.000  
C16  35602792.605   185393082.428        -184.343          49.000  
C13  37398426.676   194743395.601       -2536.169          42.000  
R 1  19057740.192   101874530.774       -2608.972          49.000  
R 3  22331354.217   119541552.245        3156.982          37.000  
R13  20748303.182   110794786.864        3326.737          36.000  
R10  22764721.525   121434195.104       -4800.399          38.000  
E 4  24068722.279   126481973.435        1418.271          46.000  
J 7  35816519.500   188217070.915        -554.885          40.000  
G20  18912583.062    99386291.820        -206.714          47.000  
E 1  23475211.144   123363120.861        1847.576          44.000  
J 3  36507260.548   191846942.454        -484.536          35.000  
G25  22369291.588   117551406.833        3321.814          39.000  
G24  18731796.036    98436280.953       -1580.378          49.000  
E21  22416624.865   117800204.031        -773.912          48.000  
E11                                                                
G32                                                                
> 2020  1 16  2 22 21.9950000  0 37                     
E27  25312975.664   133020608.499       -3059.496          42.000  
E19  22010695.835   115667000.541        -642.409          40.000  
G15  20342257.608   106899278.752       -2530.828          46.000  
J 1  36589159.893   192277331.942         120.224          47.000  
G21  22610638.127   118819686.094       -2629.616          39.000  
C 9  36638148.158   190784426.878        -176.850          45.000  
C22  20765704.674   108132440.646       -1846.726          52.000  
C 7  38110166.862   198449642.343         877.208          38.000  
C 8  38131960.850   198563105.523       -2687.505          35.000  
C 6  35361757.097   184137942.443        -195.960          46.000  
C19  24285194.181   126459310.710       -3542.576          41.000  
R 8  22604627.903   121046702.990       -4033.481          44.000  
R11  19265521.002   102949181.556       -3577.332          48.000  
R 2  18400844.747    98190466.294        1585.804          52.000  
R12  17689874.777    94496201.136          85.598          52.000  
G10  20635773.118   108441736.919        1993.922          46.000  
J 2  35809233.549   188178781.395       -1030.303          46.000  
G13  22948276.746   120593956.595       -3123.031          35.000  
E20  19086562.583   100300550.956       -2325.333          37.000  
G12  20198685.839   106144882.516        2179.958          50.000  
E12  24971310.592   131225078.967       -2974.567          34.000  
C16  35602884.478   185393561.396        -184.384          49.000  
C13  37399693.513   194749990.325       -2536.902          42.000  
R 1  19059009.461   101881316.038       -2610.748          49.000  
R 3  22329820.792   119533343.570        3156.757          36.000  
R13  20746683.416   110786137.748        3325.724          36.000  
R10  22767061.295   121446676.049       -4800.890          37.000  
E 4  24068020.461   126478285.828        1418.152          46.000  
J 7  35816793.847   188218513.509        -555.355          40.000  
G20  18912685.811    99386831.456        -208.684          46.000  
E 1  23474297.323   123358317.754        1846.672          44.000  
J 3  36507500.439   191848203.077        -484.954          35.000  
G25  22367648.189   117542770.320        3321.307          39.000  
G24  18732578.211    98440391.212       -1581.655          49.000  
E21  22417008.262   117802217.980        -775.354          48.000  
E11                                                                
G32                                                                
> 2020  1 16  2 22 22.1950000  0 37                     
E27  25313092.023   133021220.452       -3059.394          42.000  
E19  22010720.208   115667129.023        -642.185          40.000  
G15  20342353.944   106899784.887       -2530.403          46.000  
J 1  36589155.301   192277307.869         120.772          47.000  
G21  22610738.223   118820212.029       -2629.151          39.000  
C 9  36638154.935   190784462.182        -176.266          45.000  
C22  20765775.667   108132809.968       -1846.277          52.000  
C 7  38110133.174   198449466.929         877.739          38.000  
C 8  38132064.084   198563643.029       -2687.406          35.000  
C 6  35361764.577   184137981.606        -195.580          46.000  
C19  24285330.320   126460019.280       -3542.455          41.000  
R 8  22604778.536   121047509.668       -4033.003          44.000  
R11  19265654.904   102949897.003       -3576.977          48.000  
R 2  18400785.298    98190149.102        1586.301          52.000  
R12  17689871.586    94496184.010          85.863          52.000  
G10  20635697.231   108441338.104        1994.357          46.000  
J 2  35809272.713   188178987.448       -1029.939          46.000  
G13  22948395.568   120594581.168       -3123.268          35.000  
E20  19086651.020   100301016.103       -2325.202          37.000  
G12  20198602.869   106144446.500        2180.267          50.000  
E12  24971423.790   131225673.895       -2974.055          34.000  
C16  35602891.671   185393598.264        -183.960          49.000  
C13  37399790.890   194750497.671       -2536.420          42.000  
R 1  19059107.147   101881838.171       -2610.435          49.000  
R 3  22329702.757   119532712.145        3157.422          36.000  
R13  20746558.881   110785472.609        3325.786          36.000  
R10  22767241.293   121447636.153       -4799.751          37.000  
E 4  24067966.498   126478002.238        1418.186          46.000  
J 7  35816814.897   188218624.531        -555.083          40.000  
G20  18912693.766    99386873.192        -208.420          46.000  
E 1  23474227.070   123357948.413        1846.981          44.000  
J 3  36507518.908   191848300.061        -484.734          35.000  
G25  22367521.773   117542106.018        3322.034          38.000  
G24  18732638.399    98440707.540       -1581.385          49.000  
E21  22417037.740   117802373.083        -775.290          48.000  
E11                                                                
G32                                                                
> 2020  1 16  2 22 22.3950000  0 37                     
E27  25313208.495   133021832.388       -3059.927          42.000  
E19  22010744.715   115667257.492        -642.457          40.000  
G15  20342450.254   106900291.022       -2530.770          46.000  
J 1  36589150.810   192277283.802         120.206          47.000  
G21  22610838.326   118820737.954       -2629.820          39.000  
C 9  36638161.710   190784497.496        -176.538          45.000  
C22  20765846.560   108133179.313       -1846.890          52.000  
C 7  38110099.445   198449291.560         876.775          38.000  
C 8  38132167.286   198564180.542       -2687.686          35.000  
C 6  35361772.146   184138020.765        -195.939          46.000  
C19  24285466.382   126460727.846       -3542.947          41.000  
R 8  22604929.192   121048316.359       -4033.689          44.000  
R11  19265788.754   102950612.477       -3577.575          48.000  
R 2  18400725.827    98189831.932        1585.714          52.000  
R12  17689868.409    94496166.919          85.301          52.000  
G10  20635621.361   108440939.312        1993.776          46.000  
J 2  35809311.939   188179193.494       -1030.287          46.000  
G13  22948514.431   120595205.743       -3122.716          35.000  
E20  19086739.515   100301481.225       -2325.673          37.000  
G12  20198519.943   106144010.504        2179.856          50.000  
E12  24971536.978   131226268.837       -2975.181          34.000  
C16  35602898.670   185393635.128        -184.429          49.000  
C13  37399888.304   194751005.022       -2537.012          42.000  
R 1  19059204.780   101882360.322       -2610.902          49.000  
R 3  22329584.807   119532080.720        3157.257          36.000  
R13  20746434.329   110784807.418        3325.495          36.000  
R10  22767421.313   121448596.291       -4800.706          37.000  
E 4  24067912.600   126477718.617        1417.831          46.000  
J 7  35816836.038   188218735.551        -555.511          40.000  
G20  18912701.734    99386914.956        -208.998          46.000  
E 1  23474156.807   123357579.078        1846.446          44.000  
J 3  36507537.407   191848397.034        -485.014          35.000  
G25  22367395.374   117541441.754        3321.143          38.000  
G24  18732698.591    98441023.888       -1581.919          49.000  
E21  22417067.244   117802528.182        -775.700          48.000  
E11                                                                
G32                                                                
> 2020  1 16  2 22 22.5950000  0 37                     
E27  25313324.882   133022444.299       -3059.500          42.000  
E19  22010769.199   115667385.945        -642.437          40.000  
G15  20342546.562   106900797.122       -2530.512          46.000  
J 1  36589146.274   192277259.681         120.616          47.000  
G21  22610938.390   118821263.840       -2629.488          38.000  
C 9  36638168.503   190784532.771        -176.394          45.000  
C22  20765917.512   108133548.624       -1846.685          52.000  
C 7  38110065.740   198449116.101         877.313          38.000  
C 8  38132270.526   198564718.035       -2687.785          35.000  
C 6  35361779.634   184138059.878        -195.643          46.000  
C19  24285602.452   126461436.379       -3542.799          41.000  
R 8  22605079.902   121049123.003       -4033.248          44.000  
R11  19265922.589   102951327.917       -3577.386          48.000  
R 2  18400666.422    98189514.726        1585.938          52.000  
R12  17689865.241    94496149.811          85.441          52.000  
G10  20635545.463   108440540.475        1994.042          46.000  
J 2  35809351.105   188179399.502       -1030.087          46.000  
G13  22948633.283   120595830.290       -3122.491          35.000  
E20  19086828.071   100301946.320       -2325.086          37.000  
G12  20198436.973   106143574.472        2180.120          50.000  
E12  24971650.091   131226863.662       -2974.330          34.000  
C16  35602905.762   185393671.950        -184.015          49.000  
C13  37399985.704   194751512.319       -2536.536          42.000  
R 1  19059302.428   101882882.451       -2610.726          49.000  
R 3  22329466.840   119531449.248        3157.312          36.000  
R13  20746309.730   110784142.233        3325.899          36.000  
R10  22767601.294   121449556.381       -4800.851          37.000  
E 4  24067858.515   126477434.963        1418.325          46.000  
J 7  35816857.128   188218846.509        -555.042          40.000  
G20  18912709.674    99386956.700        -208.865          46.000  
E 1  23474086.517   123357209.715        1846.849          44.000  
J 3  36507555.915   191848493.974        -484.557          35.000  
G25  22367268.959   117540777.420        3321.429          38.000  
G24  18732758.786    98441340.207       -1581.617          49.000  
E21  22417096.725   117802683.267        -775.395          48.000  
E11                                                                
G32                                                                
> 2020  1 16  2 22 22.7950000  0 37                     
E27  25313441.352   133023056.231       -3059.576          42.000  
E19  22010793.570   115667514.408        -642.240          40.000  
G15  20342642.867   106901303.264       -2530.606          46.000  
J 1  36589141.568   192277235.588         120.539          47.000  
G21  22611038.461   118821789.730       -2629.080          39.000  
C 9  36638175.294   190784568.056        -176.385          45.000  
C22  20765988.444   108133917.972       -1846.682          52.000  
C 7  38110032.073   198448940.662         877.809          38.000  
C 8  38132373.722   198565255.469       -2686.842          35.000  
C 6  35361787.137   184138099.008        -195.659          46.000  
C19  24285738.539   126462144.932       -3542.614          40.000  
R 8  22605230.574   121049929.694       -4033.517          44.000  
R11  19266056.502   102952043.390       -3577.332          48.000  
R 2  18400606.996    98189197.559        1585.897          52.000  
R12  17689862.029    94496132.760          85.260          52.000  
G10  20635469.589   108440141.680        1993.929          46.000  
J 2  35809390.271   188179605.529       -1030.063          46.000  
G13  22948752.087   120596454.863       -3122.710          34.000  
E20  19086916.529   100302411.450       -2325.420          38.000  
G12  20198353.991   106143138.483        2179.962          50.000  
E12  24971763.281   131227458.549       -2974.031          34.000  
C16  35602912.858   185393708.792        -184.095          49.000  
C13  37400083.116   194752019.631       -2536.304          42.000  
R 1  19059400.123   101883404.618       -2610.723          49.000  
R 3  22329348.870   119530817.775        3158.075          36.000  
R13  20746185.191   110783477.088        3325.471          36.000  
R10  22767781.289   121450516.450       -4800.530          37.000  
E 4  24067804.615   126477151.344        1418.125          46.000  
J 7  35816878.255   188218957.472        -554.710          40.000  
G20  18912717.578    99386998.481        -208.812          46.000  
E 1  23474016.209   123356840.381        1846.685          44.000  
J 3  36507574.424   191848590.922        -484.436          35.000  
G25  22367142.557   117540113.104        3321.478          38.000  
G24  18732819.008    98441656.560       -1581.687          49.000  
E21  22417126.344   117802838.390        -775.656          48.000  
E11                                                                
G32                                                                
> 2020  1 16  2 22 22.9950000  0 37                     
E27  25313557.783   133023668.144       -3059.862          42.000  
E19  22010818.068   115667642.848        -642.339          40.000  
G15  20342739.176   106901809.385       -2531.099          46.000  
J 1  36589136.987   192277211.453         120.416          47.000  
G21  22611138.515   118822315.633       -2629.513          39.000  
C 9  36638182.111   190784603.296        -176.483          45.000  
C22  20766059.317   108134287.306       -1847.016          52.000  
C 7  38109998.363   198448765.238         876.801          38.000  
C 8  38132476.875   198565792.927       -2687.179          35.000  
C 6  35361794.675   184138138.108        -195.758          46.000  
C19  24285874.583   126462853.465       -3542.974          40.000  
R 8  22605381.247   121050736.340       -4033.608          44.000  
R11  19266190.420   102952758.860       -3577.655          48.000  
R 2  18400547.551    98188880.370        1585.558          52.000  
R12  17689858.806    94496115.705          84.910          52.000  
G10  20635393.747   108439742.865        1993.829          46.000  
J 2  35809429.439   188179811.521       -1030.259          46.000  
G13  22948870.865   120597079.424       -3123.115          34.000  
E20  19087005.068   100302876.546       -2325.792          38.000  
G12  20198271.048   106142702.480        2179.584          50.000  
E12  24971876.461   131228053.392       -2974.453          34.000  
C16  35602919.819   185393745.595        -184.324          49.000  
C13  37400180.546   194752526.933       -2536.688          42.000  
R 1  19059497.788   101883926.777       -2611.156          49.000  
R 3  22329230.839   119530186.318        3157.074          36.000  
R13  20746060.636   110782811.874        3325.679          36.000  
R10  22767961.252   121451476.511       -4800.528          37.000  
E 4  24067750.711   126476867.668        1418.093          46.000  
J 7  35816899.323   188219068.404        -554.675          40.000  
G20  18912725.537    99387040.261        -209.232          46.000  
E 1  23473946.021   123356471.019        1846.612          44.000  
J 3  36507592.872   191848687.842        -484.740          35.000  
G25  22367016.121   117539448.764        3321.295          38.000  
G24  18732879.221    98441972.889       -1581.910          49.000  
E21  22417155.884   117802993.481        -775.693          48.000  
E11                                                                
G32                                                                
> 2020  1 16  2 22 23.1950000  0 37                     
E27  25313674.151   133024280.107       -3059.835          42.000  
E19  22010842.445   115667771.343        -642.228          40.000  
G15  20342835.505   106902315.538       -2530.775          46.000  
J 1  36589132.460   192277187.364         120.584          47.000  
G21  22611238.589   118822841.560       -2629.568          39.000  
C 9  36638188.878   190784638.588        -176.454          45.000  
C22  20766130.373   108134656.694       -1846.917          52.000  
C 7  38109964.666   198448589.809         876.892          38.000  
C 8  38132580.105   198566330.432       -2687.186          35.000  
C 6  35361802.125   184138177.247        -195.616          46.000  
C19  24286010.699   126463562.040       -3542.898          40.000  
R 8  22605531.909   121051543.045       -4033.519          44.000  
R11  19266324.306   102953474.387       -3577.661          48.000  
R 2  18400488.159    98188563.235        1585.751          52.000  
R12  17689855.632    94496098.730          84.829          52.000  
G10  20635317.911   108439344.118        1993.760          46.000  
J 2  35809468.594   188180017.562       -1030.092          46.000  
G13  22948989.716   120597704.006       -3123.246          34.000  
E20  19087093.392   100303341.686       -2325.582          38.000  
G12  20198188.089   106142266.524        2179.752          50.000  
E12  24971989.660   131228648.307       -2974.204          34.000  
C16  35602926.993   185393782.437        -184.159          49.000  
C13  37400277.996   194753034.269       -2536.621          42.000  
R 1  19059595.485   101884448.997       -2611.041          49.000  
R 3  22329112.793   119529554.846        3157.355          36.000  
R13  20745936.077   110782146.758        3325.987          36.000  
R10  22768141.250   121452436.622       -4800.538          37.000  
E 4  24067696.649   126476584.049        1418.184          46.000  
J 7  35816920.487   188219179.411        -554.855          40.000  
G20  18912733.509    99387082.112        -209.210          46.000  
E 1  23473875.643   123356101.719        1846.566          44.000  
J 3  36507611.294   191848784.791        -484.627          35.000  
G25  22366889.673   117538784.467        3321.368          38.000  
G24  18732939.439    98442289.283       -1581.883          49.000  
E21  22417185.295   117803148.656        -775.806          48.000  
E11                                                                
G32                                                                
> 2020  1 16  2 22 23.3950000  0 37                     
E27  25313790.629   133024892.097       -3059.985          42.000  
E19  22010866.907   115667899.893        -642.697          40.000  
G15  20342931.844   106902821.734       -2530.992          46.000  
J 1  36589127.900   192277163.304         120.193          47.000  
G21  22611338.669   118823367.516       -2629.568          39.000  
C 9  36638195.681   190784673.892        -176.663          45.000  
C22  20766201.358   108135026.130       -1847.344          52.000  
C 7  38109930.919   198448414.427         876.377          38.000  
C 8  38132683.322   198566867.933       -2687.267          35.000  
C 6  35361809.721   184138216.398        -195.897          46.000  
C19  24286146.806   126464270.642       -3542.986          40.000  
R 8  22605682.570   121052349.780       -4033.685          44.000  
R11  19266458.233   102954189.959       -3577.942          48.000  
R 2  18400428.748    98188246.145        1585.373          52.000  
R12  17689852.463    94496081.808          84.419          52.000  
G10  20635242.050   108438945.391        1993.616          46.000  
J 2  35809507.841   188180223.629       -1030.467          46.000  
G13  22949108.563   120598328.595       -3122.810          34.000  
E20  19087181.805   100303806.859       -2325.842          38.000  
G12  20198105.156   106141830.623        2179.357          50.000  
E12  24972102.854   131229243.225       -2974.930          34.000  
C16  35602933.972   185393819.298        -184.328          49.000  
C13  37400375.350   194753541.638       -2536.920          42.000  
R 1  19059693.212   101884971.266       -2611.507          49.000  
R 3  22328994.829   119528923.415        3156.866          36.000  
R13  20745811.509   110781481.707        3324.868          36.000  
R10  22768321.218   121453396.725       -4800.651          37.000  
E 4  24067642.707   126476300.476        1417.677          46.000  
J 7  35816941.599   188219290.424        -555.288          40.000  
G20  18912741.482    99387124.015        -209.701          46.000  
E 1  23473805.354   123355732.455        1846.148          44.000  
J 3  36507629.802   191848881.775        -484.927          35.000  
G25  22366763.221   117538120.178        3321.350          38.000  
G24  18732999.658    98442605.724       -1582.321          49.000  
E21  22417214.865   117803303.859        -776.157          48.000  
E11                                                                
G32                                                                
> 2020  1 16  2 22 23.5950000  0 37                     
E27  25313907.020   133025504.059       -3059.730          42.000  
E19  22010891.394   115668028.393        -642.636          40.000  
G15  20343028.135   106903327.905       -2530.958          46.000  
J 1  36589123.271   192277139.201         120.618          47.000  
G21  22611438.721   118823893.447       -2629.466          39.000  
C 9  36638202.479   190784709.151        -176.284          45.000  
C22  20766272.294   108135395.533       -1847.045          52.000  
C 7  38109897.234   198448238.981         877.175          38.000  
C 8  38132786.536   198567405.449       -2687.583          35.000  
C 6  35361817.176   184138255.512        -195.467          46.000  
C19  24286282.888   126464979.230       -3542.834          40.000  
R 8  22605833.260   121053156.488       -4033.424          44.000  
R11  19266592.141   102954905.508       -3577.704          48.000  
R 2  18400369.263    98187929.029        1585.677          52.000  
R12  17689849.336    94496064.884          84.648          52.000  
G10  20635166.175   108438546.670        1993.722          46.000  
J 2  35809547.055   188180429.663       -1030.166          46.000  
G13  22949227.383   120598953.209       -3122.821          34.000  
E20  19087270.293   100304272.008       -2325.795          38.000  
G12  20198022.165   106141394.693        2179.639          50.000  
E12  24972216.150   131229838.078       -2974.032          34.000  
C16  35602941.034   185393856.122        -183.960          49.000  
C13  37400472.783   194754048.959       -2536.621          42.000  
R 1  19059790.938   101885493.512       -2611.256          49.000  
R 3  22328876.808   119528291.916        3157.837          36.000  
R13  20745686.969   110780816.596        3325.033          36.000  
R10  22768501.192   121454356.813       -4800.363          37.000  
E 4  24067588.680   126476016.832        1418.216          46.000  
J 7  35816962.734   188219401.399        -554.788          40.000  
G20  18912749.462    99387165.895        -209.375          46.000  
E 1  23473735.057   123355363.156        1846.719          44.000  
J 3  36507648.280   191848978.714        -484.725          36.000  
G25  22366636.785   117537455.885        3321.588          38.000  
G24  18733059.831    98442922.133       -1582.115          49.000  
E21  22417244.223   117803459.045        -775.843          48.000  
E11                                                                
G32                                                                
> 2020  1 16  2 22 23.7950000  0 37                     
E27  25314023.510   133026116.079       -3060.183          42.000  
E19  22010915.849   115668156.964        -643.279          40.000  
G15  20343124.512   106903834.142       -2531.432          46.000  
J 1  36589118.643   192277115.161         120.022          47.000  
G21  22611538.789   118824419.453       -2630.430          39.000  
C 9  36638209.304   190784744.484        -176.843          45.000  
C22  20766343.139   108135765.023       -1847.627          52.000  
C 7  38109863.568   198448063.628         876.624          38.000  
C 8  38132889.745   198567942.979       -2687.889          35.000  
C 6  35361824.635   184138294.695        -196.126          46.000  
C19  24286418.965   126465687.873       -3543.398          40.000  
R 8  22605983.877   121053963.284       -4034.281          44.000  
R11  19266726.054   102955621.141       -3578.284          48.000  
R 2  18400309.834    98187611.996        1584.941          52.000  
R12  17689846.177    94496048.061          83.829          52.000  
G10  20635090.311   108438148.019        1992.935          46.000  
J 2  35809586.316   188180635.757       -1030.595          46.000  
G13  22949346.216   120599577.848       -3123.350          34.000  
E20  19087358.822   100304737.228       -2326.561          37.000  
G12  20197939.284   106140958.845        2179.065          50.000  
E12  24972329.368   131230433.005       -2974.685          34.000  
C16  35602948.116   185393893.012        -184.697          49.000  
C13  37400570.244   194754556.366       -2537.292          42.000  
R 1  19059888.637   101886015.845       -2611.886          49.000  
R 3  22328758.893   119527660.519        3156.799          36.000  
R13  20745562.420   110780151.554        3324.752          36.000  
R10  22768681.182   121455316.955       -4800.885          37.000  
E 4  24067534.823   126475733.264        1417.631          46.000  
J 7  35816983.882   188219512.447        -555.539          40.000  
G20  18912757.454    99387207.877        -210.165          46.000  
E 1  23473664.979   123354993.947        1845.651          44.000  
J 3  36507666.752   191849075.708        -485.180          36.000  
G25  22366510.329   117536791.637        3320.935          38.000  
G24  18733120.056    98443238.627       -1582.645          49.000  
E21  22417273.976   117803614.317        -776.612          48.000  
E11                                                                
G32                                                                
> 2020  1 16  2 22 23.9950000  0 37                     
E27  25314139.978   133026728.127       -3060.303          42.000  
E19  22010940.325   115668285.525        -642.928          40.000  
G15  20343220.854   106904340.366       -2530.990          46.000  
J 1  36589114.116   192277091.104         120.394          47.000  
G21  22611638.848   118824945.423       -2629.822          39.000  
C 9  36638216.063   190784779.791        -176.375          45.000  
C22  20766414.091   108136134.510       -1847.370          52.000  
C 7  38109829.884   198447888.243         877.090          38.000  
C 8  38132992.967   198568480.510       -2687.732          35.000  
C 6  35361832.241   184138333.852        -195.635          46.000  
C19  24286555.050   126466396.502       -3542.964          40.000  
R 8  22606134.502   121054770.054       -4033.841          44.000  
R11  19266859.950   102956336.781       -3578.143          48.000  
R 2  18400250.437    98187294.961        1585.270          52.000  
R12  17689843.057    94496031.251          84.164          52.000  
G10  20635014.437   108437749.347        1993.385          46.000  
J 2  35809625.560   188180841.840       -1030.264          46.000  
G13  22949465.057   120600202.475       -3123.185          34.000  
E20  19087447.340   100305202.432       -2326.233          37.000  
G12  20197856.299   106140523.005        2179.344          50.000  
E12  24972442.602   131231027.895       -2973.727          34.000  
C16  35602955.163   185393929.872        -184.281          49.000  
C13  37400667.653   194755063.728       -2536.786          42.000  
R 1  19059986.322   101886538.181       -2611.615          49.000  
R 3  22328640.925   119527029.091        3157.019          36.000  
R13  20745437.832   110779486.521        3325.193          36.000  
R10  22768861.192   121456277.093       -4800.631          38.000  
E 4  24067480.658   126475449.678        1418.114          46.000  
J 7  35817005.033   188219623.468        -554.988          40.000  
G20  18912765.445    99387249.855        -209.740          46.000  
E 1  23473594.567   123354624.722        1846.261          44.000  
J 3  36507685.180   191849172.687        -484.812          35.000  
G25  22366383.948   117536127.382        3321.613          38.000  
G24  18733180.252    98443555.123       -1582.433          49.000  
E21  22417303.424   117803769.593        -776.301          48.000  
E11                                                                
G32                                                                
> 2020  1 16  2 22 24.1950000  0 37                     
E27  25314256.553   133027340.109       -3059.975          42.000  
E19  22010964.765   115668414.047        -642.721          40.000  
G15  20343317.227   106904846.590       -2531.339          46.000  
J 1  36589109.564   192277067.016         120.258          47.000  
G21  22611738.928   118825471.374       -2629.686          39.000  
C 9  36638222.818   190784815.069        -176.656          45.000  
C22  20766484.971   108136503.978       -1847.569          52.000  
C 7  38109796.190   198447712.827         876.800          38.000  
C 8  38133096.176   198569018.003       -2687.506          35.000  
C 6  35361839.659   184138372.968        -195.677          46.000  
C19  24286691.129   126467105.109       -3543.139          40.000  
R 8  22606285.149   121055576.804       -4033.809          44.000  
R11  19266993.806   102957052.401       -3578.338          48.000  
R 2  18400190.999    98186977.900        1585.112          52.000  
R12  17689839.897    94496014.440          83.843          52.000  
G10  20634938.589   108437350.683        1993.203          46.000  
J 2  35809664.810   188181047.894       -1030.477          46.000  
G13  22949583.895   120600827.107       -3123.988          34.000  
E20  19087535.853   100305667.601       -2326.124          37.000  
G12  20197773.361   106140087.146        2179.104          49.000  
E12  24972555.767   131231622.797       -2974.210          34.000  
C16  35602962.273   185393966.696        -184.211          49.000  
C13  37400765.057   194755571.079       -2536.902          42.000  
R 1  19060084.034   101887060.505       -2611.844          49.000  
R 3  22328522.945   119526397.595        3157.318          36.000  
R13  20745313.280   110778821.470        3324.840          36.000  
R10  22769041.174   121457237.203       -4800.935          38.000  
E 4  24067426.722   126475166.063        1417.854          46.000  
J 7  35817026.183   188219734.445        -554.919          40.000  
G20  18912773.456    99387291.834        -210.061          46.000  
E 1  23473524.397   123354255.480        1845.964          44.000  
J 3  36507703.608   191849269.611        -484.795          35.000  
G25  22366257.541   117535463.094        3321.411          38.000  
G24  18733240.481    98443871.594       -1582.656          49.000  
E21  22417333.106   117803924.835        -776.343          48.000  
E11                                                                
G32                                                                
> 2020  1 16  2 22 24.3950000  0 37                     
E27  25314372.990   133027952.124       -3059.833          42.000  
E19  22010989.169   115668542.607        -642.398          40.000  
G15  20343413.512   106905352.812       -2530.957          46.000  
J 1  36589104.913   192277042.933         120.659          47.000  
G21  22611838.981   118825997.364       -2629.798          39.000  
C 9  36638229.620   190784850.339        -176.074          45.000  
C22  20766555.967   108136873.470       -1847.151          52.000  
C 7  38109762.488   198447537.435         877.056          38.000  
C 8  38133199.410   198569555.501       -2687.388          35.000  
C 6  35361847.221   184138412.097        -195.334          46.000  
C19  24286827.194   126467813.733       -3542.799          40.000  
R 8  22606435.823   121056383.583       -4033.597          44.000  
R11  19267127.693   102957768.054       -3578.052          48.000  
R 2  18400131.575    98186660.866        1585.472          52.000  
R12  17689836.798    94495997.671          84.083          52.000  
G10  20634862.712   108436952.022        1993.583          46.000  
J 2  35809703.981   188181253.953       -1030.058          46.000  
G13  22949702.697   120601451.642       -3122.111          33.000  
E20  19087624.389   100306132.778       -2325.745          38.000  
G12  20197690.469   106139651.310        2179.373          49.000  
E12  24972669.008   131232217.704       -2974.338          35.000  
C16  35602969.256   185394003.535        -183.898          49.000  
C13  37400862.548   194756078.452       -2536.603          42.000  
R 1  19060181.730   101887582.864       -2611.552          49.000  
R 3  22328404.977   119525766.135        3157.477          36.000  
R13  20745188.719   110778156.437        3324.986          36.000  
R10  22769221.163   121458197.305       -4800.539          37.000  
E 4  24067372.736   126474882.461        1418.223          46.000  
J 7  35817047.282   188219845.448        -554.865          40.000  
G20  18912781.473    99387333.850        -209.948          46.000  
E 1  23473454.098   123353886.249        1846.442          44.000  
J 3  36507722.095   191849366.575        -484.719          35.000  
G25  22366131.127   117534798.801        3322.076          38.000  
G24  18733300.707    98444188.089       -1582.247          49.000  
E21  22417362.620   117804080.129        -776.217          48.000  
E11                                                                
G32                                                                
> 2020  1 16  2 22 24.5950000  0 37                     
E27  25314489.449   133028564.162       -3060.334          42.000  
E19  22011013.659   115668671.177        -643.078          40.000  
G15  20343509.822   106905859.037       -2531.294          46.000  
J 1  36589100.299   192277018.850         120.223          47.000  
G21  22611939.088   118826523.308       -2629.691          39.000  
C 9  36638236.374   190784885.629        -176.639          45.000  
C22  20766626.874   108137242.991       -1847.872          52.000  
C 7  38109728.771   198447362.023         876.681          38.000  
C 8  38133302.598   198570093.007       -2687.818          35.000  
C 6  35361854.733   184138451.227        -195.794          46.000  
C19  24286963.261   126468522.356       -3543.576          40.000  
R 8  22606586.542   121057190.366       -4034.246          44.000  
R11  19267261.599   102958483.724       -3578.601          48.000  
R 2  18400072.178    98186343.853        1584.799          52.000  
R12  17689833.647    94495980.940          83.377          52.000  
G10  20634786.884   108436553.407        1992.830          46.000  
J 2  35809743.214   188181460.017       -1030.380          45.000  
G13  22949821.521   120602076.295       -3122.936          33.000  
E20  19087712.956   100306597.987       -2326.292          37.000  
G12  20197607.551   106139215.496        2178.828          49.000  
E12  24972782.253   131232812.560       -2974.115          35.000  
C16  35602976.251   185394040.365        -184.386          49.000  
C13  37400959.967   194756585.802       -2536.780          42.000  
R 1  19060279.446   101888105.239       -2612.118          49.000  
R 3  22328287.015   119525134.670        3157.147          36.000  
R13  20745064.190   110777491.398        3324.843          36.000  
R10  22769401.134   121459157.396       -4800.610          37.000  
E 4  24067318.783   126474598.851        1417.883          46.000  
J 7  35817068.409   188219956.441        -555.499          40.000  
G20  18912789.488    99387375.889        -210.427          46.000  
E 1  23473383.916   123353517.036        1845.894          45.000  
J 3  36507740.494   191849463.519        -485.014          35.000  
G25  22366004.730   117534134.546        3321.332          38.000  
G24  18733360.980    98444504.616       -1582.848          49.000  
E21  22417392.296   117804235.423        -776.738          48.000  
E11                                                                
G32                                                                
> 2020  1 16  2 22 24.7950000  0 37                     
E27  25314605.869   133029176.148       -3059.839          42.000  
E19  22011038.102   115668799.708        -642.602          40.000  
G15  20343606.096   106906365.265       -2531.089          46.000  
J 1  36589095.825   192276994.744         120.293          47.000  
G21  22612039.169   118827049.288       -2630.294          39.000  
C 9  36638243.142   190784920.867        -176.372          45.000  
C22  20766697.807   108137612.487       -1847.740          52.000  
C 7  38109695.032   198447186.576         876.971          38.000  
C 8  38133405.855   198570630.461       -2687.577          35.000  
C 6  35361862.225   184138490.320        -195.610          46.000  
C19  24287099.398   126469230.944       -3542.845          40.000  
R 8  22606737.169   121057997.109       -4033.696          43.000  
R11  19267395.503   102959199.394       -3578.589          48.000  
R 2  18400012.798    98186026.818        1584.946          52.000  
R12  17689830.564    94495964.208          83.437          52.000  
G10  20634711.024   108436154.753        1992.931          46.000  
J 2  35809782.418   188181666.049       -1030.193          45.000  
G13  22949940.366   120602700.870       -3122.776          33.000  
E20  19087801.475   100307063.136       -2325.445          38.000  
G12  20197524.644   106138779.671        2178.949          49.000  
E12  24972895.425   131233407.447       -2974.632          35.000  
C16  35602983.401   185394077.160        -183.982          49.000  
C13  37401057.446   194757093.149       -2536.755          42.000  
R 1  19060377.179   101888627.605       -2612.039          49.000  
R 3  22328168.978   119524503.164        3157.245          36.000  
R13  20744939.671   110776826.409        3324.536          36.000  
R10  22769581.107   121460117.473       -4800.444          37.000  
E 4  24067264.753   126474315.218        1418.104          46.000  
J 7  35817089.517   188220067.413        -555.176          40.000  
G20  18912797.535    99387417.923        -210.403          46.000  
E 1  23473313.615   123353147.806        1846.157          45.000  
J 3  36507758.908   191849560.400        -484.657          35.000  
G25  22365878.305   117533470.253        3321.198          38.000  
G24  18733421.226    98444821.115       -1582.576          49.000  
E21  22417421.800   117804390.709        -776.472          48.000  
E11                                                                
G32                                                                
> 2020  1 16  2 22 24.9950000  0 37                     
E27  25314722.357   133029788.220       -3060.254          41.000  
E19  22011062.528   115668928.317        -643.189          40.000  
G15  20343702.396   106906871.534       -2531.332          46.000  
J 1  36589091.242   192276970.666         120.393          47.000  
G21  22612139.230   118827575.241       -2629.561          39.000  
C 9  36638249.939   190784956.146        -176.334          45.000  
C22  20766768.769   108137982.038       -1847.753          52.000  
C 7  38109661.336   198447011.178         876.744          38.000  
C 8  38133509.066   198571167.967       -2687.313          35.000  
C 6  35361869.827   184138529.439        -195.513          46.000  
C19  24287235.519   126469939.603       -3543.294          40.000  
R 8  22606887.796   121058803.933       -4033.901          43.000  
R11  19267529.428   102959915.113       -3578.735          48.000  
R 2  18399953.380    98185709.836        1584.927          52.000  
R12  17689827.410    94495947.550          83.266          52.000  
G10  20634635.141   108435756.159        1992.991          46.000  
J 2  35809821.637   188181872.145       -1030.460          45.000  
G13  22950059.224   120603325.514       -3123.278          33.000  
E20  19087889.948   100307528.360       -2325.894          38.000  
G12  20197441.719   106138343.898        2178.779          49.000  
E12  24973008.653   131234002.310       -2974.126          35.000  
C16  35602990.415   185394114.006        -184.073          49.000  
C13  37401154.874   194757600.521       -2536.810          42.000  
R 1  19060474.844   101889150.039       -2612.214          49.000  
R 3  22328051.035   119523871.680        3157.410          36.000  
R13  20744815.089   110776161.388        3324.894          36.000  
R10  22769761.074   121461077.585       -4800.386          37.000  
E 4  24067210.872   126474031.645        1417.713          46.000  
J 7  35817110.633   188220178.420        -555.300          40.000  
G20  18912805.578    99387460.017        -210.517          46.000  
E 1  23473243.415   123352778.642        1845.697          45.000  
J 3  36507777.391   191849657.361        -484.602          35.000  
G25  22365751.902   117532805.966        3321.667          38.000  
G24  18733481.479    98445137.679       -1582.793          49.000  
E21  22417451.372   117804546.058        -776.778          48.000  
E11                                                                
G32                                                                
> 2020  1 16  2 22 25.1950000  0 37                     
E27  25314838.760   133030400.243       -3060.226          41.000  
E19  22011086.963   115669056.865        -642.782          40.000  
G15  20343798.712   106907377.775       -2531.387          46.000  
J 1  36589086.615   192276946.561         120.540          47.000  
G21  22612239.302   118828101.273       -2630.312          39.000  
C 9  36638256.708   190784991.391        -176.251          45.000  
C22  20766839.754   108138351.581       -1847.826          52.000  
C 7  38109627.671   198446835.757         877.213          38.000  
C 8  38133612.316   198571705.471       -2687.380          35.000  
C 6  35361877.257   184138568.549        -195.671          46.000  
C19  24287371.608   126470648.228       -3543.131          40.000  
R 8  22607038.460   121059610.727       -4033.962          43.000  
R11  19267663.367   102960630.816       -3578.693          48.000  
R 2  18399893.966    98185392.844        1584.798          52.000  
R12  17689824.258    94495930.899          83.098          52.000  
G10  20634559.288   108435357.559        1992.757          46.000  
J 2  35809860.839   188182078.191       -1030.399          46.000  
G13  22950178.069   120603950.112       -3123.447          33.000  
E20  19087978.450   100307993.560       -2325.590          37.000  
G12  20197358.819   106137908.104        2178.831          49.000  
E12  24973121.793   131234597.181       -2974.659          35.000  
C16  35602997.563   185394150.807        -184.003          49.000  
C13  37401252.236   194758107.872       -2536.877          42.000  
R 1  19060572.613   101889672.459       -2612.251          49.000  
R 3  22327933.083   119523240.183        3157.770          36.000  
R13  20744690.555   110775496.382        3325.039          36.000  
R10  22769941.040   121462037.660       -4800.392          37.000  
E 4  24067156.864   126473748.011        1418.066          46.000  
J 7  35817131.759   188220289.383        -555.155          40.000  
G20  18912813.595    99387502.118        -210.646          46.000  
E 1  23473173.192   123352409.440        1845.787          45.000  
J 3  36507795.813   191849754.267        -484.827          35.000  
G25  22365625.465   117532141.690        3321.307          38.000  
G24  18733541.734    98445454.222       -1582.764          49.000  
E21  22417480.895   117804701.388        -776.746          48.000  
E11                                                                
G32                                                                
> 2020  1 16  2 22 25.3950000  0 37                     
E27  25314955.196   133031012.320       -3060.681          41.000  
E19  22011111.442   115669185.492        -643.292          40.000  
G15  20343895.046   106907884.056       -2531.576          46.000  
J 1  36589081.971   192276922.496         120.081          47.000  
G21  22612339.382   118828627.228       -2630.483          39.000  
C 9  36638263.494   190785026.671        -176.623          45.000  
C22  20766910.719   108138721.171       -1848.240          52.000  
C 7  38109594.008   198446660.374         876.402          38.000  
C 8  38133715.584   198572242.970       -2687.884          35.000  
C 6  35361884.782   184138607.678        -195.959          46.000  
C19  24287507.637   126471356.889       -3543.664          40.000  
R 8  22607189.181   121060417.564       -4034.570          43.000  
R11  19267797.371   102961346.576       -3579.077          48.000  
R 2  18399834.593    98185075.897        1584.413          52.000  
R12  17689821.189    94495914.310          82.573          52.000  
G10  20634483.461   108434958.997        1992.589          46.000  
J 2  35809900.062   188182284.273       -1030.730          46.000  
G13  22950296.923   120604574.745       -3123.556          33.000  
E20  19088067.014   100308458.813       -2326.199          37.000  
G12  20197275.913   106137472.372        2178.344          49.000  
E12  24973234.989   131235192.064       -2974.630          35.000  
C16  35603004.635   185394187.654        -184.436          49.000  
C13  37401349.752   194758615.259       -2537.329          42.000  
R 1  19060670.331   101890194.932       -2612.717          49.000  
R 3  22327815.155   119522608.729        3157.050          36.000  
R13  20744566.089   110774831.450        3324.464          36.000  
R10  22770120.999   121462997.793       -4800.877          37.000  
E 4  24067102.991   126473464.426        1417.636          46.000  
J 7  35817152.899   188220400.391        -555.222          40.000  
G20  18912821.634    99387544.275        -211.149          46.000  
E 1  23473102.945   123352040.283        1845.572          45.000  
J 3  36507814.231   191849851.206        -485.275          35.000  
G25  22365499.044   117531477.420        3321.155          37.000  
G24  18733601.985    98445770.822       -1583.220          49.000  
E21  22417510.527   117804856.778        -777.218          48.000  
E11                                                                
G32                                                                
> 2020  1 16  2 22 25.5950000  0 37                     
E27  25315071.604   133031624.379       -3060.298          41.000  
E19  22011135.981   115669314.094        -643.185          40.000  
G15  20343991.378   106908390.345       -2531.509          46.000  
J 1  36589077.408   192276898.419         120.247          47.000  
G21  22612439.464   118829153.227       -2629.172          39.000  
C 9  36638270.267   190785061.932        -176.175          45.000  
C22  20766981.765   108139090.767       -1848.052          52.000  
C 7  38109560.297   198446484.968         876.779          38.000  
C 8  38133818.779   198572780.467       -2687.490          35.000  
C 6  35361892.299   184138646.786        -195.446          46.000  
C19  24287643.759   126472065.547       -3543.324          40.000  
R 8  22607339.802   121061224.387       -4034.167          43.000  
R11  19267931.281   102962062.342       -3578.912          48.000  
R 2  18399775.179    98184758.952        1584.615          52.000  
R12  17689818.167    94495897.739          82.725          52.000  
G10  20634407.622   108434560.448        1992.583          46.000  
J 2  35809939.273   188182490.352       -1030.353          46.000  
G13  22950415.735   120605199.378       -3123.380          33.000  
E20  19088155.588   100308924.037       -2325.866          38.000  
G12  20197193.003   106137036.645        2178.520          49.000  
E12  24973348.159   131235786.952       -2974.402          35.000  
C16  35603011.633   185394224.474        -184.195          49.000  
C13  37401447.159   194759122.621       -2536.774          42.000  
R 1  19060768.091   101890717.418       -2612.557          49.000  
R 3  22327697.176   119521977.231        3157.135          36.000  
R13  20744441.582   110774166.488        3325.107          36.000  
R10  22770300.986   121463957.875       -4800.236          37.000  
E 4  24067048.932   126473180.832        1417.936          46.000  
J 7  35817174.028   188220511.382        -555.064          40.000  
G20  18912829.673    99387586.441        -211.057          46.000  
E 1  23473032.638   123351671.134        1845.793          45.000  
J 3  36507832.647   191849948.116        -484.505          35.000  
G25  22365372.644   117530813.180        3321.222          37.000  
G24  18733662.221    98446087.423       -1583.090          49.000  
E21  22417539.993   117805012.170        -776.991          48.000  
E11                                                                
G32                                                                
> 2020  1 16  2 22 25.7950000  0 37                     
E27  25315188.116   133032236.449       -3060.249          41.000  
E19  22011160.503   115669442.691        -642.963          40.000  
G15  20344087.744   106908896.630       -2531.502          46.000  
J 1  36589072.849   192276874.317         120.369          47.000  
G21  22612539.547   118829679.245       -2630.738          39.000  
C 9  36638277.047   190785097.185        -176.428          45.000  
C22  20767052.723   108139460.366       -1848.132          52.000  
C 7  38109526.656   198446309.547         877.091          38.000  
C 8  38133921.945   198573317.904       -2686.968          35.000  
C 6  35361899.843   184138685.889        -195.551          46.000  
C19  24287779.915   126472774.203       -3543.875          40.000  
R 8  22607490.513   121062031.207       -4034.330          43.000  
R11  19268065.231   102962778.112       -3579.065          48.000  
R 2  18399715.809    98184442.004        1584.612          52.000  
R12  17689815.114    94495881.189          82.610          52.000  
G10  20634331.779   108434161.893        1992.575          46.000  
J 2  35809978.498   188182696.421       -1030.489          46.000  
G13  22950534.556   120605823.988       -3122.955          33.000  
E20  19088244.127   100309389.285       -2326.266          38.000  
G12  20197110.089   106136600.914        2178.590          49.000  
E12  24973461.450   131236381.803       -2974.185          35.000  
C16  35603018.782   185394261.281        -184.115          49.000  
C13  37401544.581   194759629.988       -2536.719          42.000  
R 1  19060865.789   101891239.909       -2612.644          49.000  
R 3  22327579.187   119521345.703        3157.428          36.000  
R13  20744317.050   110773501.550        3324.949          36.000  
R10  22770480.967   121464917.975       -4800.369          37.000  
E 4  24066994.971   126472897.220        1418.031          46.000  
J 7  35817195.146   188220622.358        -555.019          40.000  
G20  18912837.691    99387628.616        -211.013          46.000  
E 1  23472962.409   123351301.972        1845.795          45.000  
J 3  36507851.081   191850045.039        -484.885          36.000  
G25  22365246.189   117530148.894        3321.161          37.000  
G24  18733722.470    98446404.020       -1583.098          49.000  
E21  22417569.406   117805167.566        -777.069          48.000  
E11                                                                
G32                                                                
> 2020  1 16  2 22 25.9950000  0 37                     
E27  25315304.550   133032848.629       -3061.130          41.000  
E19  22011185.108   115669571.406        -643.533          40.000  
G15  20344184.085   106909403.008       -2531.845          46.000  
J 1  36589068.250   192276850.318         120.064          47.000  
G21  22612639.697   118830205.289       -2629.536          39.000  
C 9  36638283.806   190785132.512        -176.499          45.000  
C22  20767123.710   108139830.080       -1848.628          52.000  
C 7  38109492.989   198446134.247         876.440          38.000  
C 8  38134025.132   198573855.502       -2687.561          35.000  
C 6  35361907.408   184138725.083        -195.952          46.000  
C19  24287916.057   126473482.944       -3543.758          39.000  
R 8  22607641.177   121062838.146       -4034.790          44.000  
R11  19268199.211   102963494.005       -3579.462          48.000  
R 2  18399656.401    98184125.182        1584.094          52.000  
R12  17689812.111    94495864.774          81.985          52.000  
G10  20634255.945   108433763.459        1992.254          46.000  
J 2  35810017.763   188182902.595       -1030.872          46.000  
G13  22950653.406   120606448.716       -3123.823          33.000  
E20  19088332.787   100309854.639       -2327.266          38.000  
G12  20197027.196   106136165.311        2177.996          49.000  
E12  24973574.652   131236976.763       -2974.885          35.000  
C16  35603025.859   185394298.185        -184.585          49.000  
C13  37401642.050   194760137.468       -2537.183          42.000  
R 1  19060963.525   101891762.523       -2613.173          49.000  
R 3  22327461.211   119520714.310        3156.677          36.000  
R13  20744192.569   110772836.741        3324.041          35.000  
R10  22770661.008   121465878.189       -4800.881          37.000  
E 4  24066940.977   126472613.722        1417.360          46.000  
J 7  35817216.295   188220733.450        -555.637          40.000  
G20  18912845.774    99387670.930        -211.486          46.000  
E 1  23472892.066   123350932.950        1844.855          45.000  
J 3  36507869.542   191850142.039        -485.023          35.000  
G25  22365119.760   117529484.713        3320.947          37.000  
G24  18733782.736    98446720.743       -1583.719          49.000  
E21  22417599.106   117805323.093        -777.961          48.000  
E11                                                                
G32                                                                
> 2020  1 16  2 22 26.1950000  0 37                     
E27  25315420.990   133033460.761       -3060.648          41.000  
E19  22011209.526   115669700.085        -643.417          40.000  
G15  20344280.416   106909909.376       -2531.656          46.000  
J 1  36589063.635   192276826.291         120.185          47.000  
G21  22612739.837   118830731.441       -2630.682          39.000  
C 9  36638290.589   190785167.824        -176.552          46.000  
C22  20767194.706   108140199.772       -1848.502          52.000  
C 7  38109459.317   198445958.891         876.569          38.000  
C 8  38134128.380   198574393.080       -2687.843          35.000  
C 6  35361914.894   184138764.238        -195.634          46.000  
C19  24288052.125   126474191.670       -3543.674          39.000  
R 8  22607791.835   121063645.054       -4034.679          44.000  
R11  19268333.185   102964209.873       -3579.431          48.000  
R 2  18399597.050    98183808.331        1584.158          52.000  
R12  17689808.991    94495848.352          82.040          52.000  
G10  20634180.140   108433365.021        1992.175          46.000  
J 2  35810056.970   188183108.723       -1030.640          46.000  
G13  22950772.210   120607073.387       -3123.434          33.000  
E20  19088421.328   100310319.933       -2326.854          38.000  
G12  20196944.341   106135729.687        2178.031          49.000  
E12  24973687.853   131237571.694       -2974.760          35.000  
C16  35603032.906   185394335.042        -184.271          49.000  
C13  37401739.510   194760644.909       -2537.585          42.000  
R 1  19061061.241   101892285.119       -2613.094          49.000  
R 3  22327343.222   119520082.826        3157.587          36.000  
R13  20744068.078   110772171.890        3323.774          35.000  
R10  22770841.054   121466838.367       -4800.978          37.000  
E 4  24066887.031   126472330.173        1417.728          46.000  
J 7  35817237.425   188220844.497        -555.608          40.000  
G20  18912853.798    99387713.230        -211.623          46.000  
E 1  23472821.883   123350563.865        1845.355          44.000  
J 3  36507888.000   191850238.998        -484.694          35.000  
G25  22364993.362   117528820.526        3320.862          37.000  
G24  18733842.980    98447037.440       -1583.541          49.000  
E21  22417628.640   117805478.570        -777.402          48.000  
E11                                                                
G32                                                                
> 2020  1 16  2 22 26.3950000  0 37                     
E27  25315537.485   133034072.922       -3060.940          41.000  
E19  22011234.040   115669828.775        -643.440          40.000  
G15  20344376.796   106910415.752       -2532.004          46.000  
J 1  36589059.111   192276802.262         119.979          47.000  
G21  22612839.932   118831257.465       -2630.688          39.000  
C 9  36638297.373   190785203.123        -176.653          46.000  
C22  20767265.734   108140569.484       -1848.701          52.000  
C 7  38109425.666   198445783.535         876.714          38.000  
C 8  38134231.587   198574930.598       -2688.124          35.000  
C 6  35361922.434   184138803.397        -195.844          46.000  
C19  24288188.230   126474900.411       -3543.903          39.000  
R 8  22607942.441   121064451.959       -4034.562          44.000  
R11  19268467.189   102964925.763       -3579.590          48.000  
R 2  18399537.666    98183491.490        1584.102          52.000  
R12  17689805.928    94495831.961          81.745          52.000  
G10  20634104.308   108432966.579        1992.033          46.000  
J 2  35810096.175   188183314.860       -1030.688          46.000  
G13  22950891.002   120607698.098       -3123.857          33.000  
E20  19088509.907   100310785.219       -2326.788          38.000  
G12  20196861.415   106135294.073        2177.862          49.000  
E12  24973801.033   131238166.613       -2975.054          35.000  
C16  35603040.010   185394371.909        -184.334          49.000  
C13  37401836.931   194761152.319       -2537.311          42.000  
R 1  19061159.016   101892807.736       -2613.197          49.000  
R 3  22327225.257   119519451.365        3157.495          36.000  
R13  20743943.582   110771507.039        3323.629          35.000  
R10  22771021.083   121467798.487       -4800.644          37.000  
E 4  24066833.005   126472046.632        1417.712          46.000  
J 7  35817258.570   188220955.543        -555.588          40.000  
G20  18912861.828    99387755.552        -211.807          46.000  
E 1  23472751.546   123350194.810        1845.174          44.000  
J 3  36507906.432   191850335.963        -484.626          35.000  
G25  22364866.930   117528156.307        3320.929          37.000  
G24  18733903.210    98447354.160       -1583.812          49.000  
E21  22417658.330   117805634.088        -777.656          48.000  
E11                                                                
G32                                                                
> 2020  1 16  2 22 26.5950000  0 37                     
E27  25315653.935   133034685.074       -3060.837          41.000  
E19  22011258.586   115669957.468        -643.416          40.000  
G15  20344473.138   106910922.141       -2531.934          46.000  
J 1  36589054.566   192276778.229         120.098          47.000  
G21  22612940.039   118831783.529       -2629.936          39.000  
C 9  36638304.113   190785238.425        -176.502          45.000  
C22  20767336.747   108140939.209       -1848.699          52.000  
C 7  38109392.045   198445608.180         876.785          38.000  
C 8  38134334.830   198575468.130       -2687.808          35.000  
C 6  35361929.937   184138842.554        -195.909          46.000  
C19  24288324.309   126475609.147       -3544.037          39.000  
R 8  22608093.152   121065258.889       -4034.740          44.000  
R11  19268601.149   102965641.672       -3579.602          48.000  
R 2  18399478.309    98183174.675        1584.000          51.000  
R12  17689802.872    94495815.606          81.599          52.000  
G10  20634028.490   108432568.157        1991.951          46.000  
J 2  35810135.377   188183521.005       -1030.662          46.000  
G13  22951009.810   120608322.787       -3123.970          33.000  
E20  19088598.569   100311250.558       -2327.043          38.000  
G12  20196778.527   106134858.484        2177.832          49.000  
E12  24973914.193   131238761.511       -2974.502          35.000  
C16  35603047.061   185394408.769        -184.369          49.000  
C13  37401934.389   194761659.751       -2537.158          42.000  
R 1  19061256.740   101893330.377       -2613.356          49.000  
R 3  22327107.300   119518819.930        3157.172          36.000  
R13  20743819.112   110770842.191        3324.134          35.000  
R10  22771201.086   121468758.654       -4800.722          37.000  
E 4  24066779.232   126471763.095        1417.641          46.000  
J 7  35817279.690   188221066.576        -555.578          40.000  
G20  18912869.850    99387797.899        -211.750          46.000  
E 1  23472681.334   123349825.772        1845.169          44.000  
J 3  36507924.851   191850432.921        -484.658          35.000  
G25  22364740.515   117527492.099        3320.959          37.000  
G24  18733963.493    98447670.891       -1583.798          49.000  
E21  22417687.908   117805789.626        -777.735          48.000  
E11                                                                
G32                                                                
> 2020  1 16  2 22 26.7950000  0 37                     
E27  25315770.385   133035297.291       -3061.385          41.000  
E19  22011283.084   115670086.231        -644.013          40.000  
G15  20344569.525   106911428.582       -2532.455          46.000  
J 1  36589050.022   192276754.242         119.741          47.000  
G21  22613040.140   118832309.695       -2630.969          38.000  
C 9  36638310.897   190785273.770        -176.877          45.000  
C22  20767407.725   108141309.004       -1849.207          52.000  
C 7  38109358.388   198445432.886         876.211          38.000  
C 8  38134438.109   198576005.730       -2688.015          35.000  
C 6  35361937.404   184138881.742        -196.129          46.000  
C19  24288460.395   126476317.923       -3544.383          39.000  
R 8  22608243.890   121066065.872       -4035.157          44.000  
R11  19268735.120   102966357.643       -3580.090          48.000  
R 2  18399418.983    98182857.916        1583.531          51.000  
R12  17689799.801    94495799.327          81.101          52.000  
G10  20633952.732   108432169.797        1991.536          46.000  
J 2  35810174.613   188183727.200       -1031.280          46.000  
G13  22951128.635   120608947.518       -3123.900          33.000  
E20  19088687.110   100311715.944       -2327.777          38.000  
G12  20196695.655   106134422.964        2177.391          49.000  
E12  24974027.481   131239356.520       -2975.532          35.000  
C16  35603054.167   185394445.673        -184.719          49.000  
C13  37402031.879   194762167.245       -2537.500          42.000  
R 1  19061354.523   101893853.086       -2613.834          49.000  
R 3  22326989.271   119518188.493        3156.824          36.000  
R13  20743694.672   110770177.438        3323.679          35.000  
R10  22771381.076   121469718.862       -4800.849          37.000  
E 4  24066725.360   126471479.609        1417.193          46.000  
J 7  35817300.815   188221177.664        -555.920          40.000  
G20  18912877.928    99387840.327        -212.368          46.000  
E 1  23472611.202   123349456.787        1844.671          44.000  
J 3  36507943.315   191850529.925        -485.264          35.000  
G25  22364614.108   117526827.951        3320.544          37.000  
G24  18734023.819    98447987.691       -1584.234          49.000  
E21  22417717.565   117805945.227        -778.240          48.000  
E11                                                                
G32                                                                
> 2020  1 16  2 22 26.9950000  0 37                     
E27  25315886.937   133035909.487       -3061.026          41.000  
E19  22011307.570   115670214.957        -643.599          40.000  
G15  20344665.879   106911934.992       -2532.156          46.000  
J 1  36589045.413   192276730.224         120.042          47.000  
G21  22613140.254   118832835.771       -2630.353          38.000  
C 9  36638317.703   190785309.071        -176.559          45.000  
C22  20767478.746   108141678.775       -1848.983          52.000  
C 7  38109324.728   198445257.544         876.516          38.000  
C 8  38134541.316   198576543.268       -2687.252          34.000  
C 6  35361944.912   184138920.910        -195.946          46.000  
C19  24288596.541   126477026.688       -3543.844          39.000  
R 8  22608394.611   121066872.833       -4034.983          44.000  
R11  19268869.103   102967073.609       -3579.944          48.000  
R 2  18399359.636    98182541.142        1583.698          51.000  
R12  17689796.792    94495783.048          81.219          52.000  
G10  20633876.970   108431771.428        1991.646          46.000  
J 2  35810213.829   188183933.359       -1030.980          46.000  
G13  22951247.504   120609572.231       -3123.500          33.000  
E20  19088775.740   100312181.252       -2327.019          38.000  
G12  20196612.734   106133987.419        2177.581          49.000  
E12  24974140.738   131239951.410       -2974.533          35.000  
C16  35603061.340   185394482.551        -184.465          49.000  
C13  37402129.316   194762674.702       -2537.262          42.000  
R 1  19061452.272   101894375.781       -2613.638          49.000  
R 3  22326871.309   119517557.015        3157.593          36.000  
R13  20743570.185   110769512.646        3323.910          35.000  
R10  22771561.052   121470679.036       -4800.951          37.000  
E 4  24066671.356   126471196.080        1417.684          46.000  
J 7  35817321.969   188221288.715        -555.231          40.000  
G20  18912885.978    99387882.743        -212.234          46.000  
E 1  23472540.859   123349087.773        1845.053          44.000  
J 3  36507961.773   191850626.898        -484.900          35.000  
G25  22364487.700   117526163.761        3320.715          37.000  
G24  18734084.115    98448304.475       -1584.061          49.000  
E21  22417747.134   117806100.804        -777.964          48.000  
E11                                                                
G32                                                                
> 2020  1 16  2 22 29.9950000  0 37                     
E27  25317634.555   133045093.486       -3061.702          41.000  
E19  22011675.027   115672147.076        -644.434          40.000  
G15  20346111.701   106919532.539       -2533.000          46.000  
J 1  36588976.777   192276370.082         120.156          47.000  
G21  22614641.969   118840728.077       -2631.178          39.000  
C 9  36638419.407   190785838.529        -176.306          45.000  
C22  20768544.538   108147227.497       -1850.154          52.000  
C 7  38108819.774   198442627.793         876.792          38.000  
C 8  38136089.743   198584606.721       -2687.606          35.000  
C 6  35362057.834   184139508.170        -195.681          46.000  
C19  24290637.907   126487658.949       -3544.077          40.000  
R 8  22610655.276   121078978.456       -4035.583          43.000  
R11  19270879.263   102977815.441       -3581.360          49.000  
R 2  18398469.455    98177791.483        1582.727          52.000  
R12  17689751.727    94495542.893          78.814          52.000  
G10  20632740.382   108425797.899        1990.499          46.000  
J 2  35810802.334   188187026.200       -1031.038          46.000  
G13  22953030.208   120618943.369       -3124.008          33.000  
E20  19090104.062   100319162.394       -2327.195          38.000  
G12  20195369.906   106127456.597        2176.186          49.000  
E12  24975839.118   131248875.280       -2974.542          35.000  
C16  35603167.591   185395035.476        -184.179          49.000  
C13  37403591.125   194770287.039       -2537.482          41.000  
R 1  19062919.581   101902218.894       -2615.069          49.000  
R 3  22325101.642   119508084.818        3157.239          36.000  
R13  20741703.133   110759542.687        3323.003          35.000  
R10  22774261.031   121485081.752       -4801.008          37.000  
E 4  24065861.876   126466943.564        1417.553          46.000  
J 7  35817639.057   188222954.673        -555.335          40.000  
G20  18913007.601    99388522.271        -214.074          46.000  
E 1  23471487.844   123343554.251        1844.083          44.000  
J 3  36508238.704   191852081.156        -484.946          35.000  
G25  22362591.692   117516201.378        3320.557          37.000  
G24  18734988.823    98453058.254       -1585.157          49.000  
E21  22418191.607   117808436.910        -779.440          48.000  
E11                                                                
G32                                                                
> 2020  1 16  2 22 30.1950000  0 37                     
E27  25317751.151   133045705.801       -3061.402          41.000  
E19  22011699.580   115672275.911        -644.028          40.000  
G15  20346208.093   106920039.097       -2532.844          46.000  
J 1  36588972.133   192276346.051         120.265          47.000  
G21  22614742.078   118841254.228       -2630.480          39.000  
C 9  36638426.212   190785873.786        -176.135          45.000  
C22  20768615.547   108147597.523       -1850.137          52.000  
C 7  38108786.058   198442452.471         876.685          38.000  
C 8  38136192.948   198585144.264       -2687.646          35.000  
C 6  35362065.245   184139547.278        -195.574          46.000  
C19  24290773.967   126488367.814       -3544.324          40.000  
R 8  22610806.015   121079785.552       -4035.460          43.000  
R11  19271013.323   102978531.700       -3581.323          49.000  
R 2  18398410.158    98177474.941        1582.676          52.000  
R12  17689748.774    94495527.129          78.761          52.000  
G10  20632664.617   108425399.764        1990.709          46.000  
J 2  35810841.611   188187232.392       -1031.019          46.000  
G13  22953149.066   120619568.120       -3123.788          33.000  
E20  19090192.556   100319627.843       -2327.325          38.000  
G12  20195287.106   106127021.329        2176.272          49.000  
E12  24975952.401   131249470.174       -2974.646          35.000  
C16  35603174.633   185395072.298        -184.135          49.000  
C13  37403688.559   194770794.537       -2537.616          41.000  
R 1  19063017.386   101902741.917       -2615.107          49.000  
R 3  22324983.578   119507453.256        3157.990          36.000  
R13  20741578.687   110758878.149        3322.556          35.000  
R10  22774441.027   121486041.907       -4800.893          37.000  
E 4  24065807.966   126466660.056        1417.563          46.000  
J 7  35817660.228   188223065.701        -555.073          40.000  
G20  18913015.695    99388565.097        -214.155          46.000  
E 1  23471417.679   123343185.429        1844.062          44.000  
J 3  36508257.172   191852178.042        -484.304          35.000  
G25  22362465.256   117515537.196        3320.837          37.000  
G24  18735049.157    98453375.277       -1585.132          49.000  
E21  22418221.236   117808592.772        -779.348          48.000  
E11                                                                
G32                                                                
> 2020  1 16  2 22 30.3950000  0 37                     
E27  25317867.791   133046318.146       -3061.949          41.000  
E19  22011724.107   115672404.802        -644.549          40.000  
G15  20346304.505   106920545.681       -2533.116          46.000  
J 1  36588967.587   192276322.041         120.074          47.000  
G21  22614842.192   118841780.427       -2630.806          39.000  
C 9  36638432.974   190785909.059        -176.237          45.000  
C22  20768686.617   108147967.577       -1850.335          52.000  
C 7  38108752.367   198442277.156         876.569          38.000  
C 8  38136296.204   198585681.799       -2687.415          35.000  
C 6  35362072.807   184139586.394        -195.563          46.000  
C19  24290910.113   126489076.663       -3544.345          40.000  
R 8  22610956.750   121080592.659       -4035.502          43.000  
R11  19271147.420   102979247.999       -3581.640          48.000  
R 2  18398350.808    98177158.433        1582.462          52.000  
R12  17689745.835    94495511.414          78.380          52.000  
G10  20632588.877   108425001.675        1990.457          46.000  
J 2  35810880.867   188187438.604       -1031.170          46.000  
G13  22953267.906   120620192.867       -3123.718          33.000  
E20  19090281.088   100320093.279       -2326.983          38.000  
G12  20195204.289   106126586.097        2176.022          49.000  
E12  24976065.611   131250065.066       -2974.390          35.000  
C16  35603181.664   185395109.133        -184.209          49.000  
C13  37403785.999   194771302.024       -2537.628          41.000  
R 1  19063115.223   101903264.980       -2615.450          49.000  
R 3  22324865.603   119506821.765        3157.672          36.000  
R13  20741454.254   110758213.588        3322.262          35.000  
R10  22774621.026   121487002.062       -4800.764          37.000  
E 4  24065754.059   126466376.568        1417.349          46.000  
J 7  35817681.360   188223176.774        -555.408          40.000  
G20  18913023.840    99388607.956        -214.486          46.000  
E 1  23471347.486   123342816.616        1843.923          44.000  
J 3  36508275.620   191852274.974        -484.761          35.000  
G25  22362338.847   117514873.054        3320.660          37.000  
G24  18735109.492    98453692.338       -1585.373          49.000  
E21  22418250.967   117808748.673        -779.593          48.000  
E11                                                                
G32                                                                
> 2020  1 16  2 22 30.5950000  0 37                     
E27  25317984.324   133046930.502       -3061.809          41.000  
E19  22011748.621   115672533.702        -644.648          40.000  
G15  20346400.919   106921052.281       -2533.065          46.000  
J 1  36588963.093   192276298.046         119.852          47.000  
G21  22614942.338   118842306.661       -2631.126          39.000  
C 9  36638439.742   190785944.346        -176.546          45.000  
C22  20768757.638   108148337.669       -1850.510          52.000  
C 7  38108718.684   198442101.873         876.341          38.000  
C 8  38136399.424   198586219.376       -2687.840          35.000  
C 6  35362080.239   184139625.537        -195.799          46.000  
C19  24291046.204   126489785.550       -3544.366          40.000  
R 8  22611107.467   121081399.799       -4035.754          43.000  
R11  19271281.441   102979964.321       -3581.677          48.000  
R 2  18398291.481    98176841.953        1582.240          52.000  
R12  17689742.951    94495495.749          78.191          52.000  
G10  20632513.133   108424603.611        1990.209          46.000  
J 2  35810920.082   188187644.823       -1031.214          46.000  
G13  22953386.775   120620817.665       -3124.084          33.000  
E20  19090369.681   100320558.783       -2327.109          38.000  
G12  20195121.488   106126150.898        2175.884          50.000  
E12  24976178.809   131250659.988       -2974.630          35.000  
C16  35603188.831   185395145.984        -184.302          49.000  
C13  37403883.504   194771809.547       -2537.762          41.000  
R 1  19063213.131   101903788.080       -2615.626          49.000  
R 3  22324747.667   119506190.263        3157.410          36.000  
R13  20741329.814   110757549.077        3322.465          35.000  
R10  22774801.061   121487962.274       -4801.115          37.000  
E 4  24065700.146   126466093.081        1417.326          46.000  
J 7  35817702.449   188223287.835        -555.435          40.000  
G20  18913031.998    99388650.870        -214.662          46.000  
E 1  23471277.338   123342447.852        1843.729          44.000  
J 3  36508294.069   191852371.901        -484.606          36.000  
G25  22362212.461   117514208.944        3320.593          38.000  
G24  18735169.831    98454009.424       -1585.544          49.000  
E21  22418280.660   117808904.612        -779.851          48.000  
E11                                                                
G32                                                                
> 2020  1 16  2 22 30.7950000  0 37                     
E27  25318100.879   133047542.851       -3061.601          41.000  
E19  22011773.167   115672662.591        -644.223          40.000  
G15  20346497.326   106921558.885       -2532.897          46.000  
J 1  36588958.506   192276274.026         120.092          47.000  
G21  22615042.461   118842832.869       -2631.083          39.000  
C 9  36638446.546   190785979.599        -176.232          45.000  
C22  20768828.752   108148707.758       -1850.382          52.000  
C 7  38108684.974   198441926.549         876.450          38.000  
C 8  38136502.622   198586756.928       -2688.066          35.000  
C 6  35362087.738   184139664.652        -195.453          46.000  
C19  24291182.321   126490494.433       -3544.208          40.000  
R 8  22611258.198   121082206.938       -4035.743          43.000  
R11  19271415.495   102980680.652       -3581.500          48.000  
R 2  18398232.165    98176525.468        1582.491          52.000  
R12  17689740.024    94495480.095          78.279          52.000  
G10  20632437.399   108424205.540        1990.497          46.000  
J 2  35810959.305   188187851.037       -1031.001          46.000  
G13  22953505.684   120621442.406       -3123.231          33.000  
E20  19090458.251   100321024.262       -2327.268          38.000  
G12  20195038.711   106125715.701        2176.095          50.000  
E12  24976291.990   131251254.897       -2974.531          35.000  
C16  35603195.849   185395182.818        -184.114          49.000  
C13  37403980.946   194772317.044       -2537.482          41.000  
R 1  19063311.009   101904311.175       -2615.448          49.000  
R 3  22324629.723   119505558.726        3157.520          36.000  
R13  20741205.382   110756884.573        3322.777          35.000  
R10  22774981.078   121488922.429       -4800.592          37.000  
E 4  24065646.147   126465809.594        1417.583          46.000  
J 7  35817723.553   188223398.882        -555.121          40.000  
G20  18913040.127    99388693.783        -214.582          46.000  
E 1  23471207.099   123342079.075        1843.904          44.000  
J 3  36508312.521   191852468.807        -484.277          36.000  
G25  22362086.080   117513544.800        3320.789          38.000  
G24  18735230.163    98454326.515       -1585.368          49.000  
E21  22418310.293   117809060.544        -779.644          48.000  
E11                                                                
G32                                                                
> 2020  1 16  2 22 30.9950000  0 37                     
E27  25318217.438   133048155.228       -3062.156          41.000  
E19  22011797.724   115672791.517        -644.769          40.000  
G15  20346593.762   106922065.512       -2533.287          46.000  
J 1  36588953.855   192276250.020         119.958          47.000  
G21  22615142.645   118843359.094       -2631.709          39.000  
C 9  36638453.250   190786014.874        -176.561          45.000  
C22  20768899.745   108149077.883       -1850.894          52.000  
C 7  38108651.321   198441751.248         876.466          38.000  
C 8  38136605.855   198587294.493       -2687.914          35.000  
C 6  35362095.303   184139703.789        -196.023          46.000  
C19  24291318.417   126491203.329       -3544.624          40.000  
R 8  22611408.906   121083014.082       -4035.912          43.000  
R11  19271549.547   102981397.018       -3581.995          48.000  
R 2  18398172.821    98176209.019        1582.057          52.000  
R12  17689737.109    94495464.488          77.759          52.000  
G10  20632361.632   108423807.515        1989.964          46.000  
J 2  35810998.566   188188057.256       -1031.240          46.000  
G13  22953624.565   120622067.191       -3123.797          33.000  
E20  19090546.911   100321489.760       -2327.537          38.000  
G12  20194955.905   106125280.539        2175.576          50.000  
E12  24976405.252   131251849.829       -2975.212          35.000  
C16  35603202.942   185395219.665        -184.475          49.000  
C13  37404078.381   194772824.573       -2537.836          41.000  
R 1  19063408.876   101904834.315       -2616.000          49.000  
R 3  22324511.745   119504927.199        3157.227          36.000  
R13  20741080.973   110756220.079        3322.173          35.000  
R10  22775161.125   121489882.612       -4800.984          37.000  
E 4  24065592.299   126465526.122        1417.109          46.000  
J 7  35817744.685   188223509.958        -555.562          40.000  
G20  18913048.291    99388736.739        -214.992          46.000  
E 1  23471136.962   123341710.323        1843.432          44.000  
J 3  36508330.997   191852565.739        -484.930          36.000  
G25  22361959.662   117512880.679        3320.471          38.000  
G24  18735290.504    98454643.629       -1585.702          49.000  
E21  22418340.089   117809216.510        -780.039          48.000  
E11                                                                
G32                                                                
> 2020  1 16  2 22 31.1950000  0 37                     
E27  25318333.980   133048767.596       -3061.582          41.000  
E19  22011822.155   115672920.451        -644.787          40.000  
G15  20346690.208   106922572.136       -2533.152          46.000  
J 1  36588949.316   192276226.018         120.120          47.000  
G21  22615242.759   118843885.319       -2631.398          39.000  
C 9  36638460.034   190786050.150        -176.254          45.000  
C22  20768970.883   108149448.017       -1850.748          52.000  
C 7  38108617.692   198441575.965         876.330          38.000  
C 8  38136709.083   198587832.055       -2688.062          35.000  
C 6  35362102.723   184139742.914        -195.718          46.000  
C19  24291454.566   126491912.232       -3544.545          40.000  
R 8  22611559.631   121083821.239       -4035.666          43.000  
R11  19271683.627   102982113.392       -3581.921          48.000  
R 2  18398113.560    98175892.581        1582.191          52.000  
R12  17689734.183    94495448.915          77.753          52.000  
G10  20632285.886   108423409.498        1990.006          46.000  
J 2  35811037.776   188188263.495       -1031.046          46.000  
G13  22953743.485   120622691.973       -3123.557          33.000  
E20  19090635.565   100321955.281       -2327.431          38.000  
G12  20194873.055   106124845.378        2175.767          50.000  
E12  24976518.511   131252444.736       -2974.876          35.000  
C16  35603210.100   185395256.499        -184.198          49.000  
C13  37404175.857   194773332.094       -2537.628          41.000  
R 1  19063506.728   101905357.469       -2615.864          49.000  
R 3  22324393.678   119504295.654        3157.776          36.000  
R13  20740956.489   110755555.600        3322.509          35.000  
R10  22775341.146   121490842.810       -4800.896          37.000  
E 4  24065538.295   126465242.640        1417.416          46.000  
J 7  35817765.829   188223621.020        -555.337          40.000  
G20  18913056.411    99388779.721        -214.911          46.000  
E 1  23471066.869   123341341.586        1843.522          44.000  
J 3  36508349.374   191852662.625        -484.358          36.000  
G25  22361833.282   117512216.554        3320.526          38.000  
G24  18735350.834    98454960.767       -1585.643          49.000  
E21  22418369.732   117809372.497        -779.977          48.000  
E11                                                                
G32                                                                
> 2020  1 16  2 22 31.3950000  0 37                     
E27  25318450.618   133049379.997       -3062.314          41.000  
E19  22011846.693   115673049.367        -644.823          40.000  
G15  20346786.642   106923078.773       -2533.482          46.000  
J 1  36588944.846   192276202.014         119.719          47.000  
G21  22615342.911   118844411.543       -2631.439          39.000  
C 9  36638466.811   190786085.418        -176.650          45.000  
C22  20769041.922   108149818.163       -1851.049          52.000  
C 7  38108584.005   198441400.662         876.134          38.000  
C 8  38136812.287   198588369.603       -2688.032          35.000  
C 6  35362110.299   184139782.030        -195.812          46.000  
C19  24291590.706   126492621.120       -3544.730          40.000  
R 8  22611710.333   121084628.401       -4036.111          43.000  
R11  19271817.658   102982829.782       -3582.239          48.000  
R 2  18398054.275    98175576.155        1581.762          52.000  
R12  17689731.286    94495433.367          77.308          52.000  
G10  20632210.176   108423011.493        1989.609          46.000  
J 2  35811076.989   188188469.723       -1031.516          46.000  
G13  22953862.356   120623316.760       -3124.052          33.000  
E20  19090724.215   100322420.785       -2327.879          38.000  
G12  20194790.241   106124410.244        2175.391          50.000  
E12  24976631.710   131253039.633       -2975.201          35.000  
C16  35603217.082   185395293.337        -184.480          49.000  
C13  37404273.281   194773839.611       -2538.000          41.000  
R 1  19063604.566   101905880.639       -2616.190          49.000  
R 3  22324275.663   119503664.125        3157.397          36.000  
R13  20740832.033   110754891.134        3322.288          35.000  
R10  22775521.168   121491802.995       -4801.287          37.000  
E 4  24065484.314   126464959.158        1417.178          46.000  
J 7  35817786.958   188223732.101        -555.849          40.000  
G20  18913064.633    99388822.732        -215.360          46.000  
E 1  23470996.692   123340972.846        1843.438          44.000  
J 3  36508367.874   191852759.539        -484.310          36.000  
G25  22361706.870   117511552.430        3320.471          38.000  
G24  18735411.230    98455277.918       -1586.154          49.000  
E21  22418399.391   117809528.491        -780.287          48.000  
E11                                                                
G32                                                                
> 2020  1 16  2 22 31.5950000  0 37                     
E27  25318567.029   133049992.376       -3061.860          41.000  
E19  22011871.185   115673178.283        -644.341          40.000  
G15  20346883.092   106923585.409       -2533.228          46.000  
J 1  36588940.315   192276177.995         119.979          47.000  
G21  22615443.049   118844937.778       -2631.351          39.000  
C 9  36638473.577   190786120.674        -176.520          45.000  
C22  20769113.061   108150188.323       -1850.937          52.000  
C 7  38108550.330   198441225.356         876.162          37.000  
C 8  38136915.509   198588907.136       -2687.388          35.000  
C 6  35362117.818   184139821.139        -195.474          46.000  
C19  24291726.845   126493330.017       -3544.378          41.000  
R 8  22611861.069   121085435.572       -4035.824          43.000  
R11  19271951.734   102983546.185       -3582.159          48.000  
R 2  18397994.978    98175259.739        1582.023          52.000  
R12  17689728.376    94495417.835          77.544          52.000  
G10  20632134.433   108422613.489        1989.958          46.000  
J 2  35811116.232   188188675.941       -1031.143          46.000  
G13  22953981.246   120623941.535       -3124.050          33.000  
E20  19090812.782   100322886.279       -2327.219          38.000  
G12  20194707.446   106123975.121        2175.510          50.000  
E12  24976744.936   131253634.507       -2974.470          35.000  
C16  35603224.209   185395330.157        -184.163          49.000  
C13  37404370.748   194774347.110       -2537.390          41.000  
R 1  19063702.416   101906403.823       -2616.024          49.000  
R 3  22324157.648   119503032.583        3157.983          36.000  
R13  20740707.599   110754226.691        3322.416          35.000  
R10  22775701.189   121492763.170       -4801.037          37.000  
E 4  24065430.300   126464675.681        1417.354          46.000  
J 7  35817808.058   188223843.126        -555.322          40.000  
G20  18913072.783    99388865.752        -215.298          46.000  
E 1  23470926.484   123340604.123        1843.547          44.000  
J 3  36508386.316   191852856.452        -484.570          36.000  
G25  22361580.486   117510888.309        3320.447          38.000  
G24  18735471.554    98455595.067       -1585.898          49.000  
E21  22418429.032   117809684.503        -780.101          48.000  
E11                                                                
G32                                                                
> 2020  1 16  2 22 31.7950000  0 37                     
E27  25318683.495   133050604.700       -3061.330          41.000  
E19  22011895.687   115673307.181        -644.378          40.000  
G15  20346979.523   106924091.994       -2532.733          46.000  
J 1  36588935.691   192276153.913         120.570          47.000  
G21  22615543.140   118845463.930       -2630.682          39.000  
C 9  36638480.258   190786155.844        -175.700          45.000  
C22  20769184.135   108150558.422       -1850.350          52.000  
C 7  38108516.610   198441049.982         876.830          37.000  
C 8  38137018.738   198589444.620       -2686.887          35.000  
C 6  35362125.331   184139860.180        -194.993          46.000  
C19  24291862.949   126494038.865       -3544.128          41.000  
R 8  22612011.778   121086242.678       -4035.359          43.000  
R11  19272085.785   102984262.534       -3581.537          48.000  
R 2  18397935.610    98174943.267        1582.503          52.000  
R12  17689725.468    94495402.277          77.978          52.000  
G10  20632058.636   108422215.441        1990.456          46.000  
J 2  35811155.452   188188882.097       -1030.520          46.000  
G13  22954100.138   120624566.247       -3123.218          34.000  
E20  19090901.367   100323351.764       -2327.379          38.000  
G12  20194624.598   106123539.942        2176.068          50.000  
E12  24976858.177   131254229.336       -2974.031          35.000  
C16  35603231.283   185395366.911        -183.635          49.000  
C13  37404468.202   194774854.567       -2537.018          41.000  
R 1  19063800.268   101906926.960       -2615.595          49.000  
R 3  22324039.596   119502400.973        3158.295          36.000  
R13  20740583.128   110753562.206        3322.414          35.000  
R10  22775881.174   121493723.285       -4800.819          37.000  
E 4  24065376.260   126464392.120        1418.058          46.000  
J 7  35817829.200   188223954.109        -554.594          40.000  
G20  18913080.961    99388908.728        -214.764          46.000  
E 1  23470856.301   123340235.328        1844.052          44.000  
J 3  36508404.766   191852953.268        -483.967          36.000  
G25  22361454.079   117510224.109        3321.051          38.000  
G24  18735531.866    98455912.168       -1585.394          49.000  
E21  22418458.682   117809840.464        -779.629          48.000  
E11                                                                
G32                                                                
> 2020  1 16  2 22 31.9950000  0 37                     
E27  25318800.084   133051217.107       -3062.282          42.000  
E19  22011920.353   115673436.094        -644.809          40.000  
G15  20347075.936   106924598.637       -2533.337          46.000  
J 1  36588931.124   192276129.886         119.973          47.000  
G21  22615643.270   118845990.157       -2631.179          39.000  
C 9  36638487.048   190786191.088        -176.302          45.000  
C22  20769255.195   108150928.603       -1850.987          52.000  
C 7  38108482.915   198440874.646         876.432          37.000  
C 8  38137122.023   198589982.179       -2687.769          35.000  
C 6  35362132.886   184139899.268        -195.401          46.000  
C19  24291999.020   126494747.752       -3544.444          41.000  
R 8  22612162.551   121087049.854       -4035.955          43.000  
R11  19272219.853   102984978.960       -3582.208          48.000  
R 2  18397876.326    98174626.869        1581.831          51.000  
R12  17689722.588    94495386.807          77.183          52.000  
G10  20631982.968   108421817.471        1989.745          46.000  
J 2  35811194.711   188189088.312       -1031.177          46.000  
G13  22954219.053   120625191.023       -3124.037          34.000  
E20  19090989.962   100323817.279       -2328.195          38.000  
G12  20194541.820   106123104.844        2175.364          50.000  
E12  24976971.302   131254824.213       -2974.703          35.000  
C16  35603238.305   185395403.720        -184.178          49.000  
C13  37404565.610   194775362.087       -2537.964          41.000  
R 1  19063898.134   101907450.173       -2616.132          49.000  
R 3  22323921.543   119501769.407        3157.617          36.000  
R13  20740458.686   110752897.744        3322.371          36.000  
R10  22776061.157   121494683.408       -4800.582          37.000  
E 4  24065322.342   126464108.627        1417.347          46.000  
J 7  35817850.322   188224065.165        -555.362          40.000  
G20  18913089.222    99388951.790        -215.394          46.000  
E 1  23470786.167   123339866.609        1843.547          44.000  
J 3  36508423.173   191853050.142        -484.258          36.000  
G25  22361327.681   117509559.964        3320.892          38.000  
G24  18735592.187    98456229.342       -1585.926          49.000  
E21  22418488.459   117809996.501        -780.427          48.000  
E11                                                                
G32                                                                
> 2020  1 16  2 22 32.1950000  0 37                     
E27  25318916.673   133051829.469       -3062.005          42.000  
E19  22011944.878   115673565.031        -644.770          40.000  
G15  20347172.347   106925105.276       -2533.395          46.000  
J 1  36588926.616   192276105.844         120.009          47.000  
G21  22615743.468   118846516.360       -2630.954          39.000  
C 9  36638493.830   190786226.292        -176.039          45.000  
C22  20769326.231   108151298.779       -1851.098          52.000  
C 7  38108449.241   198440699.303         876.713          37.000  
C 8  38137225.222   198590519.695       -2687.707          35.000  
C 6  35362140.355   184139938.350        -195.504          46.000  
C19  24292135.202   126495456.646       -3544.814          41.000  
R 8  22612313.308   121087857.024       -4036.125          43.000  
R11  19272353.896   102985695.389       -3582.342          48.000  
R 2  18397816.995    98174310.466        1581.805          51.000  
R12  17689719.668    94495371.355          76.955          52.000  
G10  20631907.211   108421419.481        1989.938          46.000  
J 2  35811233.948   188189294.511       -1031.095          46.000  
G13  22954337.933   120625815.753       -3123.229          34.000  
E20  19091078.593   100324282.764       -2327.921          38.000  
G12  20194459.042   106122669.746        2175.246          50.000  
E12  24977084.419   131255419.042       -2973.748          35.000  
C16  35603245.456   185395440.515        -184.285          49.000  
C13  37404663.053   194775869.558       -2537.573          41.000  
R 1  19063996.034   101907973.391       -2616.349          49.000  
R 3  22323803.556   119501137.789        3157.965          35.000  
R13  20740334.275   110752233.333        3321.686          36.000  
R10  22776241.209   121495643.564       -4800.555          37.000  
E 4  24065268.421   126463825.120        1417.441          46.000  
J 7  35817871.452   188224176.170        -555.237          40.000  
G20  18913097.436    99388994.859        -215.480          46.000  
E 1  23470715.995   123339497.888        1843.413          45.000  
J 3  36508441.654   191853147.018        -484.802          36.000  
G25  22361201.260   117508895.809        3320.807          38.000  
G24  18735652.556    98456546.519       -1586.132          49.000  
E21  22418518.178   117810152.525        -780.246          48.000  
E11                                                                
G32                                                                
> 2020  1 16  2 22 32.3950000  0 37                     
E27  25319033.221   133052441.885       -3062.024          42.000  
E19  22011969.460   115673693.981        -644.886          40.000  
G15  20347268.779   106925611.962       -2533.755          46.000  
J 1  36588922.045   192276081.816         119.998          47.000  
G21  22615843.633   118847042.623       -2631.568          39.000  
C 9  36638500.573   190786261.538        -176.140          45.000  
C22  20769397.334   108151668.996       -1851.242          52.000  
C 7  38108415.601   198440523.988         876.476          37.000  
C 8  38137328.446   198591057.245       -2687.772          35.000  
C 6  35362147.925   184139977.449        -195.490          46.000  
C19  24292271.351   126496165.561       -3544.705          41.000  
R 8  22612464.067   121088664.221       -4036.159          43.000  
R11  19272487.971   102986411.864       -3582.495          48.000  
R 2  18397757.696    98173994.107        1581.630          51.000  
R12  17689716.812    94495355.949          76.829          52.000  
G10  20631831.476   108421021.548        1989.542          46.000  
J 2  35811273.174   188189500.733       -1031.233          46.000  
G13  22954456.834   120626440.560       -3124.219          34.000  
E20  19091167.207   100324748.295       -2328.035          38.000  
G12  20194376.315   106122234.682        2175.093          50.000  
E12  24977197.588   131256013.930       -2974.458          35.000  
C16  35603252.425   185395477.315        -184.151          49.000  
C13  37404760.517   194776377.089       -2537.518          42.000  
R 1  19064093.859   101908496.657       -2616.556          49.000  
R 3  22323685.567   119500506.225        3157.672          35.000  
R13  20740209.879   110751568.918        3321.751          36.000  
R10  22776421.260   121496603.754       -4801.146          37.000  
E 4  24065214.443   126463541.639        1417.240          46.000  
J 7  35817892.558   188224287.224        -555.493          40.000  
G20  18913105.604    99389037.979        -215.780          46.000  
E 1  23470645.886   123339129.205        1843.231          45.000  
J 3  36508460.081   191853243.892        -484.634          36.000  
G25  22361074.879   117508231.674        3320.758          38.000  
G24  18735712.941    98456863.726       -1586.229          49.000  
E21  22418547.902   117810308.605        -780.486          48.000  
E11                                                                
G32                                                                
> 2020  1 16  2 22 32.5950000  0 37                     
E27  25319149.774   133053054.319       -3062.280          42.000  
E19  22011993.993   115673822.947        -644.789          40.000  
G15  20347365.219   106926118.634       -2533.717          46.000  
J 1  36588917.396   192276057.794         119.991          47.000  
G21  22615943.777   118847568.858       -2631.452          39.000  
C 9  36638507.288   190786296.778        -176.510          45.000  
C22  20769468.433   108152039.225       -1851.291          52.000  
C 7  38108381.884   198440348.704         875.799          37.000  
C 8  38137431.675   198591594.786       -2687.825          35.000  
C 6  35362155.407   184140016.545        -195.616          46.000  
C19  24292407.490   126496874.476       -3544.728          41.000  
R 8  22612614.826   121089471.430       -4036.110          43.000  
R11  19272622.018   102987128.352       -3582.660          48.000  
R 2  18397698.399    98173677.756        1581.656          51.000  
R12  17689713.997    94495340.582          76.675          52.000  
G10  20631755.793   108420623.626        1989.441          46.000  
J 2  35811312.432   188189706.957       -1031.020          46.000  
G13  22954575.679   120627065.343       -3124.196          34.000  
E20  19091255.804   100325213.833       -2328.275          38.000  
G12  20194293.523   106121799.636        2175.100          50.000  
E12  24977310.879   131256608.803       -2974.360          35.000  
C16  35603259.485   185395514.119        -184.139          49.000  
C13  37404857.932   194776884.616       -2537.799          42.000  
R 1  19064191.752   101909019.931       -2616.518          49.000  
R 3  22323567.625   119499874.643        3157.880          35.000  
R13  20740085.433   110750904.517        3322.033          36.000  
R10  22776601.274   121497563.900       -4800.588          37.000  
E 4  24065160.485   126463258.142        1417.440          46.000  
J 7  35817913.673   188224398.283        -555.650          40.000  
G20  18913113.828    99389081.120        -215.871          46.000  
E 1  23470575.748   123338760.515        1843.356          45.000  
J 3  36508478.559   191853340.751        -484.378          36.000  
G25  22360948.462   117507567.562        3320.386          38.000  
G24  18735773.299    98457180.957       -1586.307          49.000  
E21  22418577.533   117810464.697        -780.601          48.000  
E11                                                                
G32                                                                
> 2020  1 16  2 22 32.7950000  0 37                     
E27  25319266.398   133053666.720       -3062.196          42.000  
E19  22012018.412   115673951.912        -645.005          40.000  
G15  20347461.650   106926625.300       -2533.523          46.000  
J 1  36588912.777   192276033.749         120.107          47.000  
G21  22616043.908   118848095.090       -2631.398          39.000  
C 9  36638514.016   190786331.973        -175.989          45.000  
C22  20769539.545   108152409.456       -1851.272          52.000  
C 7  38108348.181   198440173.337         876.498          37.000  
C 8  38137534.933   198592132.304       -2687.988          35.000  
C 6  35362162.957   184140055.608        -195.319          46.000  
C19  24292543.650   126497583.389       -3544.613          41.000  
R 8  22612765.578   121090278.634       -4036.180          43.000  
R11  19272756.142   102987844.837       -3582.580          48.000  
R 2  18397639.115    98173361.412        1581.599          51.000  
R12  17689711.095    94495325.227          76.569          52.000  
G10  20631680.048   108420225.699        1989.482          46.000  
J 2  35811351.652   188189913.176       -1031.133          46.000  
G13  22954694.574   120627690.111       -3124.088          34.000  
E20  19091344.405   100325679.342       -2327.822          38.000  
G12  20194210.779   106121364.594        2175.053          50.000  
E12  24977424.099   131257203.662       -2974.110          35.000  
C16  35603266.549   185395550.902        -184.032          49.000  
C13  37404955.425   194777392.135       -2537.775          42.000  
R 1  19064289.645   101909543.221       -2616.586          49.000  
R 3  22323449.615   119499243.057        3157.581          35.000  
R13  20739960.992   110750240.126        3321.904          36.000  
R10  22776781.296   121498524.045       -4800.509          37.000  
E 4  24065106.529   126462974.651        1417.426          46.000  
J 7  35817934.787   188224509.277        -554.895          40.000  
G20  18913122.044    99389124.275        -215.889          46.000  
E 1  23470505.507   123338391.835        1843.444          45.000  
J 3  36508496.963   191853437.621        -484.594          36.000  
G25  22360822.020   117506903.409        3320.673          38.000  
G24  18735833.684    98457498.185       -1586.321          49.000  
E21  22418607.292   117810620.790        -780.543          48.000  
E11                                                                
G32                                                                
> 2020  1 16  2 22 32.9950000  0 37                     
E27  25319382.868   133054279.141       -3061.997          42.000  
E19  22012042.951   115674080.865        -644.945          40.000  
G15  20347558.022   106927131.977       -2533.422          46.000  
J 1  36588908.268   192276009.705         120.258          47.000  
G21  22616144.062   118848621.322       -2631.190          39.000  
C 9  36638520.796   190786367.180        -175.958          45.000  
C22  20769610.692   108152779.697       -1851.269          52.000  
C 7  38108314.524   198439998.019         876.679          37.000  
C 8  38137638.140   198592669.826       -2687.888          35.000  
C 6  35362170.543   184140094.684        -195.435          46.000  
C19  24292679.849   126498292.293       -3544.495          41.000  
R 8  22612916.340   121091085.837       -4036.116          43.000  
R11  19272890.276   102988561.337       -3582.470          49.000  
R 2  18397579.766    98173045.070        1581.675          51.000  
R12  17689708.241    94495309.898          76.633          52.000  
G10  20631604.335   108419827.786        1989.566          46.000  
J 2  35811390.929   188190119.391       -1031.118          46.000  
G13  22954813.461   120628314.876       -3123.975          34.000  
E20  19091433.100   100326144.876       -2327.887          38.000  
G12  20194127.988   106120929.565        2175.065          50.000  
E12  24977537.292   131257798.525       -2974.009          35.000  
C16  35603273.540   185395587.685        -183.865          49.000  
C13  37405052.879   194777899.626       -2537.445          41.000  
R 1  19064387.562   101910066.516       -2616.499          49.000  
R 3  22323331.575   119498611.444        3157.947          35.000  
R13  20739836.571   110749575.747        3321.647          36.000  
R10  22776961.272   121499484.213       -4800.848          37.000  
E 4  24065052.601   126462691.133        1417.669          46.000  
J 7  35817955.944   188224620.312        -555.049          40.000  
G20  18913130.286    99389167.456        -216.036          46.000  
E 1  23470435.366   123338023.159        1843.365          45.000  
J 3  36508515.386   191853534.472        -484.499          36.000  
G25  22360695.647   117506239.260        3321.021          38.000  
G24  18735894.042    98457815.425       -1586.270          49.000  
E21  22418637.061   117810776.900        -780.539          48.000  
E11                                                                
G32                                                                
> 2020  1 16  2 22 33.1950000  0 37                     
E27  25319499.419   133054891.576       -3062.289          42.000  
E19  22012067.448   115674209.849        -644.953          40.000  
G15  20347654.473   106927638.683       -2533.672          46.000  
J 1  36588903.698   192275985.674         119.991          47.000  
G21  22616244.174   118849147.582       -2631.559          39.000  
C 9  36638527.567   190786402.404        -176.212          45.000  
C22  20769681.835   108153149.971       -1851.498          52.000  
C 7  38108280.785   198439822.685         876.458          37.000  
C 8  38137741.305   198593207.380       -2688.261          35.000  
C 6  35362177.994   184140133.752        -195.479          46.000  
C19  24292816.019   126499001.225       -3544.757          41.000  
R 8  22613067.112   121091893.072       -4036.434          43.000  
R11  19273024.378   102989277.878       -3582.776          49.000  
R 2  18397520.468    98172728.768        1581.336          51.000  
R12  17689705.392    94495294.624          76.154          52.000  
G10  20631528.639   108419429.904        1989.239          46.000  
J 2  35811430.184   188190325.612       -1031.207          46.000  
G13  22954932.349   120628939.632       -3123.734          34.000  
E20  19091521.743   100326610.418       -2327.971          38.000  
G12  20194045.237   106120494.567        2174.875          50.000  
E12  24977650.515   131258393.394       -2974.291          35.000  
C16  35603280.697   185395624.477        -184.125          49.000  
C13  37405150.323   194778407.157       -2537.946          41.000  
R 1  19064485.461   101910589.855       -2616.873          49.000  
R 3  22323213.593   119497979.837        3158.099          36.000  
R13  20739712.161   110748911.389        3321.707          36.000  
R10  22777141.259   121500444.363       -4801.157          37.000  
E 4  24064998.726   126462407.646        1417.321          46.000  
J 7  35817977.094   188224731.364        -555.548          40.000  
G20  18913138.519    99389210.668        -216.281          46.000  
E 1  23470365.182   123337654.516        1843.065          44.000  
J 3  36508533.818   191853631.310        -484.419          36.000  
G25  22360569.267   117505575.150        3320.294          38.000  
G24  18735954.406    98458132.687       -1586.385          49.000  
E21  22418666.906   117810933.041        -780.813          48.000  
E11                                                                
G32                                                                
> 2020  1 16  2 22 33.3950000  0 37                     
E27  25319615.904   133055504.015       -3062.143          41.000  
E19  22012092.004   115674338.834        -645.004          40.000  
G15  20347750.843   106928145.376       -2533.476          46.000  
J 1  36588899.027   192275961.631         120.233          47.000  
G21  22616344.295   118849673.820       -2631.118          39.000  
C 9  36638534.309   190786437.604        -176.121          45.000  
C22  20769752.941   108153520.251       -1851.359          52.000  
C 7  38108247.124   198439647.375         876.555          37.000  
C 8  38137844.539   198593744.874       -2687.471          35.000  
C 6  35362185.501   184140172.827        -195.376          46.000  
C19  24292952.231   126499710.153       -3544.478          41.000  
R 8  22613217.898   121092700.291       -4036.108          43.000  
R11  19273158.493   102989994.434       -3582.849          49.000  
R 2  18397461.210    98172412.463        1581.499          51.000  
R12  17689702.530    94495279.365          76.295          52.000  
G10  20631452.930   108419032.029        1989.458          46.000  
J 2  35811469.412   188190531.832       -1031.072          46.000  
G13  22955051.286   120629564.431       -3123.600          34.000  
E20  19091610.339   100327075.954       -2327.628          38.000  
G12  20193962.449   106120059.575        2174.977          50.000  
E12  24977763.783   131258988.248       -2974.101          35.000  
C16  35603287.734   185395661.253        -183.867          49.000  
C13  37405247.781   194778914.672       -2537.622          42.000  
R 1  19064583.355   101911113.207       -2616.810          49.000  
R 3  22323095.582   119497348.249        3158.154          36.000  
R13  20739587.786   110748247.041        3321.604          35.000  
R10  22777321.258   121501404.523       -4801.321          37.000  
E 4  24064944.822   126462124.153        1417.445          46.000  
J 7  35817998.232   188224842.386        -555.349          40.000  
G20  18913146.742    99389253.898        -216.162          46.000  
E 1  23470294.977   123337285.853        1843.339          45.000  
J 3  36508552.242   191853728.160        -484.275          36.000  
G25  22360442.904   117504911.003        3320.764          38.000  
G24  18736014.755    98458449.968       -1586.364          49.000  
E21  22418696.509   117811089.188        -780.769          48.000  
E11                                                                
G32                                                                
> 2020  1 16  2 22 33.5950000  0 37                     
E27  25319732.370   133056116.485       -3062.542          41.000  
E19  22012116.633   115674467.832        -645.296          40.000  
G15  20347847.265   106928652.108       -2533.835          46.000  
J 1  36588894.449   192275937.605         119.954          47.000  
G21  22616444.446   118850200.092       -2631.321          39.000  
C 9  36638541.024   190786472.816        -176.206          45.000  
C22  20769824.014   108153890.567       -1851.801          52.000  
C 7  38108213.426   198439472.050         876.306          37.000  
C 8  38137947.753   198594282.419       -2687.763          35.000  
C 6  35362192.912   184140211.905        -195.612          46.000  
C19  24293088.440   126500419.109       -3545.033          41.000  
R 8  22613368.613   121093507.545       -4036.504          43.000  
R11  19273292.605   102990711.018       -3583.191          48.000  
R 2  18397401.941    98172096.198        1581.033          51.000  
R12  17689699.694    94495264.165          75.664          52.000  
G10  20631377.234   108418634.178        1989.107          46.000  
J 2  35811508.646   188190738.073       -1031.448          46.000  
G13  22955170.150   120630189.246       -3124.591          34.000  
E20  19091698.937   100327541.505       -2327.588          38.000  
G12  20193879.681   106119624.620        2174.590          50.000  
E12  24977876.948   131259583.120       -2974.939          35.000  
C16  35603294.719   185395698.048        -184.154          49.000  
C13  37405345.247   194779422.207       -2537.958          42.000  
R 1  19064681.295   101911636.593       -2617.240          49.000  
R 3  22322977.557   119496716.663        3157.440          36.000  
R13  20739463.364   110747582.724        3321.143          35.000  
R10  22777501.243   121502364.667       -4800.881          37.000  
E 4  24064890.880   126461840.670        1417.226          46.000  
J 7  35818019.382   188224953.422        -555.258          40.000  
G20  18913154.996    99389297.174        -216.629          46.000  
E 1  23470224.876   123336917.249        1842.909          45.000  
J 3  36508570.662   191853825.013        -484.529          36.000  
G25  22360316.514   117504246.888        3320.404          38.000  
G24  18736075.133    98458767.279       -1586.804          49.000  
E21  22418726.251   117811245.377        -781.155          48.000  
E11                                                                
G32                                                                
> 2020  1 16  2 22 33.7950000  0 37                     
E27  25319848.853   133056728.943       -3062.301          41.000  
E19  22012141.197   115674596.840        -644.838          40.000  
G15  20347943.624   106929158.845       -2533.713          46.000  
J 1  36588889.909   192275913.577         120.191          47.000  
G21  22616544.542   118850726.368       -2631.281          39.000  
C 9  36638547.711   190786508.031        -176.039          45.000  
C22  20769895.119   108154260.892       -1851.612          52.000  
C 7  38108179.773   198439296.750         876.415          37.000  
C 8  38138051.005   198594819.945       -2687.459          35.000  
C 6  35362200.382   184140250.977        -195.279          46.000  
C19  24293224.633   126501128.047       -3544.730          41.000  
R 8  22613519.392   121094314.811       -4036.391          43.000  
R11  19273426.757   102991427.623       -3583.014          48.000  
R 2  18397342.684    98171779.934        1581.310          52.000  
R12  17689696.851    94495248.986          75.777          52.000  
G10  20631301.541   108418236.350        1989.310          46.000  
J 2  35811547.897   188190944.305       -1031.059          46.000  
G13  22955289.019   120630814.021       -3123.934          34.000  
E20  19091787.569   100328007.087       -2327.433          38.000  
G12  20193796.916   106119189.681        2174.679          50.000  
E12  24977990.122   131260177.968       -2973.911          35.000  
C16  35603301.877   185395734.833        -183.959          49.000  
C13  37405442.702   194779929.738       -2537.683          42.000  
R 1  19064779.204   101912159.990       -2616.962          49.000  
R 3  22322859.575   119496085.028        3158.453          36.000  
R13  20739338.933   110746918.430        3321.031          36.000  
R10  22777681.226   121503324.840       -4800.940          37.000  
E 4  24064836.789   126461557.181        1417.524          46.000  
J 7  35818040.470   188225064.454        -555.273          40.000  
G20  18913163.254    99389340.476        -216.665          46.000  
E 1  23470154.594   123336548.623        1843.192          45.000  
J 3  36508589.035   191853921.865        -484.293          36.000  
G25  22360190.150   117503582.765        3320.776          39.000  
G24  18736135.445    98459084.603       -1586.578          49.000  
E21  22418755.863   117811401.572        -781.000          48.000  
E11                                                                
G32                                                                
> 2020  1 16  2 22 33.9950000  0 37                     
E27  25319965.436   133057341.432       -3062.492          41.000  
E19  22012165.771   115674725.889        -645.546          40.000  
G15  20348040.070   106929665.600       -2533.862          46.000  
J 1  36588885.396   192275889.563         120.037          47.000  
G21  22616644.718   118851252.652       -2631.244          39.000  
C 9  36638554.491   190786543.259        -175.978          45.000  
C22  20769966.186   108154631.248       -1851.865          52.000  
C 7  38108146.057   198439121.456         876.143          37.000  
C 8  38138154.274   198595357.510       -2688.147          35.000  
C 6  35362207.836   184140290.056        -195.197          46.000  
C19  24293360.803   126501837.019       -3544.736          41.000  
R 8  22613670.176   121095122.097       -4036.450          43.000  
R11  19273560.918   102992144.256       -3583.191          48.000  
R 2  18397283.437    98171463.705        1581.103          52.000  
R12  17689693.988    94495233.858          75.545          52.000  
G10  20631225.858   108417838.549        1989.057          46.000  
J 2  35811587.174   188191150.559       -1031.223          46.000  
G13  22955407.970   120631438.831       -3123.964          34.000  
E20  19091876.162   100328472.686       -2327.594          38.000  
G12  20193714.150   106118754.773        2174.383          50.000  
E12  24978103.334   131260772.854       -2974.281          35.000  
C16  35603308.897   185395771.624        -183.862          49.000  
C13  37405540.140   194780437.271       -2537.463          42.000  
R 1  19064877.082   101912683.430       -2617.200          49.000  
R 3  22322741.566   119495453.441        3158.405          35.000  
R13  20739214.548   110746254.151        3321.068          36.000  
R10  22777861.248   121504285.025       -4801.359          37.000  
E 4  24064782.942   126461273.727        1417.255          46.000  
J 7  35818061.615   188225175.513        -554.987          40.000  
G20  18913171.476    99389383.804        -216.718          46.000  
E 1  23470084.505   123336180.050        1842.841          45.000  
J 3  36508607.477   191854018.714        -484.062          36.000  
G25  22360063.794   117502918.677        3320.624          39.000  
G24  18736195.853    98459401.952       -1586.837          49.000  
E21  22418785.586   117811557.805        -781.201          48.000  
E11                                                                
G32                                                                
> 2020  1 16  2 22 34.1950000  0 37                     
E27  25320081.959   133057953.894       -3062.459          41.000  
E19  22012190.320   115674854.877        -645.101          40.000  
G15  20348136.484   106930172.329       -2533.881          46.000  
J 1  36588880.782   192275865.510         120.114          47.000  
G21  22616744.828   118851778.931       -2631.681          39.000  
C 9  36638561.220   190786578.447        -176.171          45.000  
C22  20770037.265   108155001.585       -1851.876          52.000  
C 7  38108112.409   198438946.114         876.332          37.000  
C 8  38138257.521   198595895.002       -2687.538          35.000  
C 6  35362215.378   184140329.116        -195.532          46.000  
C19  24293496.955   126502545.971       -3544.971          41.000  
R 8  22613820.947   121095929.352       -4036.413          43.000  
R11  19273694.986   102992860.886       -3583.325          48.000  
R 2  18397224.165    98171147.455        1581.018          52.000  
R12  17689691.169    94495218.733          75.328          52.000  
G10  20631150.203   108417440.734        1988.738          46.000  
J 2  35811626.457   188191356.784       -1031.301          46.000  
G13  22955526.832   120632063.616       -3124.183          34.000  
E20  19091964.861   100328938.267       -2327.865          38.000  
G12  20193631.419   106118319.841        2174.439          50.000  
E12  24978216.569   131261367.688       -2974.460          35.000  
C16  35603315.967   185395808.391        -183.932          49.000  
C13  37405637.600   194780944.798       -2537.842          42.000  
R 1  19064975.001   101913206.858       -2617.367          49.000  
R 3  22322623.625   119494821.820        3157.812          35.000  
R13  20739090.145   110745589.841        3321.092          36.000  
R10  22778041.216   121505245.141       -4800.786          37.000  
E 4  24064729.047   126460990.219        1417.357          46.000  
J 7  35818082.713   188225286.522        -555.212          40.000  
G20  18913179.718    99389427.138        -216.885          46.000  
E 1  23470014.373   123335811.431        1843.001          45.000  
J 3  36508625.925   191854115.542        -484.141          36.000  
G25  22359937.451   117502254.541        3320.612          39.000  
G24  18736256.265    98459719.288       -1586.900          49.000  
E21  22418815.368   117811714.013        -781.250          48.000  
E11                                                                
G32                                                                
> 2020  1 16  2 22 34.3950000  0 37                     
E27  25320198.554   133058566.369       -3062.565          41.000  
E19  22012214.864   115674983.906        -645.281          40.000  
G15  20348232.914   106930679.082       -2533.955          46.000  
J 1  36588876.147   192275841.473         120.090          47.000  
G21  22616844.979   118852305.204       -2631.469          39.000  
C 9  36638568.033   190786613.644        -176.227          45.000  
C22  20770108.373   108155371.951       -1851.974          52.000  
C 7  38108078.802   198438770.795         876.525          37.000  
C 8  38138360.773   198596432.522       -2687.803          35.000  
C 6  35362222.878   184140368.159        -195.217          46.000  
C19  24293633.126   126503254.924       -3545.022          41.000  
R 8  22613971.678   121096736.630       -4036.552          43.000  
R11  19273829.089   102993577.536       -3583.581          48.000  
R 2  18397164.913    98170831.231        1580.927          52.000  
R12  17689688.361    94495203.645          75.177          52.000  
G10  20631074.536   108417042.936        1988.798          46.000  
J 2  35811665.708   188191563.015       -1031.176          46.000  
G13  22955645.744   120632688.414       -3124.165          34.000  
E20  19092053.448   100329403.844       -2327.821          38.000  
G12  20193548.644   106117884.943        2174.302          50.000  
E12  24978329.774   131261962.523       -2974.076          35.000  
C16  35603323.022   185395845.163        -183.979          49.000  
C13  37405735.001   194781452.338       -2537.970          42.000  
R 1  19065072.883   101913730.313       -2617.459          49.000  
R 3  22322505.596   119494190.191        3158.594          36.000  
R13  20738965.717   110744925.555        3321.450          36.000  
R10  22778221.226   121506205.290       -4800.871          37.000  
E 4  24064675.085   126460706.723        1417.367          46.000  
J 7  35818103.843   188225397.545        -555.170          40.000  
G20  18913187.973    99389470.501        -217.068          46.000  
E 1  23469944.208   123335442.850        1842.834          45.000  
J 3  36508644.340   191854212.373        -484.108          36.000  
G25  22359811.094   117501590.421        3320.660          39.000  
G24  18736316.697    98460036.655       -1587.028          49.000  
E21  22418844.992   117811870.262        -781.314          48.000  
E11                                                                
G32                                                                
> 2020  1 16  2 22 48.9950000  0 37                     
E27  25328710.502   133103298.724       -3065.364          41.000  
E19  22014011.676   115684424.500        -648.044          40.000  
G15  20355277.369   106967696.539       -2537.072          46.000  
J 1  36588542.040   192274085.152         120.229          47.000  
G21  22624158.211   118890736.662       -2633.263          38.000  
C 9  36639059.874   190789174.733        -174.977          45.000  
C22  20775308.765   108182451.803       -1857.834          52.000  
C 7  38105620.830   198425973.277         876.173          37.000  
C 8  38145896.199   198635669.290       -2687.268          36.000  
C 6  35362768.944   184143211.554        -194.446          46.000  
C19  24303575.176   126555023.557       -3547.061          40.000  
R 8  22624981.829   121155691.437       -4039.649          45.000  
R11  19283628.728   103045942.953       -3590.137          49.000  
R 2  18392846.736    98147787.016        1575.506          52.000  
R12  17689498.547    94494189.120          63.467          52.000  
G10  20625556.259   108388046.700        1982.931          46.000  
J 2  35814531.498   188206623.624       -1032.196          45.000  
G13  22964327.669   120678304.521       -3125.027          36.000  
E20  19098523.792   100363408.973       -2330.421          38.000  
G12  20187516.292   106086184.065        2167.953          49.000  
E12  24986591.680   131305380.445       -2973.334          35.000  
C16  35603836.993   185398522.169        -182.980          49.000  
C13  37412851.041   194818507.494       -2538.531          42.000  
R 1  19072231.768   101951998.762       -2625.027          48.000  
R 3  22313889.060   119448070.241        3159.937          36.000  
R13  20729891.361   110696470.484        3315.793          35.000  
R10  22791360.810   121576294.409       -4800.597          37.000  
E 4  24060737.495   126440014.628        1416.848          46.000  
J 7  35819645.949   188233500.404        -555.028          40.000  
G20  18913803.439    99392705.377        -226.326          46.000  
E 1  23464829.749   123308566.798        1838.553          45.000  
J 3  36509988.251   191861271.073        -482.660          37.000  
G25  22350586.558   117453114.384        3319.678          38.000  
G24  18740732.883    98483246.990       -1592.915          48.000  
E21  22421024.290   117823324.174        -787.863          48.000  
E11                                                                
G32                                                                
> 2020  1 16  2 22 49.1950000  0 37                     
E27  25328827.080   133103911.774       -3065.508          41.000  
E19  22014036.291   115684554.118        -648.392          40.000  
G15  20355373.961   106968203.949       -2537.201          46.000  
J 1  36588537.447   192274061.046         120.344          47.000  
G21  22624258.430   118891263.263       -2633.132          38.000  
C 9  36639066.572   190789209.684        -174.951          45.000  
C22  20775380.130   108182823.330       -1857.890          52.000  
C 7  38105587.152   198425797.968         876.300          37.000  
C 8  38145999.430   198636206.761       -2687.660          36.000  
C 6  35362776.351   184143250.374        -194.320          46.000  
C19  24303711.388   126555732.889       -3546.940          40.000  
R 8  22625132.703   121156499.343       -4039.800          45.000  
R11  19283763.134   103046660.958       -3590.387          49.000  
R 2  18392787.720    98147471.864        1575.421          52.000  
R12  17689496.169    94494176.389          63.335          52.000  
G10  20625480.763   108387650.055        1982.930          46.000  
J 2  35814570.772   188206829.985       -1032.060          46.000  
G13  22964446.581   120678929.453       -3124.917          36.000  
E20  19098612.438   100363875.025       -2330.806          38.000  
G12  20187433.752   106085750.427        2167.963          49.000  
E12  24986704.790   131305975.136       -2973.276          35.000  
C16  35603844.189   185398558.726        -182.929          49.000  
C13  37412948.508   194819015.154       -2538.666          42.000  
R 1  19072329.947   101952523.730       -2625.120          48.000  
R 3  22313771.026   119447438.302        3159.045          36.000  
R13  20729767.141   110695807.166        3315.852          35.000  
R10  22791540.742   121577254.474       -4800.779          37.000  
E 4  24060683.614   126439731.186        1416.950          46.000  
J 7  35819667.053   188233611.360        -555.064          40.000  
G20  18913812.060    99392750.621        -226.493          46.000  
E 1  23464759.748   123308199.027        1838.593          45.000  
J 3  36510006.676   191861367.623        -483.057          37.000  
G25  22350460.184   117452450.364        3320.050          38.000  
G24  18740793.460    98483565.500       -1592.842          48.000  
E21  22421054.234   117823481.715        -787.914          48.000  
E11                                                                
G32                                                                
> 2020  1 16  2 22 49.3950000  0 37                     
E27  25328943.751   133104524.869       -3065.343          41.000  
E19  22014060.913   115684683.760        -647.970          40.000  
G15  20355470.483   106968711.417       -2537.323          46.000  
J 1  36588532.942   192274037.003         120.283          47.000  
G21  22624358.682   118891789.948       -2633.546          38.000  
C 9  36639073.316   190789244.693        -175.018          45.000  
C22  20775451.500   108183194.926       -1857.932          52.000  
C 7  38105553.496   198425622.683         876.737          37.000  
C 8  38146102.665   198636744.219       -2687.277          36.000  
C 6  35362783.803   184143289.247        -194.170          46.000  
C19  24303847.596   126556442.300       -3547.267          40.000  
R 8  22625283.614   121157307.308       -4039.780          45.000  
R11  19283897.515   103047379.025       -3590.344          49.000  
R 2  18392728.679    98147156.782        1575.422          52.000  
R12  17689493.840    94494163.744          63.246          52.000  
G10  20625405.326   108387253.481        1982.893          46.000  
J 2  35814610.069   188207036.403       -1031.965          45.000  
G13  22964565.537   120679554.461       -3124.908          36.000  
E20  19098701.131   100364341.109       -2330.462          38.000  
G12  20187351.236   106085316.863        2167.822          49.000  
E12  24986817.958   131306569.846       -2973.597          35.000  
C16  35603851.149   185398595.333        -183.031          49.000  
C13  37413046.035   194819522.864       -2538.440          42.000  
R 1  19072428.174   101953048.772       -2625.227          48.000  
R 3  22313652.988   119446806.379        3159.503          36.000  
R13  20729642.941   110695143.957        3316.096          35.000  
R10  22791720.758   121578214.608       -4800.475          37.000  
E 4  24060629.558   126439447.797        1417.002          46.000  
J 7  35819688.174   188233722.357        -554.945          40.000  
G20  18913820.637    99392795.944        -226.649          46.000  
E 1  23464689.721   123307831.339        1838.364          45.000  
J 3  36510025.054   191861464.216        -483.180          37.000  
G25  22350333.809   117451786.420        3319.696          38.000  
G24  18740854.094    98483884.084       -1592.945          48.000  
E21  22421084.132   117823639.327        -788.031          48.000  
E11                                                                
G32                                                                
> 2020  1 16  2 22 58.1950000  0 37                     
E27  25334078.179   133131507.189       -3067.157          41.000  
E19  22015147.579   115690394.883        -649.994          40.000  
G15  20359720.686   106991047.038       -2539.218          46.000  
J 1  36588330.884   192272976.442         120.546          47.000  
G21  22628769.052   118914966.311       -2634.452          38.000  
C 9  36639368.042   190790779.762        -174.226          45.000  
C22  20778594.169   108199559.106       -1861.417          52.000  
C 7  38104072.183   198417909.548         876.494          38.000  
C 8  38150644.310   198660390.869       -2686.931          35.000  
C 6  35363111.210   184144995.077        -193.790          46.000  
C19  24309841.768   126587659.157       -3547.823          40.000  
R 8  22631923.783   121192864.391       -4041.403          42.000  
R11  19289813.224   103078990.537       -3594.348          49.000  
R 2  18390132.870    98133306.147        1572.209          52.000  
R12  17689395.218    94493637.409          56.185          52.000  
G10  20622087.366   108369817.868        1979.426          47.000  
J 2  35816338.497   188216118.939       -1032.436          46.000  
G13  22969798.651   120707054.859       -3125.389          36.000  
E20  19102605.001   100384854.078       -2332.154          38.000  
G12  20183723.594   106066255.236        2164.026          50.000  
E12  24991796.512   131332733.145       -2972.935          34.000  
C16  35604159.408   185400201.235        -182.323          49.000  
C13  37417336.238   194841862.297       -2538.544          42.000  
R 1  19076753.299   101976169.156       -2629.641          49.000  
R 3  22308457.914   119418996.076        3160.303          36.000  
R13  20724180.335   110665974.055        3313.051          35.000  
R10  22799639.906   121620457.652       -4800.362          39.000  
E 4  24058256.534   126426977.847        1416.751          46.000  
J 7  35820617.165   188238603.675        -554.740          40.000  
G20  18914204.502    99394813.514        -232.114          46.000  
E 1  23461612.885   123291661.893        1836.308          45.000  
J 3  36510833.096   191865708.498        -482.171          37.000  
G25  22344774.467   117422572.257        3319.714          38.000  
G24  18743524.528    98497915.462       -1596.302          49.000  
E21  22422406.852   117830590.006        -791.931          48.000  
E11                                                                
G32                                                                
> 2020  1 16  2 22 58.3950000  0 37                     
E27  25334194.902   133132120.556       -3067.078          41.000  
E19  22015172.267   115690524.828        -649.799          40.000  
G15  20359817.301   106991554.829       -2539.253          46.000  
J 1  36588326.345   192272952.289         120.557          47.000  
G21  22628869.270   118915493.108       -2634.475          38.000  
C 9  36639374.676   190790814.547        -174.051          45.000  
C22  20778665.612   108199931.341       -1861.487          52.000  
C 7  38104038.580   198417734.238         876.143          38.000  
C 8  38150747.509   198660928.240       -2687.536          35.000  
C 6  35363118.585   184145033.742        -193.591          46.000  
C19  24309978.074   126588368.726       -3548.247          40.000  
R 8  22632074.747   121193672.654       -4041.466          42.000  
R11  19289947.720   103079709.354       -3594.330          49.000  
R 2  18390073.957    98132991.668        1572.134          52.000  
R12  17689393.057    94493626.128          56.079          52.000  
G10  20622012.046   108369421.924        1979.521          47.000  
J 2  35816377.763   188216325.362       -1032.376          46.000  
G13  22969917.670   120707679.868       -3125.344          36.000  
E20  19102693.856   100385320.392       -2332.109          38.000  
G12  20183641.245   106065822.369        2164.060          49.000  
E12  24991909.629   131333327.678       -2972.446          34.000  
C16  35604166.435   185400237.631        -182.218          49.000  
C13  37417433.729   194842370.023       -2538.843          42.000  
R 1  19076851.671   101976695.045       -2629.703          49.000  
R 3  22308339.798   119418363.891        3159.979          36.000  
R13  20724056.258   110665311.376        3313.389          35.000  
R10  22799819.897   121621417.661       -4800.092          39.000  
E 4  24058202.651   126426694.415        1417.060          46.000  
J 7  35820638.262   188238714.566        -554.783          40.000  
G20  18914213.330    99394859.912        -232.186          46.000  
E 1  23461542.948   123291294.637        1836.170          45.000  
J 3  36510851.448   191865804.838        -482.072          37.000  
G25  22344648.101   117421908.309        3319.372          38.000  
G24  18743585.285    98498234.686       -1596.468          49.000  
E21  22422436.901   117830748.330        -791.774          48.000  
E11                                                                
G32                                                                
> 2020  1 16  2 22 58.5950000  0 37                     
E27  25334311.525   133132733.963       -3067.088          41.000  
E19  22015197.011   115690654.798        -649.741          40.000  
G15  20359913.913   106992062.654       -2539.078          46.000  
J 1  36588321.759   192272928.157         120.760          47.000  
G21  22628969.524   118916019.935       -2634.003          38.000  
C 9  36639381.390   190790849.348        -173.894          45.000  
C22  20778737.124   108200303.610       -1861.212          52.000  
C 7  38104004.924   198417558.921         876.609          38.000  
C 8  38150850.673   198661465.606       -2686.326          35.000  
C 6  35363126.082   184145072.430        -193.420          46.000  
C19  24310114.369   126589078.298       -3547.873          40.000  
R 8  22632225.676   121194480.962       -4041.581          42.000  
R11  19290082.278   103080428.214       -3594.275          49.000  
R 2  18390015.057    98132677.220        1572.323          52.000  
R12  17689390.962    94493614.910          56.096          52.000  
G10  20621936.696   108369026.011        1979.617          47.000  
J 2  35816417.055   188216531.821       -1032.199          46.000  
G13  22970036.641   120708304.928       -3125.059          36.000  
E20  19102782.627   100385786.741       -2332.266          38.000  
G12  20183558.876   106065389.545        2164.207          49.000  
E12  24992022.737   131333922.248       -2972.709          34.000  
C16  35604173.381   185400274.049        -182.002          49.000  
C13  37417531.341   194842877.778       -2538.867          42.000  
R 1  19076950.069   101977220.985       -2629.626          49.000  
R 3  22308221.698   119417731.683        3160.913          36.000  
R13  20723932.167   110664648.717        3313.585          35.000  
R10  22799999.886   121622377.707       -4800.092          39.000  
E 4  24058148.693   126426411.018        1417.056          46.000  
J 7  35820659.363   188238825.465        -554.534          40.000  
G20  18914222.176    99394906.357        -232.221          46.000  
E 1  23461473.131   123290927.404        1836.120          45.000  
J 3  36510869.816   191865901.193        -481.780          37.000  
G25  22344521.745   117421244.376        3319.793          38.000  
G24  18743646.017    98498553.939       -1596.271          49.000  
E21  22422467.058   117830906.718        -791.947          48.000  
E11                                                                
G32                                                                
> 2020  1 16  2 22 58.7950000  0 37                     
E27  25334428.230   133133347.359       -3066.959          41.000  
E19  22015221.800   115690784.783        -650.168          40.000  
G15  20360010.554   106992570.479       -2539.177          46.000  
J 1  36588317.125   192272904.021         120.503          47.000  
G21  22629069.798   118916546.767       -2634.491          38.000  
C 9  36639388.032   190790884.141        -174.088          45.000  
C22  20778808.598   108200675.897       -1861.616          52.000  
C 7  38103971.254   198417383.605         876.497          37.000  
C 8  38150953.857   198662003.011       -2687.487          35.000  
C 6  35363133.474   184145111.102        -193.612          46.000  
C19  24310250.641   126589787.889       -3548.013          40.000  
R 8  22632376.638   121195289.260       -4041.768          42.000  
R11  19290216.789   103081147.083       -3594.568          49.000  
R 2  18389956.114    98132362.781        1571.996          52.000  
R12  17689388.872    94493603.709          55.675          52.000  
G10  20621861.361   108368630.109        1979.404          47.000  
J 2  35816456.363   188216738.267       -1032.403          46.000  
G13  22970155.590   120708929.971       -3125.447          36.000  
E20  19102871.353   100386253.055       -2332.213          38.000  
G12  20183476.512   106064956.736        2163.810          49.000  
E12  24992135.865   131334516.763       -2972.400          34.000  
C16  35604180.413   185400310.467        -182.273          49.000  
C13  37417628.836   194843385.523       -2538.947          42.000  
R 1  19077048.445   101977746.940       -2629.996          49.000  
R 3  22308103.546   119417099.513        3161.182          36.000  
R13  20723808.013   110663986.094        3313.275          35.000  
R10  22800179.871   121623337.738       -4800.188          39.000  
E 4  24058094.846   126426127.608        1416.942          46.000  
J 7  35820680.491   188238936.368        -554.863          40.000  
G20  18914231.045    99394952.821        -232.602          46.000  
E 1  23461403.372   123290560.169        1836.056          45.000  
J 3  36510888.136   191865997.546        -482.115          37.000  
G25  22344395.446   117420580.439        3319.360          38.000  
G24  18743706.763    98498873.199       -1596.570          49.000  
E21  22422497.292   117831065.098        -792.202          48.000  
E11                                                                
G32                                                                
> 2020  1 16  2 22 58.9950000  0 37                     
E27  25334544.836   133133960.760       -3066.667          41.000  
E19  22015246.618   115690914.734        -649.446          40.000  
G15  20360107.179   106993078.316       -2539.028          46.000  
J 1  36588312.492   192272879.867         121.125          47.000  
G21  22629170.006   118917073.593       -2633.760          38.000  
C 9  36639394.687   190790918.912        -173.505          45.000  
C22  20778880.192   108201048.178       -1861.053          52.000  
C 7  38103937.593   198417208.286         877.001          37.000  
C 8  38151056.983   198662540.354       -2686.733          35.000  
C 6  35363141.003   184145149.752        -192.868          46.000  
C19  24310386.888   126590497.469       -3547.415          40.000  
R 8  22632527.608   121196097.552       -4041.191          41.000  
R11  19290351.305   103081865.951       -3594.055          49.000  
R 2  18389897.229    98132048.337        1572.512          52.000  
R12  17689386.778    94493592.521          56.260          52.000  
G10  20621785.995   108368234.211        1979.919          47.000  
J 2  35816495.608   188216944.703       -1031.772          46.000  
G13  22970274.521   120709554.986       -3124.818          36.000  
E20  19102960.057   100386719.383       -2331.221          38.000  
G12  20183394.127   106064523.921        2164.376          49.000  
E12  24992248.993   131335111.300       -2971.871          34.000  
C16  35604187.444   185400346.853        -181.669          49.000  
C13  37417726.308   194843893.258       -2538.483          42.000  
R 1  19077146.815   101978272.893       -2629.533          49.000  
R 3  22307985.507   119416467.338        3160.858          36.000  
R13  20723683.906   110663323.471        3313.515          35.000  
R10  22800359.844   121624297.755       -4799.630          39.000  
E 4  24058040.836   126425844.185        1417.535          46.000  
J 7  35820701.588   188239047.232        -553.927          40.000  
G20  18914239.894    99394999.286        -232.016          46.000  
E 1  23461333.526   123290192.940        1836.455          45.000  
J 3  36510906.460   191866093.875        -481.464          37.000  
G25  22344269.121   117419916.488        3320.197          38.000  
G24  18743767.528    98499192.457       -1596.009          49.000  
E21  22422527.310   117831223.482        -791.625          48.000  
E11                                                                
G32                                                                
> 2020  1 16  2 22 59.1950000  0 37                     
E27  25334661.548   133134574.156       -3066.969          41.000  
E19  22015271.335   115691044.696        -649.825          40.000  
G15  20360203.853   106993586.119       -2539.230          46.000  
J 1  36588307.918   192272855.700         120.795          47.000  
G21  22629270.270   118917600.407       -2634.272          38.000  
C 9  36639401.368   190790953.676        -173.765          45.000  
C22  20778951.578   108201420.469       -1861.546          52.000  
C 7  38103903.986   198417032.941         876.864          38.000  
C 8  38151160.120   198663077.697       -2686.566          35.000  
C 6  35363148.407   184145188.397        -193.375          46.000  
C19  24310523.147   126591207.032       -3547.844          40.000  
R 8  22632678.566   121196905.846       -4041.401          41.000  
R11  19290485.811   103082584.832       -3594.592          49.000  
R 2  18389838.306    98131733.896        1572.155          52.000  
R12  17689384.652    94493581.361          55.742          52.000  
G10  20621710.702   108367838.327        1979.266          47.000  
J 2  35816534.873   188217151.131       -1032.179          46.000  
G13  22970393.477   120710180.018       -3125.157          36.000  
E20  19103048.884   100387185.705       -2331.565          38.000  
G12  20183311.788   106064091.117        2163.953          49.000  
E12  24992362.128   131335705.813       -2972.677          34.000  
C16  35604194.334   185400383.236        -181.894          49.000  
C13  37417823.753   194844400.964       -2538.586          42.000  
R 1  19077245.169   101978798.852       -2629.915          49.000  
R 3  22307867.368   119415835.097        3161.218          36.000  
R13  20723559.791   110662660.807        3313.682          35.000  
R10  22800539.793   121625257.756       -4800.004          39.000  
E 4  24057987.013   126425560.763        1416.965          46.000  
J 7  35820722.685   188239158.117        -554.304          40.000  
G20  18914248.748    99395045.775        -232.594          46.000  
E 1  23461263.752   123289825.707        1835.996          45.000  
J 3  36510924.778   191866190.176        -481.568          37.000  
G25  22344142.768   117419252.522        3319.763          38.000  
G24  18743828.313    98499511.722       -1596.394          49.000  
E21  22422557.482   117831381.874        -792.109          48.000  
E11                                                                
G32                                                                
> 2020  1 16  2 22 59.3950000  0 37                     
E27  25334778.240   133135187.521       -3066.679          41.000  
E19  22015296.059   115691174.647        -649.578          40.000  
G15  20360300.467   106994093.920       -2538.884          46.000  
J 1  36588303.314   192272831.508         120.953          47.000  
G21  22629370.501   118918127.208       -2634.010          38.000  
C 9  36639408.039   190790988.404        -173.646          45.000  
C22  20779023.119   108201792.746       -1861.369          52.000  
C 7  38103870.325   198416857.573         876.929          38.000  
C 8  38151263.302   198663615.038       -2686.829          35.000  
C 6  35363155.777   184145227.017        -193.116          46.000  
C19  24310659.424   126591916.581       -3547.567          40.000  
R 8  22632829.536   121197714.131       -4041.655          41.000  
R11  19290620.363   103083303.699       -3594.269          49.000  
R 2  18389779.390    98131419.446        1572.216          52.000  
R12  17689382.570    94493570.205          55.722          52.000  
G10  20621635.377   108367442.429        1979.347          47.000  
J 2  35816574.123   188217357.529       -1031.910          46.000  
G13  22970512.391   120710805.018       -3125.132          36.000  
E20  19103137.608   100387652.025       -2331.409          38.000  
G12  20183229.469   106063658.300        2164.090          49.000  
E12  24992475.247   131336300.319       -2972.399          34.000  
C16  35604201.402   185400419.587        -181.735          49.000  
C13  37417921.230   194844908.660       -2538.385          42.000  
R 1  19077343.523   101979324.808       -2629.675          49.000  
R 3  22307749.221   119415202.858        3161.707          36.000  
R13  20723435.707   110661998.150        3313.823          35.000  
R10  22800719.782   121626217.740       -4800.060          39.000  
E 4  24057933.033   126425277.309        1417.293          46.000  
J 7  35820743.758   188239268.958        -554.164          40.000  
G20  18914257.614    99395092.261        -232.446          46.000  
E 1  23461193.834   123289458.457        1836.250          45.000  
J 3  36510943.052   191866286.453        -481.258          37.000  
G25  22344016.441   117418588.532        3320.190          38.000  
G24  18743889.076    98499830.977       -1596.284          49.000  
E21  22422587.600   117831540.255        -791.871          48.000  
E11                                                                
G32                                                                
> 2020  1 16  2 22 59.5950000  0 37                     
E27  25334895.006   133135800.928       -3067.187          41.000  
E19  22015320.848   115691304.623        -650.166          40.000  
G15  20360397.097   106994601.745       -2539.085          46.000  
J 1  36588298.714   192272807.314         120.979          47.000  
G21  22629470.736   118918653.972       -2633.720          38.000  
C 9  36639414.700   190791023.142        -173.582          45.000  
C22  20779094.577   108202165.053       -1861.650          52.000  
C 7  38103836.673   198416682.217         876.953          37.000  
C 8  38151366.466   198664152.388       -2687.002          35.000  
C 6  35363163.256   184145265.636        -193.244          46.000  
C19  24310795.670   126592626.144       -3547.719          40.000  
R 8  22632980.446   121198522.414       -4041.387          41.000  
R11  19290754.914   103084022.601       -3594.604          49.000  
R 2  18389720.476    98131105.015        1572.113          52.000  
R12  17689380.462    94493559.090          55.437          52.000  
G10  20621560.016   108367046.541        1979.347          47.000  
J 2  35816613.387   188217563.940       -1032.010          46.000  
G13  22970631.330   120711430.018       -3125.155          36.000  
E20  19103226.372   100388118.347       -2331.583          38.000  
G12  20183147.136   106063225.515        2163.782          49.000  
E12  24992588.369   131336894.839       -2973.272          34.000  
C16  35604208.362   185400455.946        -181.877          49.000  
C13  37418018.680   194845416.369       -2538.635          42.000  
R 1  19077441.946   101979850.799       -2629.969          49.000  
R 3  22307631.161   119414570.633        3161.127          36.000  
R13  20723311.638   110661335.528        3313.502          35.000  
R10  22800899.729   121627177.719       -4799.989          39.000  
E 4  24057879.164   126424993.856        1417.198          46.000  
J 7  35820764.831   188239379.809        -554.466          40.000  
G20  18914266.491    99395138.780        -232.704          46.000  
E 1  23461123.926   123289091.232        1835.996          45.000  
J 3  36510961.391   191866382.754        -481.446          37.000  
G25  22343890.123   117417924.565        3319.922          38.000  
G24  18743949.839    98500150.254       -1596.461          49.000  
E21  22422617.890   117831698.670        -792.156          48.000  
E11                                                                
G32                                                                
> 2020  1 16  2 22 59.7950000  0 37                     
E27  25335011.826   133136414.338       -3067.361          41.000  
E19  22015345.568   115691434.590        -649.931          40.000  
G15  20360493.771   106995109.603       -2539.605          46.000  
J 1  36588294.077   192272783.155         120.594          47.000  
G21  22629571.007   118919180.818       -2634.221          38.000  
C 9  36639421.333   190791057.891        -173.729          45.000  
C22  20779166.010   108202537.395       -1862.067          52.000  
C 7  38103802.981   198416506.875         876.713          37.000  
C 8  38151469.707   198664689.731       -2687.203          35.000  
C 6  35363170.617   184145304.271        -193.373          46.000  
C19  24310931.947   126593335.732       -3548.250          40.000  
R 8  22633131.443   121199330.756       -4041.868          41.000  
R11  19290889.452   103084741.548       -3595.111          49.000  
R 2  18389661.512    98130790.625        1571.646          52.000  
R12  17689378.385    94493548.030          54.925          52.000  
G10  20621484.706   108366650.705        1978.914          47.000  
J 2  35816652.661   188217770.377       -1032.385          46.000  
G13  22970750.260   120712055.041       -3125.100          36.000  
E20  19103315.193   100388584.679       -2331.581          38.000  
G12  20183064.831   106062792.767        2163.404          49.000  
E12  24992701.479   131337489.307       -2972.839          34.000  
C16  35604215.381   185400492.311        -182.013          49.000  
C13  37418116.195   194845924.095       -2538.959          42.000  
R 1  19077540.348   101980376.828       -2630.404          49.000  
R 3  22307513.015   119413938.421        3160.815          36.000  
R13  20723187.562   110660672.954        3312.913          35.000  
R10  22801079.689   121628137.720       -4800.224          39.000  
E 4  24057825.257   126424710.428        1416.907          46.000  
J 7  35820785.913   188239490.678        -554.700          40.000  
G20  18914275.332    99395185.347        -233.238          46.000  
E 1  23461054.037   123288724.034        1835.766          44.000  
J 3  36510979.726   191866479.057        -481.652          37.000  
G25  22343763.785   117417260.618        3319.489          38.000  
G24  18744010.605    98500469.566       -1596.814          49.000  
E21  22422648.078   117831857.123        -792.565          48.000  
E11                                                                
G32                                                                
> 2020  1 16  2 22 59.9950000  0 37                     
E27  25335128.539   133137027.741       -3066.877          41.000  
E19  22015370.309   115691564.566        -649.689          40.000  
G15  20360590.426   106995617.431       -2539.262          46.000  
J 1  36588289.518   192272758.968         121.053          47.000  
G21  22629671.276   118919707.649       -2634.166          38.000  
C 9  36639427.982   190791092.628        -173.520          45.000  
C22  20779237.553   108202909.719       -1861.568          52.000  
C 7  38103769.383   198416331.549         876.520          37.000  
C 8  38151572.891   198665227.054       -2686.475          35.000  
C 6  35363178.070   184145342.888        -193.026          46.000  
C19  24311068.202   126594045.315       -3547.927          40.000  
R 8  22633282.392   121200139.059       -4041.651          41.000  
R11  19291023.992   103085460.471       -3594.641          49.000  
R 2  18389602.642    98130476.216        1572.090          52.000  
R12  17689376.307    94493536.969          55.356          52.000  
G10  20621409.350   108366254.855        1979.392          47.000  
J 2  35816691.894   188217976.794       -1031.950          46.000  
G13  22970869.193   120712680.062       -3124.889          36.000  
E20  19103403.888   100389051.006       -2330.971          38.000  
G12  20182982.459   106062360.004        2163.847          49.000  
E12  24992814.574   131338083.801       -2972.314          34.000  
C16  35604222.415   185400528.666        -181.718          48.000  
C13  37418213.681   194846431.789       -2538.434          42.000  
R 1  19077638.703   101980902.853       -2630.010          49.000  
R 3  22307394.928   119413306.167        3161.481          36.000  
R13  20723063.463   110660010.349        3313.390          35.000  
R10  22801259.675   121629097.705       -4799.956          39.000  
E 4  24057771.220   126424426.981        1417.408          46.000  
J 7  35820807.016   188239601.518        -554.076          40.000  
G20  18914284.166    99395231.913        -232.701          46.000  
E 1  23460984.044   123288356.821        1836.071          45.000  
J 3  36510998.028   191866575.352        -481.446          37.000  
G25  22343637.470   117416596.642        3319.995          38.000  
G24  18744071.353    98500788.875       -1596.465          49.000  
E21  22422678.107   117832015.561        -792.095          48.000  
E11                                                                
G32                                                                
> 2020  1 16  2 23  0.1950000  0 37                     
E27  25335245.306   133137641.177       -3067.279          41.000  
E19  22015395.095   115691694.582        -650.217          40.000  
G15  20360687.067   106996125.292       -2539.345          46.000  
J 1  36588284.961   192272734.792         120.868          47.000  
G21  22629771.524   118920234.474       -2634.519          38.000  
C 9  36639434.687   190791127.370        -173.774          45.000  
C22  20779309.002   108203282.087       -1861.944          52.000  
C 7  38103735.688   198416156.185         876.549          37.000  
C 8  38151676.096   198665764.390       -2686.655          35.000  
C 6  35363185.487   184145381.511        -193.097          46.000  
C19  24311204.475   126594754.895       -3548.014          40.000  
R 8  22633433.361   121200947.392       -4041.638          41.000  
R11  19291158.566   103086179.442       -3594.922          49.000  
R 2  18389543.683    98130161.843        1571.775          52.000  
R12  17689374.230    94493525.968          54.871          52.000  
G10  20621334.078   108365859.044        1978.969          47.000  
J 2  35816731.186   188218183.220       -1032.186          46.000  
G13  22970988.153   120713305.101       -3125.493          36.000  
E20  19103492.695   100389517.378       -2331.904          38.000  
G12  20182900.135   106061927.286        2163.455          48.000  
E12  24992927.699   131338678.292       -2972.844          34.000  
C16  35604229.350   185400565.025        -181.886          48.000  
C13  37418311.206   194846939.535       -2538.934          42.000  
R 1  19077737.114   101981428.919       -2630.495          49.000  
R 3  22307276.760   119412673.919        3161.389          36.000  
R13  20722939.409   110659347.779        3312.657          35.000  
R10  22801439.636   121630057.684       -4799.900          39.000  
E 4  24057717.314   126424143.552        1417.032          46.000  
J 7  35820828.108   188239712.376        -554.061          40.000  
G20  18914293.030    99395278.530        -233.204          46.000  
E 1  23460914.304   123287989.638        1835.866          44.000  
J 3  36511016.361   191866671.627        -481.486          37.000  
G25  22343511.139   117415932.699        3319.763          38.000  
G24  18744132.107    98501108.216       -1596.829          49.000  
E21  22422708.421   117832174.043        -792.521          48.000  
E11                                                                
G32                                                                
> 2020  1 16  2 23  0.3950000  0 37                     
E27  25335362.053   133138254.623       -3067.415          41.000  
E19  22015419.859   115691824.585        -650.236          40.000  
G15  20360783.697   106996633.177       -2539.647          46.000  
J 1  36588280.335   192272710.644         120.465          47.000  
G21  22629871.807   118920761.333       -2634.646          38.000  
C 9  36639441.391   190791162.124        -173.942          45.000  
C22  20779380.481   108203654.486       -1862.270          52.000  
C 7  38103701.987   198415980.871         876.366          37.000  
C 8  38151779.284   198666301.769       -2687.456          35.000  
C 6  35363192.862   184145420.161        -193.564          46.000  
C19  24311340.738   126595464.512       -3548.278          40.000  
R 8  22633584.287   121201755.766       -4041.970          41.000  
R11  19291293.125   103086898.455       -3595.331          49.000  
R 2  18389484.795    98129847.504        1571.453          52.000  
R12  17689372.175    94493515.017          54.407          52.000  
G10  20621258.760   108365463.259        1978.655          47.000  
J 2  35816770.444   188218389.682       -1032.486          46.000  
G13  22971107.100   120713930.145       -3125.608          36.000  
E20  19103581.395   100389983.776       -2332.121          38.000  
G12  20182817.829   106061494.599        2163.070          48.000  
E12  24993040.797   131339272.807       -2972.600          34.000  
C16  35604236.320   185400601.402        -182.047          48.000  
C13  37418408.694   194847447.268       -2539.032          42.000  
R 1  19077835.533   101981955.023       -2630.833          49.000  
R 3  22307158.615   119412041.717        3160.651          36.000  
R13  20722815.338   110658685.223        3312.692          35.000  
R10  22801619.603   121631017.724       -4800.687          39.000  
E 4  24057663.398   126423860.140        1416.828          46.000  
J 7  35820849.197   188239823.272        -554.883          40.000  
G20  18914301.968    99395325.179        -233.635          46.000  
E 1  23460844.317   123287622.484        1835.567          44.000  
J 3  36511034.671   191866767.961        -482.178          37.000  
G25  22343384.777   117415268.757        3319.641          38.000  
G24  18744192.885    98501427.594       -1597.149          49.000  
E21  22422738.589   117832332.557        -792.786          48.000  
E11                                                                
G32                                                                
> 2020  1 16  2 23  0.5950000  0 37                     
E27  25335478.760   133138868.083       -3067.091          41.000  
E19  22015444.542   115691954.631        -650.009          40.000  
G15  20360880.365   106997141.072       -2539.440          46.000  
J 1  36588275.721   192272686.475         120.879          47.000  
G21  22629972.017   118921288.166       -2633.956          38.000  
C 9  36639448.041   190791196.866        -173.606          45.000  
C22  20779452.057   108204026.895       -1862.026          52.000  
C 7  38103668.277   198415805.545         876.460          37.000  
C 8  38151882.433   198666839.103       -2686.608          35.000  
C 6  35363200.347   184145458.782        -192.992          46.000  
C19  24311477.003   126596174.128       -3547.997          40.000  
R 8  22633735.240   121202564.129       -4041.909          41.000  
R11  19291427.690   103087617.475       -3595.154          49.000  
R 2  18389425.866    98129533.173        1571.667          52.000  
R12  17689370.064    94493504.085          54.596          52.000  
G10  20621183.426   108365067.480        1978.948          47.000  
J 2  35816809.738   188218596.127       -1032.223          46.000  
G13  22971226.057   120714555.185       -3124.905          36.000  
E20  19103670.127   100390450.144       -2331.691          38.000  
G12  20182735.466   106061061.921        2163.350          48.000  
E12  24993153.925   131339867.309       -2972.443          34.000  
C16  35604243.355   185400637.767        -181.662          48.000  
C13  37418506.179   194847955.017       -2538.556          42.000  
R 1  19077933.934   101982481.129       -2630.617          49.000  
R 3  22307040.490   119411409.495        3161.029          36.000  
R13  20722691.274   110658022.729        3312.527          35.000  
R10  22801799.585   121631977.695       -4799.946          39.000  
E 4  24057609.373   126423576.724        1417.103          46.000  
J 7  35820870.325   188239934.131        -554.382          40.000  
G20  18914310.841    99395371.853        -233.282          46.000  
E 1  23460774.316   123287255.338        1835.763          44.000  
J 3  36511052.999   191866864.220        -481.170          37.000  
G25  22343258.473   117414604.822        3319.781          38.000  
G24  18744253.611    98501746.974       -1596.900          49.000  
E21  22422768.666   117832491.082        -792.526          48.000  
E11                                                                
G32                                                                
> 2020  1 16  2 23  0.7950000  0 37                     
E27  25335595.414   133139481.553       -3067.499          41.000  
E19  22015469.258   115692084.669        -650.372          40.000  
G15  20360977.011   106997648.986       -2539.637          46.000  
J 1  36588271.182   192272662.320         120.850          47.000  
G21  22630072.264   118921815.053       -2634.226          38.000  
C 9  36639454.719   190791231.619        -173.650          45.000  
C22  20779523.621   108204399.327       -1862.160          52.000  
C 7  38103634.634   198415630.211         876.908          37.000  
C 8  38151985.606   198667376.453       -2686.355          35.000  
C 6  35363207.767   184145497.433        -193.185          46.000  
C19  24311613.293   126596883.768       -3548.307          40.000  
R 8  22633886.190   121203372.512       -4041.923          42.000  
R11  19291562.251   103088336.526       -3595.288          49.000  
R 2  18389366.982    98129218.869        1571.463          52.000  
R12  17689368.065    94493493.203          54.392          52.000  
G10  20621108.128   108364671.736        1978.833          47.000  
J 2  35816849.065   188218802.584       -1032.197          46.000  
G13  22971345.016   120715180.257       -3125.549          36.000  
E20  19103758.867   100390916.556       -2332.232          38.000  
G12  20182653.115   106060629.272        2163.258          48.000  
E12  24993267.035   131340461.828       -2972.411          34.000  
C16  35604250.262   185400674.145        -181.915          48.000  
C13  37418603.694   194848462.777       -2538.855          42.000  
R 1  19078032.405   101983007.276       -2630.719          49.000  
R 3  22306922.384   119410777.257        3161.157          36.000  
R13  20722567.234   110657360.214        3312.480          35.000  
R10  22801979.565   121632937.726       -4800.094          39.000  
E 4  24057555.375   126423293.308        1417.222          46.000  
J 7  35820891.428   188240045.012        -554.317          40.000  
G20  18914319.717    99395418.562        -233.576          46.000  
E 1  23460704.478   123286888.216        1835.625          44.000  
J 3  36511071.359   191866960.554        -481.562          37.000  
G25  22343132.147   117413940.903        3319.843          38.000  
G24  18744314.386    98502066.385       -1596.997          49.000  
E21  22422798.879   117832649.636        -792.835          48.000  
E11                                                                
G32                                                                
> 2020  1 16  2 23  0.9950000  0 37                     
E27  25335712.136   133140095.073       -3067.885          41.000  
E19  22015493.958   115692214.761        -650.779          40.000  
G15  20361073.692   106998156.941       -2540.123          46.000  
J 1  36588266.660   192272638.202         120.406          47.000  
G21  22630172.531   118922341.958       -2634.984          38.000  
C 9  36639461.367   190791266.398        -174.095          45.000  
C22  20779595.130   108204771.814       -1862.747          52.000  
C 7  38103600.939   198415454.931         876.285          38.000  
C 8  38152088.840   198667913.900       -2687.843          35.000  
C 6  35363215.230   184145536.108        -193.705          46.000  
C19  24311749.532   126597593.424       -3548.543          40.000  
R 8  22634037.144   121204180.942       -4042.490          42.000  
R11  19291696.818   103089055.627       -3595.807          49.000  
R 2  18389308.022    98128904.611        1570.937          52.000  
R12  17689366.101    94493482.388          53.725          52.000  
G10  20621032.847   108364276.042        1978.106          47.000  
J 2  35816888.336   188219009.087       -1032.751          46.000  
G13  22971463.983   120715805.335       -3125.965          36.000  
E20  19103847.613   100391382.994       -2332.883          38.000  
G12  20182570.815   106060196.670        2162.691          48.000  
E12  24993380.236   131341056.373       -2973.036          34.000  
C16  35604257.329   185400710.549        -182.227          48.000  
C13  37418701.217   194848970.573       -2539.331          42.000  
R 1  19078130.900   101983533.481       -2631.339          49.000  
R 3  22306804.320   119410145.085        3160.254          36.000  
R13  20722443.155   110656697.736        3312.212          35.000  
R10  22802159.562   121633897.783       -4800.930          39.000  
E 4  24057501.541   126423009.947        1416.597          46.000  
J 7  35820912.570   188240155.926        -554.811          40.000  
G20  18914328.584    99395465.336        -234.158          46.000  
E 1  23460634.716   123286521.139        1835.234          45.000  
J 3  36511089.712   191867056.875        -481.947          37.000  
G25  22343005.828   117413277.026        3319.006          38.000  
G24  18744375.196    98502385.849       -1597.676          49.000  
E21  22422829.152   117832808.242        -793.257          48.000  
E11                                                                
G32                                                                
> 2020  1 16  2 23  1.1950000  0 37                     
E27  25335828.974   133140708.611       -3068.042          41.000  
E19  22015518.673   115692344.866        -650.773          40.000  
G15  20361170.387   106998664.916       -2540.270          46.000  
J 1  36588262.039   192272614.103         120.253          47.000  
G21  22630272.765   118922868.871       -2634.710          38.000  
C 9  36639468.059   190791301.209        -174.190          45.000  
C22  20779666.626   108205144.336       -1862.975          52.000  
C 7  38103567.283   198415279.680         875.973          38.000  
C 8  38152192.059   198668451.295       -2687.553          35.000  
C 6  35363222.638   184145574.793        -193.844          46.000  
C19  24311885.816   126598303.126       -3548.699          40.000  
R 8  22634188.116   121204989.408       -4042.638          42.000  
R11  19291831.410   103089774.773       -3596.021          49.000  
R 2  18389249.166    98128590.396        1570.659          52.000  
R12  17689364.132    94493471.626          53.330          52.000  
G10  20620957.555   108363880.382        1977.838          47.000  
J 2  35816927.661   188219215.605       -1032.857          46.000  
G13  22971582.899   120716430.446       -3125.603          36.000  
E20  19103936.355   100391849.440       -2332.540          38.000  
G12  20182488.521   106059764.112        2162.377          48.000  
E12  24993493.397   131341650.944       -2973.332          34.000  
C16  35604264.304   185400746.983        -182.542          48.000  
C13  37418798.785   194849478.384       -2539.362          42.000  
R 1  19078229.328   101984059.726       -2631.639          49.000  
R 3  22306686.200   119409512.892        3160.400          36.000  
R13  20722319.163   110656035.331        3311.886          35.000  
R10  22802339.540   121634857.840       -4800.798          39.000  
E 4  24057447.610   126422726.601        1416.396          46.000  
J 7  35820933.668   188240266.871        -555.115          40.000  
G20  18914337.529    99395512.147        -234.397          46.000  
E 1  23460564.914   123286154.095        1834.900          45.000  
J 3  36511108.015   191867153.234        -482.032          37.000  
G25  22342879.488   117412613.142        3319.031          38.000  
G24  18744435.977    98502705.350       -1597.828          49.000  
E21  22422859.421   117832966.890        -793.532          48.000  
E11                                                                
G32                                                                
> 2020  1 16  2 23  1.3950000  0 37                     
E27  25335945.607   133141322.181       -3067.765          41.000  
E19  22015543.487   115692475.019        -650.692          40.000  
G15  20361267.060   106999172.905       -2539.926          46.000  
J 1  36588257.404   192272590.010         120.521          47.000  
G21  22630373.042   118923395.836       -2634.846          38.000  
C 9  36639474.760   190791336.010        -173.999          45.000  
C22  20779738.184   108205516.879       -1862.752          52.000  
C 7  38103533.628   198415104.425         876.272          38.000  
C 8  38152295.257   198668988.700       -2686.658          35.000  
C 6  35363230.037   184145613.485        -193.471          46.000  
C19  24312022.124   126599012.831       -3548.605          40.000  
R 8  22634339.122   121205797.880       -4042.348          42.000  
R11  19291966.021   103090493.946       -3595.904          49.000  
R 2  18389190.308    98128276.193        1570.977          52.000  
R12  17689362.162    94493460.895          53.567          52.000  
G10  20620882.212   108363484.739        1978.176          47.000  
J 2  35816966.944   188219422.132       -1032.530          46.000  
G13  22971701.903   120717055.584       -3125.282          36.000  
E20  19104025.037   100392315.927       -2332.641          38.000  
G12  20182406.214   106059331.572        2162.619          48.000  
E12  24993606.514   131342245.521       -2973.121          34.000  
C16  35604271.308   185400783.401        -182.132          48.000  
C13  37418896.370   194849986.217       -2539.246          42.000  
R 1  19078327.721   101984585.990       -2631.348          49.000  
R 3  22306568.144   119408880.705        3161.463          36.000  
R13  20722195.140   110655372.928        3311.983          35.000  
R10  22802519.541   121635817.913       -4800.188          39.000  
E 4  24057393.563   126422443.262        1416.726          46.000  
J 7  35820954.767   188240377.804        -554.526          40.000  
G20  18914346.445    99395559.003        -234.395          46.000  
E 1  23460494.997   123285787.077        1835.014          45.000  
J 3  36511126.335   191867249.588        -481.689          37.000  
G25  22342753.139   117411949.280        3319.513          38.000  
G24  18744496.778    98503024.873       -1597.682          49.000  
E21  22422889.522   117833125.557        -793.325          48.000  
E11                                                                
G32                                                                
> 2020  1 16  2 23  1.5950000  0 37                     
E27  25336062.446   133141935.765       -3068.062          41.000  
E19  22015568.379   115692605.172        -651.168          40.000  
G15  20361363.747   106999680.938       -2540.287          46.000  
J 1  36588252.859   192272565.941         120.348          47.000  
G21  22630473.292   118923922.799       -2634.810          38.000  
C 9  36639481.384   190791370.842        -174.302          45.000  
C22  20779809.705   108205889.464       -1863.091          52.000  
C 7  38103500.038   198414929.196         875.974          38.000  
C 8  38152398.461   198669526.135       -2687.140          35.000  
C 6  35363237.507   184145652.194        -193.556          46.000  
C19  24312158.462   126599722.562       -3548.641          40.000  
R 8  22634490.102   121206606.378       -4042.531          42.000  
R11  19292100.595   103091213.153       -3596.051          49.000  
R 2  18389131.450    98127962.033        1570.730          52.000  
R12  17689360.183    94493450.223          53.194          52.000  
G10  20620806.939   108363089.148        1977.818          47.000  
J 2  35817006.262   188219628.683       -1032.858          46.000  
G13  22971820.855   120717680.749       -3126.184          36.000  
E20  19104113.823   100392782.427       -2332.724          38.000  
G12  20182323.933   106058899.077        2162.282          48.000  
E12  24993719.741   131342840.077       -2972.862          34.000  
C16  35604278.410   185400819.853        -182.278          48.000  
C13  37418993.910   194850494.065       -2539.215          42.000  
R 1  19078426.178   101985112.304       -2631.759          49.000  
R 3  22306450.139   119408248.572        3160.858          36.000  
R13  20722071.143   110654710.561        3311.903          35.000  
R10  22802699.518   121636778.003       -4800.393          39.000  
E 4  24057339.733   126422159.947        1416.453          46.000  
J 7  35820975.868   188240488.773        -554.773          40.000  
G20  18914355.407    99395605.897        -234.646          46.000  
E 1  23460425.168   123285420.076        1834.807          45.000  
J 3  36511144.702   191867345.948        -481.604          37.000  
G25  22342626.843   117411285.462        3318.963          38.000  
G24  18744557.567    98503344.436       -1597.933          49.000  
E21  22422919.775   117833284.274        -793.745          48.000  
E11                                                                
G32                                                                
> 2020  1 16  2 23  1.7950000  0 37                     
E27  25336179.122   133142549.363       -3067.733          41.000  
E19  22015593.160   115692735.356        -650.867          40.000  
G15  20361460.411   107000188.988       -2540.198          46.000  
J 1  36588248.357   192272541.878         120.387          47.000  
G21  22630573.527   118924449.799       -2634.907          38.000  
C 9  36639488.067   190791405.680        -174.359          45.000  
C22  20779881.335   108206262.070       -1863.090          52.000  
C 7  38103466.388   198414753.982         875.639          38.000  
C 8  38152501.695   198670063.599       -2686.877          35.000  
C 6  35363244.938   184145690.920        -193.635          46.000  
C19  24312294.719   126600432.313       -3548.792          41.000  
R 8  22634641.094   121207414.918       -4042.775          42.000  
R11  19292235.179   103091932.396       -3596.246          49.000  
R 2  18389072.580    98127647.903        1570.565          52.000  
R12  17689358.165    94493439.594          53.000          52.000  
G10  20620731.707   108362693.571        1977.611          47.000  
J 2  35817045.526   188219835.250       -1032.775          46.000  
G13  22971939.803   120718305.903       -3125.859          36.000  
E20  19104202.546   100393248.952       -2332.791          38.000  
G12  20182241.609   106058466.609        2162.234          48.000  
E12  24993832.862   131343434.697       -2973.115          34.000  
C16  35604285.328   185400856.310        -182.297          48.000  
C13  37419091.441   194851001.924       -2539.441          42.000  
R 1  19078524.615   101985638.644       -2631.801          49.000  
R 3  22306332.084   119407616.419        3161.023          36.000  
R13  20721947.149   110654048.235        3311.491          35.000  
R10  22802879.473   121637738.122       -4800.891          39.000  
E 4  24057285.799   126421876.642        1416.443          46.000  
J 7  35820997.020   188240599.753        -554.948          40.000  
G20  18914364.271    99395652.829        -234.724          46.000  
E 1  23460355.281   123285053.106        1834.785          45.000  
J 3  36511163.066   191867442.346        -481.922          37.000  
G25  22342500.500   117410621.633        3319.037          38.000  
G24  18744618.342    98503664.024       -1598.050          49.000  
E21  22422949.826   117833443.007        -793.746          48.000  
E11                                                                
G32                                                                
> 2020  1 16  2 23  1.9950000  0 37                     
E27  25336295.916   133143162.988       -3068.015          41.000  
E19  22015617.939   115692865.539        -650.971          40.000  
G15  20361557.063   107000697.045       -2540.219          46.000  
J 1  36588243.751   192272517.822         120.300          47.000  
G21  22630673.838   118924976.802       -2635.377          38.000  
C 9  36639494.829   190791440.515        -174.189          45.000  
C22  20779952.932   108206634.701       -1863.265          52.000  
C 7  38103432.704   198414578.749         876.344          38.000  
C 8  38152604.942   198670601.047       -2686.898          35.000  
C 6  35363252.395   184145729.638        -193.626          46.000  
C19  24312430.963   126601142.074       -3548.850          41.000  
R 8  22634792.121   121208223.449       -4042.941          42.000  
R11  19292369.739   103092651.655       -3596.332          49.000  
R 2  18389013.685    98127333.790        1570.486          52.000  
R12  17689356.186    94493429.002          52.818          52.000  
G10  20620656.458   108362298.015        1977.719          47.000  
J 2  35817084.869   188220041.826       -1032.925          46.000  
G13  22972058.821   120718931.055       -3125.581          36.000  
E20  19104291.311   100393715.471       -2332.510          38.000  
G12  20182159.311   106058034.163        2162.099          48.000  
E12  24993945.967   131344029.279       -2973.036          34.000  
C16  35604292.375   185400892.770        -182.365          49.000  
C13  37419188.981   194851509.799       -2539.319          42.000  
R 1  19078623.049   101986165.015       -2632.003          49.000  
R 3  22306214.006   119406984.265        3161.176          36.000  
R13  20721823.156   110653385.919        3311.210          36.000  
R10  22803059.491   121638698.211       -4800.312          39.000  
E 4  24057231.948   126421593.340        1416.442          46.000  
J 7  35821018.104   188240710.733        -555.252          40.000  
G20  18914373.230    99395699.796        -235.012          46.000  
E 1  23460285.503   123284686.146        1834.756          45.000  
J 3  36511181.364   191867538.720        -481.892          37.000  
G25  22342374.199   117409957.813        3319.122          38.000  
G24  18744679.105    98503983.633       -1598.109          49.000  
E21  22422980.057   117833601.770        -793.918          48.000  
E11                                                                
G32                                                                
> 2020  1 16  2 23  2.1950000  0 37                     
E27  25336412.776   133143776.641       -3068.477          41.000  
E19  22015642.653   115692995.751        -651.201          40.000  
G15  20361653.779   107001205.136       -2540.616          46.000  
J 1  36588239.109   192272493.786         119.947          47.000  
G21  22630774.078   118925503.816       -2635.596          38.000  
C 9  36639501.509   190791475.356        -174.451          45.000  
C22  20780024.471   108207007.357       -1863.493          52.000  
C 7  38103399.063   198414403.558         875.774          38.000  
C 8  38152708.133   198671138.532       -2687.429          35.000  
C 6  35363259.835   184145768.372        -193.843          46.000  
C19  24312567.339   126601851.843       -3548.928          41.000  
R 8  22634943.079   121209032.014       -4043.150          42.000  
R11  19292504.327   103093370.953       -3596.692          49.000  
R 2  18388954.840    98127019.706        1570.209          52.000  
R12  17689354.195    94493418.459          52.432          52.000  
G10  20620581.177   108361902.489        1977.387          47.000  
J 2  35817124.158   188220248.411       -1033.136          46.000  
G13  22972177.804   120719556.276       -3126.138          36.000  
E20  19104380.071   100394182.022       -2332.546          38.000  
G12  20182077.047   106057601.745        2161.807          48.000  
E12  24994059.170   131344623.901       -2973.364          34.000  
C16  35604299.321   185400929.232        -182.434          48.000  
C13  37419286.536   194852017.676       -2539.490          42.000  
R 1  19078721.533   101986691.419       -2632.315          49.000  
R 3  22306095.855   119406352.142        3160.651          36.000  
R13  20721699.124   110652723.609        3311.175          36.000  
R10  22803239.467   121639658.366       -4800.930          39.000  
E 4  24057178.099   126421310.064        1416.060          46.000  
J 7  35821039.246   188240821.706        -555.081          40.000  
G20  18914382.205    99395746.792        -235.251          46.000  
E 1  23460215.620   123284319.217        1834.450          45.000  
J 3  36511199.683   191867635.112        -482.016          37.000  
G25  22342247.885   117409294.018        3318.652          38.000  
G24  18744739.944    98504303.266       -1598.400          49.000  
E21  22423010.302   117833760.554        -794.103          48.000  
E11                                                                
G32                                                                
> 2020  1 16  2 23  2.3950000  0 37                     
E27  25336529.625   133144390.325       -3068.703          41.000  
E19  22015667.432   115693126.011        -651.196          40.000  
G15  20361750.473   107001713.263       -2540.620          46.000  
J 1  36588234.557   192272469.769         120.005          47.000  
G21  22630874.341   118926030.852       -2635.380          38.000  
C 9  36639508.240   190791510.231        -174.285          45.000  
C22  20780096.161   108207380.059       -1863.468          52.000  
C 7  38103365.453   198414228.402         875.770          38.000  
C 8  38152811.351   198671676.011       -2687.471          35.000  
C 6  35363267.262   184145807.130        -193.793          46.000  
C19  24312703.716   126602561.666       -3549.110          41.000  
R 8  22635094.070   121209840.620       -4043.156          42.000  
R11  19292638.958   103094090.292       -3596.753          49.000  
R 2  18388896.032    98126705.673        1570.077          52.000  
R12  17689352.235    94493407.979          52.308          52.000  
G10  20620505.901   108361507.004        1977.403          47.000  
J 2  35817163.477   188220455.033       -1033.059          46.000  
G13  22972296.732   120720181.502       -3126.456          36.000  
E20  19104468.801   100394648.627       -2332.801          38.000  
G12  20181994.764   106057169.379        2161.815          48.000  
E12  24994172.301   131345218.524       -2973.209          34.000  
C16  35604306.344   185400965.736        -182.568          48.000  
C13  37419384.080   194852525.597       -2539.587          42.000  
R 1  19078820.013   101987217.871       -2632.350          49.000  
R 3  22305977.829   119405720.025        3160.394          36.000  
R13  20721575.116   110652061.376        3311.103          35.000  
R10  22803419.439   121640618.497       -4800.825          39.000  
E 4  24057124.169   126421026.808        1416.145          46.000  
J 7  35821060.341   188240932.731        -555.123          40.000  
G20  18914391.131    99395793.847        -235.334          46.000  
E 1  23460145.915   123283952.328        1834.420          45.000  
J 3  36511218.018   191867731.525        -481.829          37.000  
G25  22342121.615   117408630.243        3319.006          39.000  
G24  18744800.721    98504622.950       -1598.351          49.000  
E21  22423040.447   117833919.399        -794.243          48.000  
E11                                                                
G32                                                                
> 2020  1 16  2 23  2.5950000  0 37                     
E27  25336646.367   133145003.970       -3068.272          41.000  
E19  22015692.205   115693256.255        -651.261          40.000  
G15  20361847.169   107002221.367       -2540.484          46.000  
J 1  36588230.035   192272445.726         120.283          47.000  
G21  22630974.624   118926557.885       -2634.994          38.000  
C 9  36639514.918   190791545.082        -174.251          45.000  
C22  20780167.680   108207752.760       -1863.490          52.000  
C 7  38103331.819   198414053.211         875.832          38.000  
C 8  38152914.587   198672213.496       -2686.975          35.000  
C 6  35363274.766   184145845.857        -193.564          46.000  
C19  24312840.024   126603271.457       -3548.933          41.000  
R 8  22635245.087   121210649.202       -4043.163          42.000  
R11  19292773.577   103094809.625       -3596.631          49.000  
R 2  18388837.202    98126391.625        1570.239          52.000  
R12  17689350.232    94493397.509          52.337          52.000  
G10  20620430.620   108361111.525        1977.330          47.000  
J 2  35817202.813   188220661.630       -1033.025          46.000  
G13  22972415.642   120720806.688       -3126.033          36.000  
E20  19104557.563   100395115.184       -2332.479          38.000  
G12  20181912.462   106056737.005        2161.843          48.000  
E12  24994285.418   131345813.101       -2972.157          34.000  
C16  35604313.435   185401002.199        -182.281          48.000  
C13  37419481.591   194853033.486       -2539.349          42.000  
R 1  19078918.476   101987744.324       -2632.338          49.000  
R 3  22305859.779   119405087.870        3160.944          36.000  
R13  20721451.082   110651399.100        3311.073          35.000  
R10  22803599.413   121641578.644       -4800.674          39.000  
E 4  24057070.214   126420743.523        1416.400          46.000  
J 7  35821081.444   188241043.721        -554.912          40.000  
G20  18914400.096    99395840.914        -235.303          46.000  
E 1  23460076.048   123283585.435        1834.444          45.000  
J 3  36511236.345   191867827.919        -481.665          37.000  
G25  22341995.309   117407966.470        3319.153          39.000  
G24  18744861.536    98504942.631       -1598.383          49.000  
E21  22423070.637   117834078.231        -794.116          48.000  
E11                                                                
G32                                                                
> 2020  1 16  2 23  2.7950000  0 37                     
E27  25336763.183   133145617.644       -3068.545          41.000  
E19  22015717.022   115693386.492        -651.449          40.000  
G15  20361943.900   107002729.479       -2540.811          46.000  
J 1  36588225.404   192272421.690         119.921          47.000  
G21  22631074.902   118927084.906       -2635.238          38.000  
C 9  36639521.575   190791579.922        -174.538          45.000  
C22  20780239.175   108208125.469       -1863.880          52.000  
C 7  38103298.166   198413878.005         875.536          38.000  
C 8  38153017.794   198672750.952       -2687.534          35.000  
C 6  35363282.111   184145884.577        -193.803          46.000  
C19  24312976.360   126603981.256       -3549.201          41.000  
R 8  22635396.106   121211457.778       -4043.120          42.000  
R11  19292908.202   103095528.975       -3597.027          49.000  
R 2  18388778.324    98126077.591        1569.882          52.000  
R12  17689348.277    94493387.068          51.823          52.000  
G10  20620355.372   108360716.048        1976.999          47.000  
J 2  35817242.117   188220868.219       -1033.246          46.000  
G13  22972534.621   120721431.896       -3126.292          36.000  
E20  19104646.351   100395581.783       -2333.046          38.000  
G12  20181830.200   106056304.642        2161.526          48.000  
E12  24994398.638   131346407.756       -2973.558          34.000  
C16  35604320.348   185401038.660        -182.516          48.000  
C13  37419579.092   194853541.374       -2539.777          42.000  
R 1  19079016.918   101988270.785       -2632.639          49.000  
R 3  22305741.706   119404455.697        3160.980          36.000  
R13  20721327.047   110650736.837        3311.131          35.000  
R10  22803779.419   121642538.758       -4800.945          39.000  
E 4  24057016.392   126420460.229        1416.363          46.000  
J 7  35821102.562   188241154.723        -555.399          40.000  
G20  18914409.037    99395887.991        -235.629          46.000  
E 1  23460006.280   123283218.523        1834.403          45.000  
J 3  36511254.683   191867924.320        -482.238          37.000  
G25  22341868.958   117407302.675        3318.738          39.000  
G24  18744922.362    98505262.318       -1598.718          49.000  
E21  22423100.991   117834237.075        -794.442          48.000  
E11                                                                
G32                                                                
> 2020  1 16  2 23  2.9950000  0 37                     
E27  25336880.044   133146231.242       -3067.955          41.000  
E19  22015741.803   115693516.667        -650.757          40.000  
G15  20362040.558   107003237.536       -2540.143          46.000  
J 1  36588220.763   192272397.577         120.554          47.000  
G21  22631175.203   118927611.885       -2634.656          38.000  
C 9  36639528.223   190791614.683        -173.630          45.000  
C22  20780310.719   108208498.119       -1863.223          52.000  
C 7  38103264.508   198413702.737         876.411          38.000  
C 8  38153120.995   198673288.354       -2687.018          35.000  
C 6  35363289.559   184145923.233        -193.166          46.000  
C19  24313112.621   126604690.987       -3548.537          41.000  
R 8  22635547.072   121212266.301       -4042.500          42.000  
R11  19293042.790   103096248.265       -3596.374          49.000  
R 2  18388719.494    98125763.503        1570.439          52.000  
R12  17689346.320    94493376.587          52.410          52.000  
G10  20620280.106   108360320.519        1977.840          47.000  
J 2  35817281.392   188221074.743       -1032.458          46.000  
G13  22972653.580   120722057.016       -3125.565          36.000  
E20  19104735.106   100396048.286       -2332.228          38.000  
G12  20181747.896   106055872.229        2162.150          48.000  
E12  24994511.863   131347002.292       -2972.766          34.000  
C16  35604327.385   185401075.052        -181.817          49.000  
C13  37419676.593   194854049.190       -2538.849          42.000  
R 1  19079115.428   101988797.200       -2631.964          49.000  
R 3  22305623.624   119403823.462        3161.572          36.000  
R13  20721203.013   110650074.512        3311.682          35.000  
R10  22803959.382   121643498.802       -4800.164          39.000  
E 4  24056962.502   126420176.895        1416.805          46.000  
J 7  35821123.668   188241265.622        -554.478          40.000  
G20  18914417.972    99395935.039        -235.280          46.000  
E 1  23459936.441   123282851.581        1834.981          45.000  
J 3  36511273.021   191868020.636        -482.137          37.000  
G25  22341742.662   117406638.822        3319.208          39.000  
G24  18744983.173    98505581.954       -1598.258          49.000  
E21  22423131.103   117834395.870        -793.810          48.000  
E11                                                                
G32                                                                
> 2020  1 16  2 23  3.1950000  0 37                     
E27  25336996.908   133146844.903       -3068.352          41.000  
E19  22015766.588   115693646.904        -651.396          40.000  
G15  20362137.240   107003745.651       -2540.752          46.000  
J 1  36588216.191   192272373.511         120.138          47.000  
G21  22631275.479   118928138.920       -2635.647          38.000  
C 9  36639534.931   190791649.502        -174.164          45.000  
C22  20780382.239   108208870.843       -1863.692          52.000  
C 7  38103230.847   198413527.518         876.115          38.000  
C 8  38153224.221   198673825.818       -2687.700          35.000  
C 6  35363296.981   184145961.938        -193.647          46.000  
C19  24313248.976   126605400.779       -3549.234          41.000  
R 8  22635698.068   121213074.883       -4042.913          42.000  
R11  19293177.419   103096967.633       -3596.972          49.000  
R 2  18388660.599    98125449.483        1569.892          52.000  
R12  17689344.398    94493366.197          51.671          52.000  
G10  20620204.855   108359925.069        1976.860          47.000  
J 2  35817320.725   188221281.327       -1032.985          46.000  
G13  22972772.597   120722682.198       -3125.996          36.000  
E20  19104823.990   100396514.861       -2332.786          38.000  
G12  20181665.637   106055439.891        2161.521          48.000  
E12  24994625.054   131347596.857       -2973.239          34.000  
C16  35604334.477   185401111.492        -182.347          48.000  
C13  37419774.134   194854557.064       -2539.429          42.000  
R 1  19079213.965   101989323.688       -2632.607          49.000  
R 3  22305505.530   119403191.299        3160.895          36.000  
R13  20721078.976   110649412.297        3310.774          35.000  
R10  22804139.385   121644458.910       -4800.667          38.000  
E 4  24056908.636   126419893.598        1416.285          46.000  
J 7  35821144.793   188241376.609        -554.906          40.000  
G20  18914426.981    99395982.146        -235.756          46.000  
E 1  23459866.706   123282484.703        1834.006          45.000  
J 3  36511291.308   191868116.966        -481.681          37.000  
G25  22341616.319   117405975.028        3318.909          39.000  
G24  18745044.016    98505901.647       -1598.723          49.000  
E21  22423161.471   117834554.737        -794.598          48.000  
E11                                                                
G32                                                                
> 2020  1 16  2 23  3.3950000  0 37                     
E27  25337113.697   133147458.581       -3068.448          41.000  
E19  22015791.271   115693777.141        -651.030          40.000  
G15  20362233.888   107004253.780       -2540.919          46.000  
J 1  36588211.692   192272349.449         120.157          47.000  
G21  22631375.774   118928665.936       -2635.404          38.000  
C 9  36639541.597   190791684.322        -174.428          45.000  
C22  20780453.826   108209243.591       -1864.037          52.000  
C 7  38103197.189   198413352.298         876.037          38.000  
C 8  38153327.430   198674363.272       -2687.528          35.000  
C 6  35363304.341   184146000.639        -193.699          46.000  
C19  24313385.306   126606110.570       -3548.994          41.000  
R 8  22635849.078   121213883.484       -4043.022          42.000  
R11  19293312.087   103097687.018       -3597.198          49.000  
R 2  18388601.776    98125135.481        1569.736          52.000  
R12  17689342.458    94493355.836          51.536          52.000  
G10  20620129.573   108359529.609        1977.122          47.000  
J 2  35817360.062   188221487.927       -1033.279          46.000  
G13  22972891.608   120723307.411       -3126.107          36.000  
E20  19104912.780   100396981.425       -2332.583          38.000  
G12  20181583.361   106055007.567        2161.373          48.000  
E12  24994738.231   131348191.438       -2972.503          34.000  
C16  35604341.415   185401147.927        -182.341          48.000  
C13  37419871.606   194855064.939       -2539.648          42.000  
R 1  19079312.444   101989850.203       -2632.853          49.000  
R 3  22305387.451   119402559.114        3160.645          36.000  
R13  20720954.977   110648750.069        3310.253          35.000  
R10  22804319.338   121645419.018       -4800.695          38.000  
E 4  24056854.613   126419610.296        1416.366          46.000  
J 7  35821165.937   188241487.579        -555.100          40.000  
G20  18914435.974    99396029.290        -235.934          46.000  
E 1  23459796.884   123282117.805        1834.336          45.000  
J 3  36511309.643   191868213.334        -481.849          37.000  
G25  22341489.968   117405311.215        3318.884          39.000  
G24  18745104.816    98506221.360       -1598.752          49.000  
E21  22423191.755   117834713.615        -794.504          48.000  
E11                                                                
G32                                                                
> 2020  1 16  2 23  3.5950000  0 37                     
E27  25337230.530   133148072.249       -3068.180          41.000  
E19  22015816.130   115693907.402        -651.289          40.000  
G15  20362330.578   107004761.891       -2540.624          46.000  
J 1  36588207.077   192272325.370         120.504          47.000  
G21  22631476.053   118929192.947       -2635.087          38.000  
C 9  36639548.311   190791719.110        -173.913          45.000  
C22  20780525.442   108209616.330       -1863.799          52.000  
C 7  38103163.511   198413177.062         876.625          38.000  
C 8  38153430.636   198674900.702       -2687.264          35.000  
C 6  35363311.839   184146039.314        -193.331          46.000  
C19  24313521.656   126606820.356       -3548.741          41.000  
R 8  22636000.034   121214692.078       -4042.890          42.000  
R11  19293446.693   103098406.401       -3596.918          49.000  
R 2  18388542.968    98124821.475        1570.032          52.000  
R12  17689340.484    94493345.490          51.793          52.000  
G10  20620054.327   108359134.174        1977.356          47.000  
J 2  35817399.382   188221694.479       -1032.801          46.000  
G13  22973010.574   120723932.575       -3126.033          36.000  
E20  19105001.601   100397448.017       -2332.999          38.000  
G12  20181501.062   106054575.234        2161.647          48.000  
E12  24994851.409   131348785.998       -2972.947          34.000  
C16  35604348.453   185401184.347        -182.015          49.000  
C13  37419969.125   194855572.811       -2539.478          42.000  
R 1  19079410.918   101990376.714       -2632.587          49.000  
R 3  22305269.333   119401926.911        3161.011          36.000  
R13  20720830.992   110648087.850        3310.562          35.000  
R10  22804499.309   121646379.094       -4800.486          38.000  
E 4  24056800.680   126419326.994        1416.536          46.000  
J 7  35821187.046   188241598.539        -554.879          40.000  
G20  18914444.897    99396076.439        -235.706          46.000  
E 1  23459727.118   123281750.935        1834.368          45.000  
J 3  36511327.962   191868309.664        -481.880          37.000  
G25  22341363.660   117404647.388        3319.257          39.000  
G24  18745165.666    98506541.071       -1598.567          49.000  
E21  22423221.836   117834872.509        -794.414          48.000  
E11                                                                
G32                                                                
> 2020  1 16  2 23  3.7950000  0 37                     
E27  25337347.340   133148685.953       -3068.705          41.000  
E19  22015840.882   115694037.673        -651.538          40.000  
G15  20362427.279   107005270.041       -2540.848          46.000  
J 1  36588202.451   192272301.317         120.157          47.000  
G21  22631576.312   118929719.967       -2634.842          38.000  
C 9  36639555.019   190791753.920        -174.041          45.000  
C22  20780597.019   108209989.102       -1863.931          52.000  
C 7  38103129.926   198413001.858         876.102          38.000  
C 8  38153533.816   198675438.159       -2687.199          35.000  
C 6  35363319.233   184146078.016        -193.503          46.000  
C19  24313657.992   126607530.170       -3549.110          41.000  
R 8  22636151.061   121215500.688       -4043.166          42.000  
R11  19293581.383   103099125.826       -3597.162          49.000  
R 2  18388484.109    98124507.510        1569.807          52.000  
R12  17689338.519    94493335.203          51.397          52.000  
G10  20619979.050   108358738.773        1976.834          47.000  
J 2  35817438.723   188221901.073       -1032.771          46.000  
G13  22973129.521   120724557.784       -3126.259          36.000  
E20  19105090.446   100397914.619       -2333.297          38.000  
G12  20181418.821   106054142.951        2161.547          48.000  
E12  24994964.608   131349380.574       -2972.615          34.000  
C16  35604355.487   185401220.786        -182.218          49.000  
C13  37420066.621   194856080.684       -2539.276          42.000  
R 1  19079509.396   101990903.270       -2632.881          49.000  
R 3  22305151.246   119401294.733        3160.468          36.000  
R13  20720706.983   110647425.617        3310.620          35.000  
R10  22804679.311   121647339.212       -4800.758          38.000  
E 4  24056746.767   126419043.696        1416.420          46.000  
J 7  35821208.201   188241709.501        -554.958          40.000  
G20  18914453.873    99396123.640        -236.017          46.000  
E 1  23459657.332   123281384.086        1834.148          45.000  
J 3  36511346.319   191868406.041        -482.421          37.000  
G25  22341237.344   117403983.617        3318.792          39.000  
G24  18745226.517    98506860.823       -1598.786          49.000  
E21  22423252.137   117835031.432        -794.775          48.000  
E11                                                                
G32                                                                
> 2020  1 16  2 23  3.9950000  0 37                     
E27  25337464.138   133149299.585       -3068.028          41.000  
E19  22015865.733   115694167.887        -650.992          40.000  
G15  20362523.974   107005778.142       -2540.440          46.000  
J 1  36588197.891   192272277.208         120.544          47.000  
G21  22631676.627   118930246.989       -2634.746          38.000  
C 9  36639561.697   190791788.681        -173.723          45.000  
C22  20780668.641   108210361.847       -1863.722          52.000  
C 7  38103096.245   198412826.610         876.277          38.000  
C 8  38153637.008   198675975.569       -2687.053          35.000  
C 6  35363326.708   184146116.664        -193.260          46.000  
C19  24313794.344   126608239.937       -3548.897          41.000  
R 8  22636302.060   121216309.259       -4042.881          42.000  
R11  19293715.988   103099845.215       -3596.930          49.000  
R 2  18388425.298    98124193.509        1570.007          52.000  
R12  17689336.546    94493324.897          51.499          52.000  
G10  20619903.813   108358343.325        1977.193          47.000  
J 2  35817478.033   188222107.633       -1032.797          46.000  
G13  22973248.516   120725182.919       -3125.618          36.000  
E20  19105179.249   100398381.174       -2333.133          38.000  
G12  20181336.521   106053710.647        2161.424          48.000  
E12  24995077.754   131349975.113       -2972.354          34.000  
C16  35604362.430   185401257.168        -181.892          48.000  
C13  37420164.153   194856588.524       -2539.112          42.000  
R 1  19079607.880   101991429.793       -2632.594          49.000  
R 3  22305033.151   119400662.482        3161.243          36.000  
R13  20720582.967   110646763.383        3311.069          35.000  
R10  22804859.309   121648299.267       -4800.354          38.000  
E 4  24056692.916   126418760.357        1416.725          46.000  
J 7  35821229.312   188241820.433        -554.733          40.000  
G20  18914462.822    99396170.817        -235.882          46.000  
E 1  23459587.470   123281017.197        1834.408          45.000  
J 3  36511364.633   191868502.308        -481.471          37.000  
G25  22341111.003   117403319.753        3319.318          39.000  
G24  18745287.323    98507180.541       -1598.622          49.000  
E21  22423282.328   117835190.326        -794.523          48.000  
E11                                                                
G32                                                                
> 2020  1 16  2 23  6.1950000  0 37                     
E27  25338748.905   133156050.497       -3069.024          41.000  
E19  22016138.517   115695601.157        -651.767          40.000  
G15  20363587.652   107011368.160       -2541.418          46.000  
J 1  36588147.484   192272012.215         120.231          47.000  
G21  22632779.874   118936044.516       -2635.502          38.000  
C 9  36639635.153   190792171.056        -174.045          45.000  
C22  20781456.187   108214463.313       -1864.955          52.000  
C 7  38102726.210   198410898.992         875.997          38.000  
C 8  38154772.219   198681887.156       -2687.129          34.000  
C 6  35363408.278   184146541.826        -193.353          46.000  
C19  24315294.131   126616047.968       -3549.504          41.000  
R 8  22637963.199   121225204.363       -4043.594          42.000  
R11  19295197.091   103107760.042       -3598.517          49.000  
R 2  18387778.262    98120740.789        1568.666          52.000  
R12  17689315.789    94493213.775          49.422          53.000  
G10  20619076.491   108353994.775        1975.900          47.000  
J 2  35817910.355   188224380.000       -1033.237          46.000  
G13  22974557.166   120732059.948       -3125.938          37.000  
E20  19106155.912   100403513.908       -2333.327          38.000  
G12  20180431.719   106048956.554        2160.216          49.000  
E12  24996322.454   131356515.034       -2972.776          34.000  
C16  35604439.340   185401657.464        -182.031          48.000  
C13  37421237.150   194862175.105       -2539.948          42.000  
R 1  19080691.641   101997223.204       -2634.148          49.000  
R 3  22303733.908   119393707.789        3161.493          36.000  
R13  20719218.976   110639479.967        3310.447          35.000  
R10  22806839.170   121658860.111       -4800.652          36.000  
E 4  24056099.937   126415643.944        1416.348          46.000  
J 7  35821461.538   188243040.749        -554.750          40.000  
G20  18914561.941    99396691.655        -237.626          46.000  
E 1  23458819.968   123276982.420        1833.564          45.000  
J 3  36511566.076   191869561.593        -481.762          36.000  
G25  22339721.556   117396017.853        3318.719          38.000  
G24  18745956.805    98510698.659       -1599.876          49.000  
E21  22423615.223   117836939.547        -795.710          48.000  
E11                                                                
G32                                                                
> 2020  1 16  2 23 12.9950000  0 37                     
E27  25342720.551   133176921.811       -3070.035          41.000  
E19  22016982.623   115700036.337        -653.057          40.000  
G15  20366876.716   107028652.275       -2542.698          46.000  
J 1  36587991.390   192271191.666         120.379          47.000  
G21  22636190.583   118953966.610       -2636.225          38.000  
C 9  36639861.359   190793349.523        -173.163          45.000  
C22  20783893.065   108227151.719       -1867.563          52.000  
C 7  38101581.702   198404940.174         875.953          37.000  
C 8  38158280.636   198700157.526       -2686.919          35.000  
C 6  35363659.999   184147852.720        -192.606          46.000  
C19  24319929.867   126640184.870       -3550.252          40.000  
R 8  22643098.783   121252703.820       -4044.991          44.000  
R11  19299777.769   103132237.051       -3601.294          49.000  
R 2  18385780.074    98110078.645        1566.486          52.000  
R12  17689256.028    94492893.948          44.064          52.000  
G10  20616520.916   108340564.807        1973.637          47.000  
J 2  35819247.060   188231404.134       -1033.221          46.000  
G13  22978602.844   120753316.930       -3126.262          37.000  
E20  19109175.638   100419382.639       -2334.651          38.000  
G12  20177637.759   106034274.342        2157.508          48.000  
E12  25000168.538   131376726.448       -2972.136          34.000  
C16  35604676.293   185402891.595        -181.502          48.000  
C13  37424553.248   194879443.127       -2539.764          42.000  
R 1  19084044.330   102015144.831       -2637.503          49.000  
R 3  22299717.853   119372207.187        3161.945          37.000  
R13  20715004.711   110616977.251        3307.679          36.000  
R10  22812958.269   121691500.880       -4800.354          38.000  
E 4  24054266.719   126406011.069        1416.273          46.000  
J 7  35822178.623   188246811.002        -554.803          40.000  
G20  18914871.841    99398320.100        -241.959          46.000  
E 1  23456447.951   123264518.948        1831.738          45.000  
J 3  36512188.046   191872831.844        -480.913          36.000  
G25  22335426.704   117373448.709        3318.646          38.000  
G24  18748028.146    98521583.807       -1602.299          48.000  
E21  22424646.419   117842358.762        -798.539          47.000  
E11                                                                
G32                                                                
> 2020  1 16  2 23 13.1950000  0 37                     
E27  25342837.381   133177535.829       -3070.070          41.000  
E19  22017007.441   115700166.940        -652.942          41.000  
G15  20366973.485   107029160.809       -2542.705          46.000  
J 1  36587986.841   192271167.534         120.805          47.000  
G21  22636290.861   118954493.825       -2635.861          38.000  
C 9  36639868.063   190793384.147        -173.082          45.000  
C22  20783964.808   108227525.200       -1867.288          52.000  
C 7  38101548.052   198404764.952         875.875          38.000  
C 8  38158383.832   198700694.903       -2686.771          35.000  
C 6  35363667.453   184147891.252        -192.607          46.000  
C19  24320066.182   126640894.885       -3550.083          40.000  
R 8  22643249.854   121253512.793       -4044.688          44.000  
R11  19299912.544   103132957.297       -3601.117          49.000  
R 2  18385721.391    98109765.337        1566.617          52.000  
R12  17689254.393    94492885.115          44.244          52.000  
G10  20616445.811   108340170.110        1973.619          47.000  
J 2  35819286.408   188231610.787       -1033.075          46.000  
G13  22978721.819   120753942.198       -3126.150          37.000  
E20  19109264.551   100419849.493       -2334.544          38.000  
G12  20177555.708   106033842.826        2157.606          48.000  
E12  25000281.680   131377320.899       -2972.303          34.000  
C16  35604683.301   185402927.861        -181.249          48.000  
C13  37424650.792   194879951.061       -2539.404          42.000  
R 1  19084142.997   102015672.310       -2637.260          49.000  
R 3  22299599.731   119371574.775        3162.195          37.000  
R13  20714880.789   110616315.681        3307.713          36.000  
R10  22813138.277   121692460.910       -4800.374          38.000  
E 4  24054212.708   126405727.787        1416.520          46.000  
J 7  35822199.692   188246921.890        -554.589          40.000  
G20  18914881.000    99398368.453        -241.636          46.000  
E 1  23456378.137   123264152.591        1831.845          45.000  
J 3  36512206.306   191872927.996        -480.968          36.000  
G25  22335300.412   117372784.954        3318.738          38.000  
G24  18748089.127    98521904.251       -1602.121          48.000  
E21  22424676.771   117842518.486        -798.534          47.000  
E11                                                                
G32                                                                
> 2020  1 16  2 23 13.3950000  0 37                     
E27  25342954.293   133178149.849       -3070.228          41.000  
E19  22017032.356   115700297.546        -653.025          41.000  
G15  20367070.277   107029669.334       -2542.729          46.000  
J 1  36587982.252   192271143.403         120.492          47.000  
G21  22636391.213   118955021.032       -2635.772          38.000  
C 9  36639874.710   190793418.764        -173.190          45.000  
C22  20784036.540   108227898.695       -1867.584          52.000  
C 7  38101514.415   198404589.702         876.122          37.000  
C 8  38158486.983   198701232.245       -2686.498          35.000  
C 6  35363674.847   184147929.755        -192.682          46.000  
C19  24320202.534   126641604.901       -3550.270          40.000  
R 8  22643400.910   121254321.785       -4044.972          44.000  
R11  19300047.348   103133677.555       -3601.349          49.000  
R 2  18385662.631    98109452.035        1566.397          52.000  
R12  17689252.778    94492876.317          43.841          52.000  
G10  20616370.682   108339775.414        1973.378          47.000  
J 2  35819325.753   188231817.430       -1033.409          46.000  
G13  22978840.826   120754567.460       -3126.476          37.000  
E20  19109353.332   100420316.332       -2334.369          38.000  
G12  20177473.608   106033411.327        2157.415          48.000  
E12  25000394.739   131377915.307       -2972.146          34.000  
C16  35604690.316   185402964.119        -181.332          48.000  
C13  37424748.307   194880459.004       -2539.862          42.000  
R 1  19084241.676   102016199.814       -2637.703          49.000  
R 3  22299481.571   119370942.329        3161.981          37.000  
R13  20714756.857   110615654.094        3307.701          36.000  
R10  22813318.271   121693420.926       -4800.476          38.000  
E 4  24054158.781   126405444.492        1416.410          46.000  
J 7  35822220.783   188247032.766        -554.475          40.000  
G20  18914890.213    99398416.834        -242.042          46.000  
E 1  23456308.613   123263786.247        1831.557          45.000  
J 3  36512224.568   191873024.095        -480.590          36.000  
G25  22335174.060   117372121.213        3318.347          37.000  
G24  18748150.160    98522224.709       -1602.432          49.000  
E21  22424707.165   117842678.212        -798.768          47.000  
E11                                                                
G32                                                                
> 2020  1 16  2 23 13.5950000  0 37                     
E27  25343071.241   133178763.873       -3070.261          41.000  
E19  22017057.321   115700428.171        -653.438          40.000  
G15  20367167.046   107030177.882       -2542.839          46.000  
J 1  36587977.605   192271119.271         120.535          47.000  
G21  22636491.538   118955548.274       -2635.969          38.000  
C 9  36639881.349   190793453.379        -173.216          45.000  
C22  20784108.257   108228272.210       -1867.796          52.000  
C 7  38101480.760   198404414.453         876.195          37.000  
C 8  38158590.147   198701769.592       -2686.462          35.000  
C 6  35363682.205   184147968.263        -192.575          46.000  
C19  24320338.895   126642314.920       -3550.147          40.000  
R 8  22643551.967   121255130.765       -4045.033          44.000  
R11  19300182.132   103134397.838       -3601.611          49.000  
R 2  18385603.914    98109138.757        1566.197          52.000  
R12  17689251.159    94492867.551          43.584          52.000  
G10  20616295.581   108339380.739        1973.226          47.000  
J 2  35819365.133   188232024.072       -1033.394          46.000  
G13  22978959.777   120755192.702       -3126.334          37.000  
E20  19109442.102   100420783.189       -2334.357          38.000  
G12  20177391.507   106032979.849        2157.312          48.000  
E12  25000507.872   131378509.702       -2971.990          34.000  
C16  35604697.219   185403000.380        -181.471          48.000  
C13  37424845.859   194880966.936       -2539.893          42.000  
R 1  19084340.354   102016727.330       -2637.833          49.000  
R 3  22299363.451   119370309.888        3162.024          37.000  
R13  20714632.992   110614992.565        3307.204          36.000  
R10  22813498.225   121694380.935       -4800.115          38.000  
E 4  24054104.806   126405161.205        1416.365          46.000  
J 7  35822241.907   188247143.648        -554.465          40.000  
G20  18914899.387    99398465.246        -242.208          46.000  
E 1  23456238.848   123263419.904        1831.538          45.000  
J 3  36512242.855   191873120.238        -480.950          36.000  
G25  22335047.768   117371457.435        3318.951          37.000  
G24  18748211.132    98522545.181       -1602.569          49.000  
E21  22424737.519   117842837.965        -798.909          47.000  
E11                                                                
G32                                                                
> 2020  1 16  2 23 13.7950000  0 37                     
E27  25343188.038   133179377.941       -3070.184          41.000  
E19  22017082.217   115700558.826        -653.021          40.000  
G15  20367263.812   107030686.478       -2542.734          46.000  
J 1  36587973.053   192271095.168         120.907          47.000  
G21  22636591.867   118956075.547       -2636.136          38.000  
C 9  36639888.024   190793488.028        -173.063          45.000  
C22  20784179.999   108228645.768       -1867.528          52.000  
C 7  38101447.142   198404239.261         876.172          37.000  
C 8  38158693.344   198702306.986       -2686.511          35.000  
C 6  35363689.577   184148006.811        -192.491          46.000  
C19  24320475.277   126643024.988       -3550.021          40.000  
R 8  22643703.016   121255939.811       -4044.870          44.000  
R11  19300316.906   103135118.168       -3601.428          49.000  
R 2  18385545.273    98108825.524        1566.446          52.000  
R12  17689249.580    94492858.848          43.706          52.000  
G10  20616220.476   108338986.114        1973.327          47.000  
J 2  35819404.446   188232230.748       -1033.105          46.000  
G13  22979078.790   120755818.017       -3126.294          37.000  
E20  19109530.970   100421250.086       -2333.751          38.000  
G12  20177309.379   106032548.422        2157.498          48.000  
E12  25000620.979   131379104.167       -2971.651          34.000  
C16  35604704.199   185403036.671        -181.245          48.000  
C13  37424943.444   194881474.914       -2539.612          42.000  
R 1  19084439.084   102017254.904       -2637.657          49.000  
R 3  22299245.290   119369677.466        3162.281          37.000  
R13  20714509.068   110614331.026        3308.073          36.000  
R10  22813678.209   121695340.988       -4800.049          38.000  
E 4  24054050.947   126404877.956        1416.539          46.000  
J 7  35822263.009   188247254.590        -554.638          40.000  
G20  18914908.605    99398513.714        -242.106          46.000  
E 1  23456169.180   123263053.623        1831.596          45.000  
J 3  36512261.097   191873216.393        -480.756          36.000  
G25  22334921.512   117370793.726        3319.128          37.000  
G24  18748272.120    98522865.701       -1602.294          49.000  
E21  22424767.854   117842997.765        -798.756          47.000  
E11                                                                
G32                                                                
